#Time	 Roll 	 Pitch 	 Yaw 	 Thrust
1399430411925887503	1520	1515	1532	1378
1399430411960905190	1519	1516	1532	1378
1399430411975918853	1519	1516	1532	1378
1399430411991015945	1520	1515	1532	1378
1399430412015978505	1519	1516	1532	1378
1399430412030923143	1519	1515	1532	1378
1399430412051025986	1520	1515	1532	1378
1399430412065947126	1520	1515	1532	1378
1399430412080895581	1520	1516	1532	1378
1399430412100999895	1520	1515	1532	1378
1399430412125948015	1520	1516	1532	1378
1399430412150990838	1520	1515	1532	1377
1399430412176211545	1519	1515	1532	1378
1399430412206078177	1519	1516	1532	1378
1399430412226123816	1519	1516	1532	1377
1399430412261335538	1520	1515	1532	1378
1399430412276199116	1519	1515	1532	1377
1399430412291046167	1518	1515	1532	1377
1399430412311144311	1518	1516	1532	1378
1399430412326191455	1520	1515	1532	1378
1399430412341060013	1520	1515	1532	1378
1399430412366009739	1519	1515	1532	1378
1399430412391163998	1519	1516	1532	1378
1399430412426067816	1519	1515	1532	1427
1399430412440909744	1519	1516	1532	1427
1399430412456165190	1519	1516	1532	1427
1399430412476169523	1520	1516	1532	1427
1399430412491194151	1520	1515	1532	1427
1399430412505904733	1520	1515	1532	1428
1399430412525971487	1519	1516	1532	1428
1399430412540846562	1519	1516	1532	1428
1399430412555859312	1519	1516	1532	1428
1399430412575976559	1518	1516	1532	1428
1399430412590985650	1519	1516	1532	1429
1399430412615928179	1519	1514	1532	1428
1399430412640933206	1519	1515	1532	1429
1399430412675906559	1519	1515	1532	1428
1399430412705909082	1518	1514	1532	1428
1399430412715852722	1517	1514	1532	1429
1399430412730898160	1516	1514	1532	1429
1399430412750919858	1516	1514	1532	1429
1399430412765949133	1517	1513	1532	1429
1399430412780950826	1517	1514	1532	1429
1399430412800958162	1517	1513	1531	1429
1399430412825996710	1517	1511	1531	1428
1399430412850943959	1516	1511	1531	1428
1399430412876006506	1515	1511	1531	1428
1399430412911013007	1514	1511	1531	1427
1399430412925994865	1512	1510	1531	1427
1399430412950852334	1512	1509	1530	1428
1399430412965914924	1513	1508	1530	1427
1399430412980853017	1511	1508	1530	1427
1399430413001002669	1509	1508	1530	1427
1399430413015901353	1508	1505	1529	1426
1399430413030891031	1507	1503	1529	1425
1399430413060896554	1507	1502	1529	1426
1399430413080892463	1506	1499	1529	1425
1399430413110960232	1503	1499	1528	1424
1399430413141098291	1502	1495	1528	1423
1399430413175942990	1501	1494	1528	1423
1399430413190952196	1498	1492	1528	1422
1399430413205928625	1499	1491	1527	1421
1399430413225947373	1496	1486	1527	1421
1399430413240935155	1496	1490	1527	1423
1399430413255996326	1495	1483	1527	1421
1399430413275914559	1496	1484	1527	1421
1399430413290909015	1493	1481	1527	1420
1399430413311149231	1495	1481	1527	1421
1399430413341253110	1495	1476	1527	1421
1399430413361087449	1495	1475	1527	1421
1399430413391064501	1494	1472	1527	1421
1399430413416094722	1493	1468	1527	1420
1399430413431119995	1493	1465	1527	1420
1399430413451174472	1491	1464	1527	1421
1399430413471182579	1491	1460	1527	1420
1399430413480894425	1495	1459	1527	1421
1399430413501324398	1493	1457	1527	1420
1399430413516123525	1495	1456	1527	1422
1399430413531105063	1495	1452	1527	1421
1399430413551013809	1497	1453	1527	1422
1399430413576187135	1495	1449	1526	1422
1399430413611169675	1494	1446	1527	1422
1399430413631191580	1495	1443	1526	1422
1399430413661248934	1497	1444	1526	1423
1399430413676131154	1496	1442	1526	1423
1399430413691089298	1497	1440	1526	1422
1399430413711155332	1498	1439	1526	1423
1399430413726076424	1497	1441	1526	1424
1399430413741208604	1498	1439	1526	1423
1399430413761290565	1496	1438	1525	1424
1399430413776215567	1499	1442	1525	1425
1399430413796205375	1499	1442	1525	1425
1399430413826263187	1501	1440	1525	1425
1399430413861253094	1501	1441	1525	1427
1399430413876157922	1501	1443	1525	1428
1399430413891216164	1502	1440	1524	1427
1399430413926188574	1502	1444	1524	1428
1399430413941203595	1503	1446	1524	1428
1399430413961176193	1505	1446	1524	1428
1399430413976101943	1503	1450	1524	1430
1399430413990948928	1505	1447	1524	1428
1399430414016026373	1504	1451	1524	1431
1399430414041138659	1506	1453	1523	1430
1399430414061125501	1507	1455	1523	1431
1399430414091210046	1509	1459	1522	1429
1399430414126241450	1509	1463	1522	1432
1399430414171001468	1511	1466	1521	1431
1399430414181037861	1510	1468	1521	1432
1399430414201239591	1511	1470	1521	1432
1399430414216226406	1511	1472	1521	1433
1399430414231196123	1513	1472	1521	1432
1399430414251201697	1515	1475	1521	1432
1399430414276182014	1514	1477	1521	1432
1399430414291211317	1516	1478	1521	1432
1399430414311215091	1516	1479	1521	1432
1399430414330979194	1518	1483	1521	1433
1399430414361304099	1518	1485	1521	1433
1399430414391228199	1517	1486	1521	1432
1399430414416187379	1518	1490	1521	1434
1399430414431153987	1519	1489	1521	1433
1399430414451117353	1518	1489	1521	1433
1399430414466064313	1519	1491	1521	1434
1399430414481196564	1517	1491	1521	1433
1399430414501144297	1517	1490	1521	1434
1399430414516090220	1518	1491	1520	1433
1399430414531074691	1518	1492	1520	1434
1399430414561152721	1517	1491	1520	1435
1399430414576134134	1516	1492	1520	1434
1399430414610968756	1517	1493	1520	1435
1399430414640994675	1514	1493	1520	1436
1399430414665961194	1514	1493	1520	1435
1399430414680929217	1513	1491	1520	1435
1399430414700935711	1512	1491	1520	1435
1399430414715927236	1512	1491	1520	1435
1399430414735928559	1511	1491	1520	1435
1399430414751187505	1510	1490	1520	1435
1399430414766127843	1510	1490	1520	1436
1399430414791167640	1511	1489	1520	1435
1399430414811116773	1511	1487	1520	1434
1399430414840935497	1510	1486	1521	1434
1399430414876158092	1508	1485	1521	1435
1399430414921296721	1507	1483	1521	1435
1399430414931157915	1506	1483	1521	1436
1399430414951179153	1506	1481	1521	1435
1399430414966077972	1505	1481	1521	1435
1399430414981203657	1505	1481	1521	1436
1399430415011036579	1505	1480	1521	1436
1399430415041252349	1504	1479	1520	1437
1399430415061241887	1504	1477	1520	1437
1399430415091196764	1504	1475	1520	1437
1399430415116174635	1505	1472	1519	1437
1399430415131112570	1505	1473	1519	1437
1399430415155984764	1504	1472	1519	1437
1399430415176183566	1504	1472	1519	1437
1399430415196179532	1504	1470	1519	1437
1399430415211183542	1505	1469	1519	1438
1399430415226128868	1504	1469	1518	1439
1399430415246239020	1504	1468	1518	1439
1399430415261171992	1504	1465	1518	1437
1399430415276180423	1504	1465	1518	1437
1399430415301223252	1503	1465	1518	1439
1399430415326176831	1504	1461	1518	1437
1399430415351185632	1505	1462	1518	1438
1399430415376263321	1507	1459	1518	1437
1399430415390971014	1505	1459	1518	1437
1399430415406134983	1506	1459	1518	1438
1399430415425983846	1507	1458	1518	1438
1399430415441227616	1507	1459	1518	1439
1399430415456169943	1509	1457	1518	1438
1399430415476228126	1509	1457	1518	1439
1399430415491209766	1510	1456	1518	1438
1399430415506166667	1510	1456	1518	1438
1399430415526148691	1509	1456	1518	1438
1399430415541169682	1511	1455	1517	1437
1399430415576350133	1509	1457	1517	1439
1399430415611193711	1510	1456	1516	1438
1399430415631190853	1512	1458	1516	1438
1399430415666204457	1513	1458	1516	1438
1399430415681087553	1512	1458	1516	1438
1399430415701172431	1513	1458	1515	1438
1399430415716034097	1512	1459	1515	1438
1399430415731129287	1512	1459	1515	1438
1399430415761270148	1513	1460	1515	1438
1399430415781009512	1514	1462	1515	1438
1399430415801184558	1514	1462	1515	1439
1399430415826163808	1514	1463	1515	1438
1399430415861120195	1514	1464	1514	1439
1399430415891212759	1514	1466	1514	1439
1399430415911124341	1515	1467	1514	1439
1399430415926195864	1515	1468	1514	1437
1399430415940924651	1515	1470	1514	1438
1399430415961227826	1516	1471	1514	1438
1399430415976148346	1515	1473	1514	1440
1399430415996063269	1516	1474	1514	1440
1399430416026135567	1517	1475	1514	1440
1399430416045899021	1517	1476	1513	1440
1399430416076149762	1518	1478	1513	1440
1399430416101232814	1519	1480	1513	1441
1399430416116221707	1518	1480	1513	1441
1399430416131163588	1517	1482	1513	1441
1399430416151224084	1517	1483	1513	1441
1399430416176094878	1518	1484	1513	1442
1399430416191124338	1519	1485	1513	1442
1399430416211182743	1517	1484	1513	1442
1399430416231331177	1518	1485	1513	1442
1399430416261258311	1518	1486	1513	1442
1399430416291231685	1518	1486	1512	1441
1399430416316138067	1519	1486	1512	1441
1399430416331161043	1518	1487	1512	1441
1399430416351223723	1515	1486	1513	1441
1399430416366160073	1516	1486	1512	1441
1399430416381103983	1516	1486	1513	1441
1399430416401055108	1516	1485	1513	1440
1399430416416129038	1516	1486	1513	1440
1399430416431130767	1514	1486	1513	1441
1399430416451209978	1514	1485	1513	1440
1399430416476167696	1515	1484	1512	1439
1399430416491051336	1514	1483	1513	1439
1399430416510959338	1513	1483	1513	1439
1399430416541043431	1513	1482	1513	1439
1399430416575968634	1511	1481	1513	1439
1399430416590920085	1511	1481	1513	1438
1399430416615902733	1510	1478	1513	1438
1399430416640917441	1510	1478	1513	1440
1399430416655952739	1509	1477	1513	1439
1399430416676155134	1507	1476	1513	1438
1399430416701140976	1506	1476	1513	1440
1399430416716045854	1505	1475	1513	1441
1399430416731095922	1505	1474	1513	1440
1399430416761154007	1504	1473	1513	1441
1399430416781092243	1502	1472	1513	1440
1399430416811172753	1500	1472	1513	1441
1399430416841191272	1500	1470	1513	1442
1399430416866207499	1496	1469	1513	1443
1399430416881225345	1496	1469	1513	1444
1399430416901149150	1496	1466	1513	1444
1399430416916137047	1496	1463	1514	1443
1399430416931232667	1495	1464	1514	1444
1399430416951230301	1493	1463	1514	1445
1399430416966170950	1493	1463	1514	1445
1399430416991101485	1492	1462	1514	1445
1399430417016188751	1492	1462	1514	1446
1399430417041232263	1490	1461	1514	1447
1399430417076256202	1492	1459	1514	1446
1399430417091255449	1490	1459	1514	1447
1399430417116208218	1491	1459	1513	1448
1399430417130913608	1492	1458	1513	1447
1399430417151184413	1489	1459	1513	1449
1399430417166163184	1490	1459	1513	1448
1399430417181160695	1490	1458	1512	1448
1399430417201235811	1491	1458	1512	1449
1399430417216141664	1490	1458	1512	1450
1399430417246202553	1492	1458	1512	1448
1399430417261208875	1493	1457	1511	1448
1399430417281093769	1493	1460	1511	1449
1399430417311268621	1494	1459	1511	1448
1399430417351203697	1497	1460	1511	1448
1399430417366220837	1496	1460	1511	1448
1399430417381182598	1497	1460	1511	1448
1399430417401203585	1498	1460	1511	1448
1399430417416095725	1498	1462	1511	1448
1399430417431108970	1500	1462	1511	1447
1399430417460918265	1500	1464	1511	1447
1399430417476146451	1501	1464	1511	1446
1399430417491181230	1503	1465	1511	1446
1399430417526178006	1505	1465	1511	1446
1399430417560961540	1507	1465	1511	1445
1399430417591149421	1509	1466	1511	1446
1399430417616269163	1512	1466	1510	1446
1399430417636203690	1513	1466	1510	1446
1399430417651143736	1514	1468	1510	1445
1399430417666079947	1514	1469	1510	1446
1399430417690847486	1514	1469	1510	1445
1399430417726188136	1514	1470	1510	1446
1399430417761175424	1515	1471	1510	1445
1399430417791207092	1516	1471	1510	1445
1399430417826247026	1517	1471	1510	1446
1399430417841165581	1517	1472	1509	1446
1399430417855926960	1518	1471	1509	1446
1399430417876036999	1518	1471	1509	1446
1399430417890891302	1517	1473	1509	1446
1399430417906158811	1516	1474	1508	1446
1399430417926221705	1516	1474	1508	1445
1399430417941233436	1516	1473	1508	1445
1399430417961140731	1514	1474	1508	1445
1399430417991165384	1513	1474	1508	1445
1399430418026188860	1512	1474	1508	1445
1399430418051191616	1511	1474	1508	1444
1399430418066099137	1510	1474	1508	1445
1399430418081221121	1510	1472	1508	1444
1399430418101126950	1509	1473	1508	1444
1399430418115906637	1508	1473	1508	1445
1399430418131158579	1507	1473	1508	1444
1399430418151198402	1506	1472	1508	1445
1399430418166233009	1505	1472	1508	1445
1399430418181179148	1504	1472	1508	1445
1399430418211140875	1502	1473	1508	1445
1399430418230926791	1499	1473	1508	1445
1399430418261195548	1499	1472	1508	1446
1399430418291108244	1498	1472	1508	1446
1399430418311177389	1495	1471	1508	1446
1399430418326255487	1495	1471	1508	1446
1399430418341206738	1494	1471	1508	1446
1399430418356183529	1494	1471	1508	1445
1399430418376265631	1493	1471	1508	1446
1399430418391258719	1490	1471	1508	1447
1399430418411194508	1490	1469	1508	1446
1399430418430892165	1491	1468	1508	1444
1399430418451088936	1489	1470	1508	1445
1399430418476004242	1489	1468	1508	1445
1399430418510877064	1489	1469	1508	1445
1399430418540953762	1489	1468	1508	1443
1399430418565916644	1489	1468	1508	1444
1399430418580929859	1489	1467	1508	1444
1399430418600930225	1490	1468	1508	1442
1399430418615930756	1490	1468	1508	1443
1399430418630949833	1492	1468	1508	1444
1399430418650957278	1492	1467	1508	1444
1399430418675969130	1493	1467	1508	1444
1399430418710931865	1495	1466	1508	1444
1399430418740868091	1498	1466	1508	1444
1399430418776221507	1500	1466	1508	1443
1399430418801263392	1502	1466	1508	1445
1399430418816150689	1503	1466	1508	1444
1399430418831189105	1504	1467	1508	1445
1399430418850941098	1506	1468	1508	1445
1399430418866199130	1507	1469	1508	1446
1399430418880936087	1508	1468	1508	1446
1399430418901282698	1509	1467	1508	1446
1399430418916106883	1509	1468	1507	1446
1399430418941179562	1512	1469	1507	1446
1399430418976281425	1514	1468	1507	1445
1399430418991146186	1514	1468	1507	1445
1399430419031208448	1517	1470	1507	1446
1399430419051116348	1517	1469	1507	1446
1399430419066074570	1518	1469	1507	1444
1399430419086197939	1519	1471	1507	1444
1399430419101223906	1520	1473	1506	1446
1399430419116178749	1521	1472	1506	1445
1399430419131068059	1522	1474	1506	1447
1399430419151108268	1522	1475	1506	1447
1399430419176302102	1524	1474	1506	1446
1399430419211255068	1525	1476	1506	1447
1399430419241092392	1526	1479	1505	1448
1399430419256070930	1526	1479	1505	1447
1399430419281142148	1526	1479	1505	1449
1399430419316223922	1526	1483	1504	1449
1399430419331244921	1526	1482	1504	1448
1399430419361128953	1526	1484	1504	1450
1399430419376188331	1526	1484	1504	1448
1399430419396138610	1527	1485	1503	1449
1399430419426213759	1527	1485	1503	1449
1399430419441233291	1527	1484	1502	1449
1399430419461153856	1527	1486	1502	1449
1399430419491217883	1526	1486	1501	1448
1399430419516179602	1524	1485	1501	1448
1399430419531239135	1523	1486	1500	1447
1399430419551155958	1521	1488	1500	1449
1399430419566211007	1521	1488	1500	1449
1399430419581143939	1520	1486	1499	1449
1399430419601119245	1520	1487	1499	1450
1399430419616095589	1519	1487	1499	1450
1399430419631123911	1518	1486	1498	1450
1399430419661081183	1517	1486	1498	1450
1399430419681118344	1514	1483	1498	1450
1399430419711151465	1512	1484	1497	1450
1399430419741177892	1509	1482	1497	1450
1399430419756177198	1507	1482	1496	1450
1399430419791224310	1505	1478	1496	1450
1399430419811142470	1503	1477	1496	1451
1399430419826107073	1501	1477	1495	1450
1399430419841209353	1499	1475	1495	1450
1399430419866010041	1498	1475	1495	1451
1399430419881206317	1495	1473	1494	1450
1399430419911219721	1493	1473	1494	1451
1399430419926123928	1490	1470	1494	1451
1399430419961386975	1488	1469	1493	1450
1399430419976293286	1485	1467	1493	1450
1399430420021166230	1482	1465	1492	1450
1399430420031120539	1481	1462	1492	1450
1399430420051101150	1480	1461	1492	1450
1399430420066124030	1478	1460	1492	1450
1399430420081168932	1478	1460	1491	1450
1399430420101273354	1477	1460	1491	1451
1399430420116156593	1476	1458	1491	1451
1399430420141199497	1474	1456	1491	1450
1399430420161169808	1474	1455	1491	1450
1399430420191325816	1472	1454	1491	1450
1399430420226196793	1472	1452	1490	1450
1399430420256204873	1472	1452	1490	1451
1399430420276191591	1474	1450	1490	1450
1399430420291265215	1473	1450	1490	1452
1399430420305961179	1475	1449	1490	1452
1399430420326102824	1474	1449	1490	1453
1399430420340935977	1476	1451	1490	1453
1399430420361158165	1475	1449	1490	1453
1399430420376043321	1477	1448	1491	1452
1399430420396183105	1478	1450	1491	1453
1399430420416195607	1479	1448	1491	1453
1399430420431122707	1479	1451	1491	1454
1399430420461308573	1480	1450	1491	1454
1399430420481223809	1482	1451	1492	1456
1399430420501094953	1483	1451	1492	1455
1399430420521239593	1484	1451	1492	1455
1399430420540912955	1485	1452	1492	1455
1399430420575971910	1487	1454	1493	1457
1399430420590946839	1489	1453	1493	1456
1399430420610917199	1490	1453	1493	1457
1399430420625896671	1490	1454	1493	1456
1399430420660916700	1493	1456	1494	1457
1399430420675910441	1494	1457	1494	1457
1399430420710997796	1495	1457	1494	1457
1399430420731024555	1497	1459	1494	1457
1399430420761208295	1499	1459	1494	1457
1399430420776115990	1500	1460	1495	1457
1399430420791110932	1501	1461	1494	1457
1399430420806197744	1502	1462	1494	1458
1399430420825890770	1504	1462	1494	1458
1399430420841219837	1506	1463	1494	1459
1399430420861176233	1507	1464	1494	1458
1399430420876115111	1508	1464	1494	1457
1399430420901167891	1509	1465	1494	1459
1399430420926148494	1510	1465	1494	1458
1399430420956133561	1511	1468	1493	1458
1399430420976147424	1513	1468	1493	1459
1399430420991139340	1515	1469	1493	1459
1399430421035964631	1515	1470	1493	1459
1399430421050927787	1518	1470	1492	1459
1399430421065890217	1518	1471	1493	1458
1399430421080961058	1519	1472	1492	1458
1399430421101024599	1518	1471	1492	1458
1399430421116020655	1520	1472	1492	1458
1399430421130942500	1520	1473	1492	1458
1399430421160984489	1520	1474	1492	1458
1399430421190940060	1519	1474	1492	1458
1399430421225993112	1519	1476	1492	1457
1399430421241021424	1520	1476	1492	1456
1399430421255972844	1520	1476	1493	1456
1399430421291016054	1519	1477	1493	1454
1399430421305944227	1518	1477	1493	1453
1399430421331297776	1518	1478	1493	1452
1399430421360992125	1519	1478	1493	1451
1399430421381258003	1518	1482	1494	1450
1399430421411091877	1519	1480	1494	1449
1399430421441005030	1517	1482	1494	1447
1399430421476261055	1518	1483	1494	1446
1399430421491245233	1518	1486	1494	1446
1399430421526083233	1519	1484	1494	1444
1399430421541221377	1520	1483	1494	1444
1399430421566154306	1519	1484	1494	1444
1399430421581201021	1520	1484	1494	1445
1399430421601203294	1521	1484	1494	1443
1399430421625909271	1519	1486	1495	1444
1399430421651162676	1520	1486	1495	1443
1399430421676301917	1521	1486	1495	1444
1399430421706217842	1521	1487	1496	1444
1399430421726194017	1521	1486	1496	1444
1399430421741165827	1520	1486	1496	1445
1399430421761169260	1520	1485	1497	1445
1399430421776157657	1522	1485	1497	1445
1399430421796105524	1522	1484	1497	1445
1399430421811204379	1522	1482	1497	1445
1399430421826163978	1522	1483	1497	1446
1399430421846094229	1521	1480	1497	1446
1399430421876212796	1522	1479	1497	1446
1399430421896202096	1522	1478	1498	1447
1399430421925865088	1522	1477	1498	1448
1399430421941093051	1522	1476	1498	1447
1399430421956234924	1522	1475	1498	1448
1399430421976268690	1521	1475	1498	1448
1399430421991179597	1521	1474	1498	1448
1399430422006250180	1520	1473	1499	1449
1399430422026090972	1520	1473	1499	1449
1399430422041102426	1521	1473	1499	1449
1399430422061120068	1522	1472	1499	1449
1399430422076189950	1520	1470	1499	1449
1399430422101167828	1520	1470	1499	1450
1399430422126239135	1519	1470	1500	1450
1399430422160959369	1518	1470	1500	1450
1399430422175938772	1517	1471	1500	1450
1399430422205989687	1518	1471	1500	1451
1399430422215937943	1517	1470	1500	1450
1399430422230914668	1516	1472	1500	1451
1399430422250962509	1516	1473	1500	1452
1399430422275936396	1515	1475	1500	1452
1399430422291172405	1514	1475	1500	1452
1399430422316158095	1513	1476	1500	1453
1399430422341284232	1512	1477	1499	1453
1399430422361217686	1510	1478	1499	1453
1399430422391165850	1509	1479	1499	1454
1399430422426269023	1506	1479	1498	1455
1399430422456156067	1503	1481	1497	1456
1399430422476184023	1502	1482	1497	1455
1399430422491153715	1501	1483	1496	1456
1399430422511006103	1500	1482	1496	1456
1399430422526113824	1498	1485	1495	1457
1399430422551114703	1497	1486	1494	1457
1399430422566081852	1498	1484	1494	1455
1399430422580926076	1496	1486	1493	1457
1399430422611131875	1496	1487	1493	1457
1399430422641161025	1495	1486	1492	1457
1399430422666087722	1494	1484	1491	1456
1399430422681124430	1495	1485	1490	1456
1399430422701137632	1494	1486	1490	1457
1399430422726191270	1495	1485	1489	1456
1399430422756198458	1494	1486	1488	1457
1399430422776140905	1496	1485	1488	1457
1399430422791114202	1496	1485	1488	1457
1399430422816155522	1497	1484	1487	1456
1399430422841232341	1498	1484	1486	1456
1399430422876287200	1499	1483	1486	1456
1399430422901139947	1500	1481	1485	1455
1399430422921210388	1501	1479	1485	1455
1399430422931054101	1501	1479	1484	1455
1399430422951229383	1502	1479	1484	1456
1399430422971261547	1505	1476	1484	1456
1399430422981162115	1506	1475	1483	1456
1399430423001073108	1506	1475	1483	1456
1399430423016081617	1507	1473	1483	1456
1399430423031102497	1507	1472	1483	1456
1399430423051150123	1507	1471	1482	1455
1399430423076007047	1508	1471	1482	1455
1399430423096256649	1510	1471	1482	1455
1399430423126158629	1511	1469	1481	1455
1399430423161177704	1512	1465	1481	1454
1399430423191255241	1514	1463	1480	1454
1399430423211147132	1515	1460	1480	1453
1399430423226147898	1515	1461	1480	1454
1399430423241121723	1516	1459	1480	1454
1399430423261230911	1517	1458	1479	1454
1399430423281219301	1518	1456	1479	1453
1399430423311218835	1518	1455	1479	1453
1399430423331129741	1519	1453	1479	1452
1399430423361004356	1519	1452	1479	1453
1399430423390980000	1519	1451	1479	1453
1399430423406109148	1518	1451	1479	1453
1399430423426120506	1520	1450	1479	1453
1399430423441125708	1521	1449	1479	1453
1399430423456179772	1520	1449	1479	1453
1399430423476175527	1521	1450	1479	1453
1399430423490959416	1520	1449	1479	1453
1399430423506097324	1520	1449	1478	1454
1399430423526083522	1520	1447	1478	1454
1399430423541201821	1520	1448	1478	1454
1399430423561158304	1519	1450	1478	1454
1399430423590953203	1520	1448	1478	1454
1399430423616095991	1519	1449	1478	1454
1399430423631205954	1518	1449	1477	1455
1399430423651187233	1519	1449	1477	1454
1399430423666139085	1519	1449	1477	1454
1399430423681194304	1518	1451	1477	1454
1399430423711101615	1517	1451	1476	1454
1399430423736257715	1518	1453	1476	1455
1399430423750993083	1518	1452	1476	1454
1399430423766269568	1516	1454	1475	1454
1399430423781216749	1516	1455	1475	1454
1399430423811158507	1515	1456	1474	1454
1399430423841035916	1514	1458	1473	1454
1399430423861199189	1514	1458	1473	1454
1399430423881207644	1512	1461	1473	1454
1399430423915968934	1512	1462	1472	1453
1399430423936218950	1510	1464	1472	1453
1399430423951206457	1509	1466	1472	1452
1399430423966185984	1508	1466	1472	1453
1399430423991226500	1507	1468	1472	1452
1399430424016260026	1505	1470	1472	1452
1399430424031154888	1504	1472	1472	1452
1399430424061219769	1503	1474	1472	1452
1399430424081120420	1501	1476	1472	1452
1399430424111261022	1499	1477	1472	1451
1399430424141309812	1497	1478	1472	1451
1399430424171166057	1496	1479	1472	1451
1399430424181189818	1495	1479	1472	1451
1399430424201195986	1494	1480	1472	1451
1399430424216169674	1492	1481	1472	1450
1399430424230946357	1492	1482	1472	1450
1399430424251272857	1491	1482	1472	1451
1399430424276188202	1491	1482	1472	1451
1399430424311253285	1489	1482	1472	1451
1399430424326085642	1489	1482	1472	1451
1399430424351251331	1489	1483	1472	1451
1399430424376145696	1490	1483	1472	1451
1399430424406174589	1491	1483	1473	1451
1399430424416118828	1492	1483	1473	1451
1399430424431202311	1494	1481	1474	1450
1399430424451259146	1495	1481	1474	1450
1399430424466120613	1496	1482	1475	1449
1399430424481216869	1496	1481	1475	1450
1399430424501264873	1499	1480	1475	1450
1399430424516228904	1499	1479	1476	1451
1399430424541288299	1501	1479	1477	1451
1399430424561148194	1503	1479	1477	1450
1399430424591195172	1505	1477	1479	1451
1399430424606218562	1507	1478	1479	1451
1399430424626113971	1508	1476	1480	1451
1399430424651175083	1510	1477	1481	1452
1399430424666147340	1511	1476	1481	1452
1399430424681130793	1512	1475	1481	1452
1399430424701230438	1515	1475	1482	1453
1399430424716190989	1516	1475	1482	1454
1399430424731246763	1518	1475	1483	1454
1399430424761041860	1517	1474	1483	1454
1399430424781223167	1518	1473	1484	1455
1399430424806293760	1520	1473	1484	1455
1399430424831187205	1521	1471	1485	1455
1399430424861239030	1521	1472	1485	1456
1399430424876180150	1523	1472	1485	1456
1399430424891182292	1521	1471	1485	1456
1399430424906155663	1521	1472	1485	1458
1399430424926156375	1522	1472	1485	1456
1399430424941188273	1523	1472	1486	1457
1399430424961197138	1523	1472	1486	1458
1399430424976206507	1522	1470	1486	1458
1399430424991144263	1523	1471	1486	1458
1399430425011055131	1524	1471	1486	1457
1399430425025898816	1524	1472	1486	1458
1399430425060919369	1524	1472	1486	1458
1399430425076006651	1524	1473	1486	1458
1399430425090948499	1525	1474	1486	1459
1399430425125963424	1523	1475	1486	1459
1399430425140915539	1523	1475	1486	1459
1399430425160942637	1523	1478	1485	1460
1399430425176210615	1523	1477	1485	1460
1399430425191240127	1524	1478	1485	1460
1399430425211260647	1523	1479	1485	1460
1399430425226230237	1522	1479	1484	1460
1399430425241257503	1523	1481	1484	1460
1399430425261138966	1523	1481	1484	1460
1399430425290954301	1521	1483	1483	1461
1399430425311124035	1520	1484	1482	1462
1399430425341231386	1521	1485	1482	1462
1399430425366150808	1519	1487	1481	1463
1399430425381224618	1518	1487	1480	1463
1399430425401087124	1518	1489	1480	1464
1399430425416153295	1517	1487	1479	1464
1399430425436151180	1515	1488	1479	1465
1399430425451036755	1516	1488	1478	1465
1399430425466135936	1514	1490	1478	1465
1399430425481159624	1513	1490	1477	1466
1399430425511211187	1512	1488	1476	1465
1399430425531218495	1510	1489	1475	1466
1399430425561219986	1508	1489	1475	1466
1399430425591176819	1507	1489	1474	1467
1399430425626077847	1505	1490	1473	1467
1399430425641173312	1505	1488	1472	1468
1399430425656197875	1503	1488	1472	1468
1399430425676192965	1503	1486	1472	1467
1399430425691133337	1501	1486	1472	1466
1399430425711196589	1500	1485	1472	1466
1399430425726186915	1500	1484	1472	1467
1399430425741178884	1500	1485	1472	1467
1399430425776135027	1500	1482	1472	1467
1399430425801231460	1499	1481	1472	1467
1399430425816323044	1499	1482	1472	1467
1399430425831178079	1500	1480	1472	1466
1399430425856234310	1499	1478	1472	1466
1399430425876227390	1499	1478	1472	1466
1399430425890810762	1500	1477	1472	1467
1399430425906102910	1502	1475	1472	1466
1399430425926014294	1503	1473	1472	1466
1399430425941157964	1504	1471	1472	1465
1399430425966168687	1504	1471	1472	1465
1399430425981215872	1505	1470	1472	1466
1399430426001270023	1506	1470	1472	1465
1399430426026238889	1508	1468	1472	1465
1399430426041233919	1508	1468	1472	1465
1399430426076194041	1510	1466	1472	1465
1399430426111169185	1513	1463	1472	1464
1399430426126256067	1516	1463	1472	1464
1399430426141262216	1516	1463	1472	1464
1399430426156202865	1517	1461	1472	1464
1399430426176217908	1519	1461	1472	1464
1399430426201261411	1520	1462	1472	1464
1399430426216186194	1522	1460	1472	1464
1399430426231186934	1522	1461	1472	1463
1399430426261150050	1522	1460	1472	1463
1399430426281231295	1523	1461	1472	1462
1399430426311097525	1524	1460	1472	1463
1399430426341222950	1526	1461	1472	1463
1399430426356098884	1526	1461	1472	1463
1399430426376120284	1527	1462	1472	1463
1399430426391122830	1527	1463	1472	1463
1399430426411152580	1529	1463	1472	1462
1399430426426154351	1529	1465	1472	1462
1399430426440872118	1530	1464	1472	1463
1399430426461155477	1531	1465	1472	1464
1399430426475965068	1531	1466	1472	1463
1399430426491105026	1533	1466	1472	1464
1399430426510920502	1532	1468	1472	1463
1399430426546095836	1534	1468	1472	1463
1399430426555991145	1534	1468	1472	1463
1399430426576114116	1536	1470	1472	1463
1399430426591144556	1537	1470	1472	1463
1399430426616042698	1537	1471	1472	1462
1399430426631177706	1539	1471	1472	1463
1399430426651123596	1539	1472	1472	1462
1399430426666166109	1539	1473	1472	1463
1399430426681036148	1539	1474	1472	1463
1399430426701190483	1540	1473	1472	1463
1399430426726170143	1541	1475	1472	1462
1399430426746241400	1542	1475	1472	1463
1399430426776068656	1542	1476	1472	1462
1399430426810983884	1542	1476	1472	1462
1399430426841205100	1542	1475	1472	1462
1399430426856232906	1541	1476	1472	1463
1399430426876153546	1541	1474	1472	1461
1399430426891209630	1540	1475	1472	1462
1399430426911145891	1540	1473	1472	1460
1399430426931101084	1538	1474	1472	1461
1399430426960919854	1537	1473	1472	1461
1399430426975889926	1537	1472	1472	1460
1399430426990883648	1535	1472	1473	1460
1399430427025962713	1533	1472	1474	1461
1399430427060984120	1529	1471	1475	1460
1399430427090892731	1527	1470	1476	1460
1399430427105889887	1524	1470	1476	1460
1399430427125931926	1524	1470	1476	1460
1399430427140944308	1522	1469	1477	1461
1399430427160901660	1521	1468	1477	1460
1399430427180945944	1519	1469	1478	1460
1399430427200886711	1518	1469	1478	1460
1399430427225929090	1516	1469	1478	1459
1399430427250965940	1513	1468	1479	1457
1399430427275897311	1512	1468	1479	1458
1399430427310895975	1509	1467	1480	1457
1399430427340929759	1506	1468	1480	1457
1399430427355942151	1503	1468	1480	1457
1399430427375911323	1503	1469	1481	1456
1399430427390885496	1501	1470	1481	1456
1399430427405827049	1501	1472	1481	1455
1399430427426211554	1499	1472	1481	1456
1399430427446203988	1499	1473	1481	1455
1399430427476290769	1496	1473	1481	1455
1399430427496226490	1495	1475	1481	1456
1399430427526367654	1494	1475	1481	1454
1399430427556198685	1492	1476	1480	1454
1399430427576124883	1490	1475	1480	1453
1399430427590869824	1491	1478	1479	1454
1399430427605917513	1489	1478	1479	1455
1399430427625950311	1491	1478	1479	1454
1399430427650991234	1490	1480	1478	1454
1399430427665954956	1490	1480	1478	1455
1399430427690951389	1491	1480	1477	1454
1399430427716030336	1493	1480	1477	1454
1399430427741047308	1493	1480	1476	1454
1399430427775967949	1495	1479	1475	1453
1399430427790914602	1497	1480	1475	1453
1399430427805919655	1497	1480	1474	1454
1399430427825983593	1498	1481	1474	1454
1399430427840888656	1499	1481	1473	1453
1399430427855876823	1503	1480	1473	1454
1399430427875972652	1503	1479	1472	1453
1399430427890918012	1505	1478	1472	1453
1399430427916231392	1507	1477	1472	1453
1399430427931176638	1509	1479	1472	1453
1399430427951069094	1512	1477	1472	1453
1399430427976146580	1514	1476	1472	1452
1399430428011264028	1517	1475	1472	1451
1399430428031153967	1521	1473	1472	1451
1399430428051075904	1522	1475	1472	1452
1399430428076025587	1524	1474	1472	1452
1399430428090942278	1526	1474	1472	1452
1399430428105943367	1528	1475	1472	1453
1399430428125905308	1530	1473	1472	1452
1399430428140918224	1532	1475	1472	1453
1399430428160888986	1532	1474	1472	1454
1399430428175928951	1534	1473	1472	1454
1399430428195918200	1536	1473	1472	1454
1399430428226048037	1537	1471	1472	1454
1399430428251051084	1540	1471	1472	1455
1399430428265818577	1541	1469	1472	1454
1399430428291259642	1543	1468	1472	1454
1399430428321042068	1544	1469	1472	1453
1399430428331143019	1544	1470	1472	1454
1399430428351180526	1545	1470	1472	1455
1399430428366138074	1545	1470	1472	1455
1399430428381178543	1547	1469	1472	1455
1399430428401178027	1546	1470	1472	1456
1399430428416109997	1548	1469	1472	1454
1399430428441172204	1548	1469	1472	1455
1399430428476151524	1547	1469	1472	1455
1399430428491147392	1545	1469	1472	1456
1399430428506095094	1547	1467	1472	1455
1399430428541239661	1545	1467	1472	1455
1399430428560916340	1545	1467	1472	1455
1399430428575909837	1543	1467	1472	1456
1399430428590906353	1544	1466	1472	1455
1399430428610966231	1542	1467	1472	1455
1399430428625976646	1542	1466	1472	1454
1399430428645994419	1539	1468	1472	1455
1399430428665864084	1538	1467	1472	1454
1399430428690934246	1536	1467	1472	1454
1399430428725931757	1533	1467	1472	1454
1399430428760941822	1531	1466	1472	1453
1399430428775941455	1529	1465	1472	1453
1399430428790925464	1527	1465	1472	1452
1399430428805889775	1526	1464	1472	1452
1399430428825924806	1524	1465	1472	1452
1399430428841007721	1524	1465	1472	1453
1399430428855935159	1523	1464	1472	1452
1399430428875939610	1523	1464	1472	1452
1399430428895957060	1523	1464	1472	1452
1399430428925980950	1520	1465	1472	1451
1399430428940991973	1519	1464	1472	1451
1399430428955952822	1519	1464	1472	1452
1399430428991025382	1517	1464	1472	1451
1399430429015936911	1516	1463	1472	1451
1399430429030933986	1516	1463	1472	1451
1399430429060980911	1516	1462	1472	1451
1399430429085956781	1516	1462	1472	1451
1399430429100956055	1516	1461	1472	1450
1399430429115897460	1516	1461	1473	1450
1399430429140980610	1514	1462	1473	1450
1399430429175951842	1515	1461	1475	1451
1399430429195936097	1516	1461	1475	1450
1399430429225956219	1516	1461	1477	1451
1399430429250961262	1515	1461	1478	1451
1399430429276025774	1516	1461	1478	1451
1399430429295955685	1515	1462	1479	1451
1399430429310916735	1514	1461	1480	1451
1399430429325910282	1516	1462	1480	1451
1399430429345960988	1515	1463	1481	1452
1399430429365950075	1515	1462	1482	1451
1399430429380884589	1515	1463	1482	1452
1399430429400938336	1515	1464	1483	1452
1399430429426024757	1514	1464	1483	1452
1399430429461010868	1513	1465	1484	1452
1399430429490961404	1514	1466	1484	1452
1399430429526208609	1515	1467	1484	1454
1399430429541188601	1515	1467	1484	1453
1399430429561115070	1516	1468	1484	1455
1399430429576195993	1515	1468	1484	1455
1399430429591205072	1514	1469	1483	1455
1399430429611152835	1513	1470	1483	1455
1399430429626175776	1514	1471	1483	1455
1399430429646170031	1513	1472	1483	1456
1399430429661107854	1514	1473	1482	1457
1399430429695936883	1514	1473	1482	1457
1399430429710922423	1514	1472	1481	1457
1399430429725833639	1514	1473	1480	1457
1399430429740896899	1514	1474	1480	1457
1399430429765873242	1514	1474	1479	1458
1399430429780923906	1514	1475	1478	1458
1399430429800921209	1515	1475	1478	1458
1399430429815919210	1515	1476	1478	1458
1399430429835948942	1515	1476	1477	1458
1399430429850952126	1514	1477	1477	1459
1399430429865858310	1512	1477	1476	1458
1399430429890942126	1513	1477	1476	1458
1399430429910962496	1513	1476	1475	1458
1399430429925994302	1512	1477	1475	1458
1399430429960925303	1511	1477	1474	1458
1399430429990949352	1512	1476	1474	1458
1399430430005941516	1512	1477	1474	1458
1399430430026016169	1513	1477	1474	1458
1399430430045978358	1513	1477	1474	1458
1399430430055978412	1513	1476	1473	1458
1399430430075900960	1515	1475	1473	1457
1399430430090975388	1515	1475	1473	1457
1399430430110932733	1515	1476	1473	1457
1399430430130995991	1517	1476	1473	1457
1399430430160952584	1517	1476	1473	1457
1399430430175921707	1517	1475	1473	1457
1399430430210981361	1518	1474	1473	1457
1399430430230928084	1521	1474	1474	1457
1399430430260906768	1520	1474	1474	1457
1399430430275959769	1522	1474	1474	1457
1399430430291011093	1522	1474	1474	1457
1399430430310943511	1523	1473	1474	1457
1399430430325950174	1522	1472	1474	1456
1399430430340989171	1523	1471	1474	1455
1399430430355857933	1523	1471	1474	1455
1399430430375944201	1524	1470	1474	1455
1399430430400911753	1523	1469	1474	1455
1399430430425982927	1524	1469	1474	1455
1399430430450922836	1523	1468	1474	1454
1399430430465929759	1525	1469	1474	1455
1399430430490917646	1524	1467	1473	1455
1399430430510887467	1524	1467	1473	1455
1399430430525982685	1523	1467	1473	1455
1399430430540929361	1523	1466	1473	1456
1399430430560950165	1522	1465	1473	1456
1399430430575936432	1522	1465	1472	1455
1399430430590948206	1521	1464	1472	1455
1399430430610886553	1519	1464	1472	1456
1399430430626054455	1519	1464	1472	1456
1399430430645980253	1518	1464	1472	1457
1399430430676033082	1517	1462	1472	1457
1399430430690915339	1517	1461	1472	1457
1399430430720939365	1516	1461	1472	1458
1399430430730887084	1514	1461	1472	1459
1399430430750962156	1514	1458	1472	1458
1399430430775959860	1512	1458	1472	1458
1399430430800923615	1510	1458	1472	1457
1399430430815955583	1507	1459	1472	1459
1399430430840947430	1508	1458	1472	1458
1399430430860957776	1505	1457	1472	1458
1399430430880953138	1504	1459	1472	1459
1399430430910934888	1503	1458	1472	1459
1399430430940917050	1500	1460	1472	1459
1399430430976273218	1499	1461	1472	1460
1399430430991072669	1496	1461	1472	1460
1399430431006183139	1495	1462	1472	1460
1399430431025924326	1495	1463	1472	1460
1399430431041175159	1495	1464	1472	1461
1399430431066241898	1493	1465	1472	1460
1399430431081210341	1493	1467	1472	1461
1399430431101133385	1492	1468	1472	1461
1399430431125969630	1492	1470	1472	1462
1399430431160954612	1491	1472	1472	1462
1399430431190962022	1489	1475	1472	1462
1399430431210957524	1490	1475	1472	1462
1399430431225912575	1489	1477	1472	1462
1399430431260987787	1489	1480	1472	1464
1399430431276192013	1490	1481	1472	1465
1399430431291091199	1488	1482	1472	1465
1399430431311268713	1489	1483	1472	1465
1399430431326031177	1487	1484	1472	1464
1399430431341126899	1488	1486	1472	1465
1399430431366191122	1488	1486	1472	1466
1399430431391277098	1488	1489	1472	1466
1399430431426135362	1488	1490	1472	1466
1399430431441248867	1487	1492	1472	1466
1399430431461182111	1487	1493	1472	1466
1399430431476115889	1488	1494	1472	1467
1399430431491232883	1488	1494	1472	1467
1399430431511284874	1489	1495	1472	1469
1399430431526005653	1488	1493	1472	1467
1399430431541210914	1487	1495	1472	1467
1399430431556189716	1488	1495	1472	1466
1399430431575966841	1487	1496	1472	1466
1399430431591085543	1488	1495	1472	1467
1399430431626174942	1489	1496	1472	1466
1399430431651173655	1489	1496	1472	1467
1399430431676135011	1490	1496	1472	1465
1399430431691088406	1489	1495	1472	1466
1399430431706065097	1491	1494	1472	1465
1399430431726121160	1492	1494	1472	1465
1399430431741062578	1492	1494	1472	1464
1399430431761137267	1492	1494	1472	1464
1399430431776059178	1494	1493	1472	1464
1399430431791096551	1495	1492	1472	1464
1399430431815963324	1495	1491	1472	1464
1399430431841162725	1495	1491	1472	1464
1399430431876165781	1497	1489	1472	1463
1399430431891089218	1499	1488	1472	1463
1399430431911145183	1499	1488	1472	1463
1399430431956182513	1502	1485	1472	1462
1399430431976138135	1504	1485	1472	1462
1399430431991093405	1504	1483	1472	1462
1399430432006271549	1505	1484	1472	1462
1399430432026355157	1506	1483	1472	1463
1399430432051305604	1507	1481	1472	1462
1399430432066090971	1507	1480	1472	1462
1399430432080960128	1509	1479	1472	1462
1399430432111075840	1511	1479	1472	1463
1399430432126196206	1512	1477	1472	1462
1399430432161288682	1514	1477	1472	1462
1399430432191147779	1518	1474	1472	1462
1399430432206113679	1518	1475	1472	1462
1399430432236131262	1520	1471	1472	1461
1399430432251129325	1520	1471	1472	1461
1399430432276145962	1522	1471	1472	1461
1399430432301138038	1523	1469	1472	1461
1399430432316184740	1524	1469	1472	1462
1399430432341137484	1525	1467	1472	1461
1399430432360930754	1527	1467	1472	1462
1399430432391149081	1528	1465	1472	1461
1399430432421226969	1529	1464	1472	1461
1399430432431225814	1528	1464	1472	1462
1399430432450958756	1530	1463	1472	1462
1399430432471173416	1532	1464	1472	1461
1399430432481091400	1531	1464	1472	1461
1399430432501136768	1530	1464	1472	1461
1399430432516160224	1530	1464	1472	1462
1399430432531223009	1530	1465	1472	1461
1399430432551218173	1530	1465	1472	1462
1399430432566160232	1532	1466	1472	1463
1399430432581251924	1531	1465	1472	1462
1399430432611153642	1530	1465	1472	1462
1399430432641263961	1530	1466	1472	1462
1399430432676316295	1530	1467	1472	1462
1399430432711457573	1529	1468	1472	1462
1399430432726239551	1529	1471	1472	1462
1399430432741150530	1529	1471	1472	1463
1399430432761209827	1530	1471	1472	1462
1399430432776282328	1529	1472	1472	1462
1399430432790937390	1529	1474	1472	1463
1399430432810967995	1528	1474	1472	1462
1399430432831083887	1526	1475	1472	1462
1399430432861121646	1528	1477	1472	1463
1399430432876158253	1527	1479	1472	1463
1399430432891003347	1528	1479	1472	1464
1399430432915900450	1527	1481	1472	1464
1399430432930884580	1526	1481	1472	1463
1399430432950924370	1527	1481	1472	1464
1399430432965905483	1528	1482	1472	1464
1399430432980881955	1526	1483	1472	1464
1399430433000953673	1526	1483	1472	1463
1399430433015906676	1524	1484	1472	1464
1399430433040938894	1525	1484	1472	1464
1399430433060948689	1523	1486	1472	1464
1399430433090927937	1524	1487	1472	1465
1399430433115932784	1521	1486	1472	1464
1399430433130962761	1521	1487	1472	1464
1399430433160912589	1521	1486	1472	1465
1399430433175933307	1521	1486	1472	1464
1399430433190867612	1519	1487	1472	1465
1399430433220949062	1520	1484	1472	1465
1399430433230941863	1519	1485	1472	1466
1399430433250876367	1518	1485	1472	1466
1399430433265928698	1517	1486	1472	1467
1399430433280904950	1517	1484	1472	1467
1399430433310921530	1516	1483	1472	1467
1399430433340952755	1515	1483	1472	1468
1399430433360922212	1514	1483	1472	1468
1399430433380889979	1513	1481	1472	1468
1399430433415926571	1514	1480	1472	1468
1399430433430994027	1513	1480	1472	1468
1399430433450961669	1513	1478	1472	1469
1399430433465912885	1512	1477	1472	1468
1399430433480915891	1511	1477	1472	1468
1399430433500938438	1511	1476	1472	1467
1399430433515920834	1512	1476	1472	1467
1399430433530974895	1511	1474	1472	1467
1399430433560905846	1509	1474	1472	1467
1399430433580891070	1507	1473	1472	1467
1399430433610876262	1508	1472	1472	1466
1399430433640998705	1507	1471	1472	1466
1399430433655954383	1507	1471	1472	1466
1399430433675914348	1507	1470	1472	1466
1399430433690897377	1507	1469	1472	1466
1399430433710880064	1506	1468	1472	1466
1399430433725967059	1506	1466	1472	1465
1399430433740982587	1506	1466	1472	1464
1399430433765937744	1504	1466	1472	1465
1399430433790933821	1505	1464	1472	1465
1399430433815943091	1503	1464	1472	1465
1399430433841111973	1504	1462	1472	1464
1399430433876205500	1504	1462	1472	1466
1399430433891107963	1503	1461	1472	1465
1399430433906081567	1504	1462	1472	1465
1399430433926046400	1505	1460	1472	1465
1399430433941174410	1504	1461	1472	1465
1399430433961257176	1504	1461	1472	1465
1399430433976127959	1503	1458	1472	1464
1399430434000995723	1503	1460	1472	1465
1399430434025910819	1504	1459	1472	1464
1399430434051294621	1503	1460	1472	1464
1399430434076370540	1505	1460	1472	1464
1399430434101180927	1505	1463	1472	1466
1399430434126248364	1505	1462	1472	1465
1399430434166211377	1506	1463	1472	1464
1399430434181187871	1506	1464	1472	1464
1399430434201109232	1507	1464	1472	1464
1399430434216229709	1508	1465	1472	1465
1399430434230910700	1509	1467	1472	1465
1399430434251259395	1510	1467	1472	1465
1399430434266152530	1510	1468	1472	1464
1399430434281117722	1511	1470	1472	1464
1399430434310969296	1512	1471	1472	1464
1399430434341248918	1513	1473	1472	1464
1399430434366125523	1513	1475	1472	1465
1399430434401232081	1515	1477	1472	1464
1399430434415920548	1516	1479	1472	1464
1399430434431128011	1515	1479	1472	1465
1399430434451202399	1516	1479	1472	1465
1399430434466187512	1515	1480	1472	1465
1399430434491197298	1516	1481	1472	1465
1399430434506192257	1516	1482	1472	1465
1399430434531063380	1518	1483	1472	1464
1399430434561177620	1518	1484	1472	1465
1399430434576171301	1518	1483	1472	1465
1399430434601262622	1519	1485	1472	1466
1399430434625877246	1520	1485	1472	1467
1399430434655943734	1521	1485	1472	1466
1399430434666074413	1521	1485	1472	1467
1399430434681193444	1521	1485	1472	1468
1399430434701157283	1521	1484	1472	1468
1399430434716092124	1522	1485	1472	1467
1399430434731229013	1523	1483	1472	1466
1399430434751165763	1523	1485	1472	1467
1399430434776198221	1523	1484	1472	1467
1399430434811308449	1524	1484	1472	1467
1399430434846216844	1524	1484	1472	1467
1399430434866105618	1526	1483	1472	1466
1399430434881088508	1525	1483	1472	1467
1399430434901113416	1524	1482	1472	1467
1399430434916126587	1524	1484	1472	1467
1399430434931084059	1524	1483	1472	1467
1399430434951059575	1523	1484	1472	1468
1399430434966096332	1524	1484	1472	1468
1399430434980881502	1523	1483	1472	1467
1399430435011005801	1524	1482	1472	1466
1399430435030939887	1523	1484	1472	1467
1399430435060918185	1523	1483	1472	1466
1399430435090955683	1523	1483	1472	1466
1399430435105901879	1523	1484	1472	1466
1399430435126187462	1523	1483	1472	1466
1399430435141183257	1524	1482	1472	1465
1399430435156139995	1523	1481	1473	1465
1399430435186104800	1523	1482	1473	1465
1399430435201001836	1524	1481	1473	1465
1399430435216209696	1524	1480	1473	1465
1399430435241331826	1524	1479	1473	1464
1399430435261310052	1525	1479	1474	1465
1399430435276181407	1525	1478	1474	1465
1399430435301228653	1525	1476	1474	1464
1399430435326114921	1526	1476	1474	1464
1399430435356179909	1526	1474	1474	1464
1399430435376101687	1527	1473	1475	1464
1399430435391194849	1527	1472	1475	1464
1399430435406109563	1527	1472	1475	1464
1399430435426224783	1528	1471	1475	1464
1399430435441257087	1527	1470	1475	1464
1399430435466007548	1527	1470	1475	1464
1399430435480870821	1528	1468	1475	1464
1399430435500982588	1529	1468	1475	1465
1399430435525939463	1528	1467	1475	1464
1399430435560958092	1528	1466	1475	1463
1399430435590925982	1528	1465	1475	1464
1399430435615797039	1528	1466	1475	1463
1399430435631032400	1529	1464	1475	1463
1399430435650954977	1528	1464	1475	1464
1399430435665991582	1527	1463	1474	1464
1399430435680961784	1527	1463	1474	1464
1399430435710934491	1528	1463	1474	1464
1399430435725873062	1528	1462	1474	1464
1399430435745953887	1527	1462	1474	1464
1399430435765947770	1528	1463	1473	1465
1399430435790960434	1527	1463	1473	1465
1399430435825923427	1527	1463	1473	1464
1399430435860911919	1527	1463	1473	1465
1399430435890890164	1526	1462	1473	1465
1399430435910889640	1526	1461	1473	1464
1399430435926069263	1525	1462	1474	1465
1399430435940952161	1527	1462	1474	1464
1399430435961098301	1527	1463	1474	1466
1399430435976155545	1527	1463	1474	1466
1399430436011217969	1526	1464	1474	1466
1399430436026254680	1526	1466	1474	1466
1399430436061246966	1526	1466	1475	1466
1399430436076218171	1526	1466	1475	1466
1399430436121215072	1525	1468	1475	1466
1399430436131132064	1523	1469	1475	1466
1399430436161220650	1523	1471	1475	1466
1399430436176175379	1521	1472	1475	1466
1399430436196139016	1522	1473	1475	1466
1399430436211265784	1521	1473	1475	1466
1399430436231116436	1520	1474	1475	1466
1399430436261224668	1519	1475	1475	1467
1399430436281222278	1519	1476	1474	1468
1399430436301208916	1517	1477	1474	1468
1399430436316215927	1515	1477	1474	1467
1399430436331190459	1515	1478	1473	1468
1399430436356033924	1513	1479	1473	1468
1399430436376192776	1512	1481	1473	1468
1399430436391021759	1511	1480	1472	1468
1399430436411188162	1509	1480	1472	1468
1399430436426252548	1507	1482	1472	1467
1399430436446144161	1507	1484	1472	1468
1399430436466120149	1506	1483	1472	1468
1399430436481161396	1505	1485	1472	1467
1399430436511195900	1503	1484	1472	1468
1399430436541257915	1502	1486	1472	1468
1399430436575954902	1500	1486	1472	1468
1399430436606024257	1498	1487	1472	1468
1399430436625964723	1499	1486	1472	1468
1399430436641011904	1496	1487	1472	1467
1399430436660978583	1495	1487	1472	1468
1399430436680937092	1496	1487	1472	1467
1399430436700949053	1495	1486	1472	1467
1399430436726140230	1494	1486	1472	1467
1399430436751191116	1494	1484	1472	1467
1399430436776246732	1494	1484	1472	1466
1399430436811439026	1493	1482	1472	1466
1399430436831192584	1494	1479	1472	1466
1399430436851320983	1493	1481	1472	1466
1399430436871210382	1494	1479	1472	1466
1399430436881135271	1494	1478	1472	1467
1399430436901165044	1494	1476	1472	1465
1399430436916142512	1495	1476	1472	1467
1399430436931109689	1493	1477	1472	1467
1399430436961218668	1495	1475	1472	1467
1399430436991084488	1495	1474	1472	1467
1399430437026062210	1497	1473	1472	1467
1399430437056197208	1496	1471	1472	1467
1399430437076142441	1497	1470	1472	1468
1399430437091189610	1497	1469	1472	1467
1399430437121144421	1498	1468	1472	1467
1399430437131227522	1499	1466	1472	1466
1399430437151085361	1499	1466	1472	1467
1399430437166173069	1500	1463	1472	1466
1399430437181168914	1499	1463	1472	1467
1399430437211289011	1501	1463	1472	1466
1399430437226144940	1502	1462	1472	1467
1399430437261035980	1504	1464	1472	1467
1399430437281251093	1504	1464	1472	1467
1399430437301187612	1505	1464	1472	1467
1399430437316162578	1506	1463	1472	1467
1399430437336146046	1507	1464	1472	1467
1399430437351179178	1508	1464	1472	1466
1399430437366102041	1509	1465	1472	1467
1399430437386233209	1510	1465	1472	1467
1399430437401134264	1511	1466	1472	1467
1399430437416062990	1511	1466	1472	1468
1399430437431030378	1513	1466	1472	1467
1399430437451115535	1513	1467	1472	1467
1399430437476379486	1514	1468	1472	1467
1399430437511203593	1517	1470	1473	1467
1399430437531217797	1518	1472	1474	1467
1399430437550909083	1519	1473	1474	1468
1399430437565909941	1518	1474	1475	1467
1399430437580999287	1518	1475	1475	1468
1399430437600932178	1518	1476	1476	1468
1399430437615921182	1519	1479	1476	1468
1399430437630867182	1519	1479	1477	1468
1399430437650928038	1518	1480	1477	1468
1399430437665926983	1518	1482	1477	1468
1399430437680906131	1518	1482	1478	1468
1399430437711085559	1518	1485	1478	1468
1399430437741253530	1517	1486	1478	1468
1399430437756128411	1517	1489	1478	1469
1399430437781172004	1516	1489	1479	1468
1399430437811283314	1515	1491	1479	1468
1399430437836241722	1514	1491	1479	1468
1399430437851116687	1513	1491	1479	1467
1399430437866167336	1512	1491	1479	1467
1399430437881230175	1511	1493	1479	1467
1399430437901214565	1510	1493	1479	1466
1399430437916173399	1509	1494	1479	1468
1399430437941278413	1508	1493	1479	1466
1399430437976238249	1507	1493	1479	1466
1399430437991116430	1506	1492	1479	1466
1399430438016115775	1506	1493	1478	1465
1399430438051151271	1504	1492	1478	1465
1399430438066166580	1503	1491	1478	1465
1399430438086170317	1501	1491	1478	1464
1399430438101209341	1501	1491	1478	1465
1399430438116169691	1501	1491	1477	1464
1399430438131142062	1501	1488	1477	1465
1399430438151181673	1499	1488	1477	1464
1399430438166062821	1499	1487	1477	1464
1399430438191258990	1498	1487	1477	1464
1399430438226210937	1497	1485	1476	1464
1399430438261305351	1498	1486	1476	1464
1399430438281211928	1497	1483	1476	1463
1399430438296152440	1498	1483	1476	1464
1399430438321091107	1497	1483	1476	1464
1399430438331141143	1498	1483	1476	1465
1399430438346164851	1498	1483	1476	1465
1399430438366162765	1498	1481	1476	1464
1399430438381138781	1497	1479	1475	1464
1399430438411029574	1497	1478	1475	1464
1399430438431180181	1497	1475	1475	1464
1399430438451231262	1497	1476	1475	1464
1399430438476176161	1497	1475	1475	1465
1399430438506176200	1498	1473	1475	1465
1399430438526280180	1497	1472	1475	1465
1399430438541220978	1498	1472	1475	1465
1399430438571160948	1497	1469	1474	1464
1399430438581174669	1498	1469	1474	1465
1399430438601275072	1498	1469	1475	1465
1399430438616112501	1497	1467	1475	1464
1399430438631117296	1497	1466	1475	1464
1399430438661183317	1499	1466	1475	1465
1399430438676255351	1499	1466	1475	1465
1399430438696136551	1498	1465	1475	1464
1399430438726204071	1501	1464	1475	1465
1399430438761284793	1501	1464	1475	1465
1399430438791239040	1504	1463	1476	1465
1399430438806191122	1505	1463	1476	1466
1399430438826205036	1506	1461	1476	1464
1399430438841184294	1507	1462	1475	1465
1399430438861259408	1508	1462	1475	1465
1399430438876047247	1510	1463	1475	1466
1399430438891226439	1511	1462	1475	1466
1399430438911178395	1512	1461	1476	1466
1399430438926081634	1511	1461	1476	1465
1399430438951105333	1513	1463	1476	1466
1399430438966154109	1515	1463	1475	1465
1399430438980941823	1518	1462	1475	1465
1399430439006107039	1519	1462	1475	1465
1399430439026204883	1522	1462	1475	1465
1399430439041227615	1522	1462	1475	1465
1399430439061243540	1523	1461	1475	1465
1399430439076034027	1524	1460	1475	1465
1399430439091148586	1525	1461	1475	1465
1399430439106101898	1526	1460	1475	1464
1399430439126235429	1527	1460	1475	1464
1399430439141188229	1527	1460	1475	1464
1399430439161239924	1528	1461	1475	1465
1399430439181308548	1529	1462	1475	1464
1399430439211182353	1532	1460	1474	1464
1399430439241249621	1533	1462	1474	1464
1399430439266060350	1533	1462	1474	1464
1399430439286217574	1534	1462	1474	1463
1399430439301204114	1533	1462	1473	1463
1399430439316056507	1533	1462	1473	1463
1399430439331085821	1534	1464	1473	1463
1399430439361086891	1532	1463	1473	1463
1399430439376155898	1533	1464	1473	1463
1399430439396154721	1532	1464	1473	1462
1399430439416109711	1531	1465	1473	1463
1399430439431098426	1532	1465	1473	1462
1399430439461169281	1531	1466	1473	1462
1399430439476228235	1532	1468	1473	1463
1399430439491166249	1531	1468	1473	1463
1399430439526280206	1530	1469	1473	1463
1399430439551172014	1528	1470	1472	1462
1399430439566107490	1527	1471	1472	1463
1399430439581166918	1526	1472	1472	1463
1399430439601078425	1525	1474	1472	1464
1399430439616181610	1523	1474	1472	1464
1399430439641229215	1523	1474	1472	1463
1399430439660927448	1521	1476	1472	1464
1399430439696155007	1520	1476	1472	1464
1399430439706106147	1519	1476	1472	1464
1399430439741259908	1516	1477	1472	1465
1399430439771197471	1515	1477	1472	1465
1399430439781205445	1514	1476	1472	1464
1399430439801218908	1512	1477	1472	1464
1399430439816167003	1511	1478	1472	1464
1399430439831194404	1510	1478	1472	1465
1399430439851173487	1510	1478	1472	1465
1399430439876214560	1508	1477	1472	1465
1399430439896199211	1504	1478	1472	1464
1399430439926164410	1503	1477	1472	1464
1399430439951233090	1500	1477	1472	1463
1399430439966114525	1500	1478	1472	1463
1399430439991124485	1498	1477	1472	1463
1399430440021239780	1498	1476	1472	1463
1399430440031234077	1494	1476	1472	1463
1399430440051012376	1496	1475	1473	1461
1399430440065989518	1493	1477	1473	1462
1399430440081271852	1493	1476	1473	1461
1399430440101168630	1493	1478	1473	1462
1399430440116248147	1494	1476	1473	1462
1399430440141215804	1491	1476	1473	1462
1399430440176195114	1489	1475	1473	1461
1399430440211211614	1488	1475	1472	1462
1399430440241291449	1487	1475	1472	1462
1399430440256154505	1488	1474	1472	1462
1399430440276135217	1487	1475	1472	1462
1399430440291169970	1488	1473	1472	1462
1399430440311171335	1488	1477	1472	1463
1399430440331131875	1488	1474	1472	1463
1399430440351177132	1490	1476	1472	1464
1399430440376265686	1487	1475	1472	1464
1399430440401164444	1490	1476	1472	1465
1399430440426086370	1489	1477	1472	1465
1399430440456152394	1487	1479	1472	1465
1399430440476195938	1489	1478	1472	1465
1399430440496016730	1490	1479	1472	1465
1399430440506110085	1490	1481	1472	1464
1399430440536131134	1490	1481	1472	1464
1399430440546105602	1490	1483	1472	1465
1399430440565881274	1491	1482	1472	1465
1399430440581024235	1491	1485	1472	1465
1399430440611180576	1492	1486	1472	1466
1399430440641169383	1495	1487	1472	1465
1399430440676164540	1496	1488	1472	1465
1399430440691163288	1498	1489	1472	1464
1399430440711156355	1498	1490	1472	1465
1399430440726002971	1498	1489	1472	1465
1399430440741062175	1498	1491	1472	1465
1399430440761150277	1498	1491	1472	1464
1399430440776190147	1499	1490	1472	1464
1399430440791115146	1500	1491	1472	1463
1399430440811270382	1501	1491	1472	1463
1399430440831220064	1502	1493	1472	1463
1399430440851130941	1503	1491	1472	1463
1399430440866145420	1503	1493	1472	1462
1399430440891194613	1504	1491	1472	1462
1399430440916155767	1504	1492	1472	1463
1399430440941175834	1505	1492	1472	1462
1399430440986115612	1506	1491	1472	1462
1399430441001284961	1508	1491	1472	1462
1399430441016235926	1507	1490	1472	1462
1399430441036228478	1508	1491	1472	1462
1399430441051162201	1508	1488	1472	1462
1399430441066123090	1510	1489	1472	1462
1399430441081064755	1509	1489	1472	1462
1399430441111168114	1510	1488	1472	1462
1399430441141238402	1512	1488	1472	1462
1399430441161223130	1512	1488	1472	1462
1399430441176086361	1512	1486	1472	1462
1399430441191193345	1512	1486	1472	1462
1399430441206137780	1514	1486	1472	1462
1399430441226107644	1514	1486	1472	1462
1399430441241270314	1513	1485	1472	1462
1399430441256185221	1513	1484	1472	1461
1399430441301198597	1514	1484	1472	1462
1399430441325987371	1515	1481	1472	1461
1399430441346160481	1515	1481	1472	1461
1399430441376272457	1514	1482	1472	1461
1399430441411173099	1515	1479	1472	1461
1399430441456199115	1514	1479	1472	1461
1399430441476172501	1513	1477	1472	1460
1399430441491140847	1513	1478	1472	1460
1399430441511275991	1513	1478	1472	1461
1399430441526196262	1513	1478	1472	1461
1399430441541148985	1513	1478	1472	1461
1399430441566116254	1512	1476	1472	1460
1399430441591016365	1513	1476	1472	1460
1399430441626069800	1513	1475	1473	1460
1399430441661227818	1512	1475	1474	1461
1399430441691252710	1512	1474	1475	1460
1399430441706190149	1511	1475	1475	1461
1399430441741152769	1510	1474	1476	1461
1399430441766133366	1511	1474	1477	1461
1399430441781209046	1510	1474	1477	1460
1399430441796181734	1509	1473	1478	1461
1399430441815986140	1508	1473	1478	1461
1399430441831146905	1508	1473	1478	1460
1399430441861215017	1509	1474	1479	1461
1399430441891216544	1509	1474	1479	1461
1399430441921247835	1508	1473	1479	1460
1399430441930936388	1508	1474	1480	1460
1399430441951170797	1509	1474	1480	1461
1399430441971211314	1509	1474	1480	1462
1399430441981117969	1509	1473	1480	1462
1399430442001003149	1508	1474	1480	1462
1399430442016071315	1508	1474	1480	1461
1399430442031122820	1508	1474	1480	1461
1399430442051141521	1509	1474	1480	1462
1399430442076220105	1508	1474	1480	1462
1399430442096141031	1508	1474	1480	1462
1399430442126258693	1509	1474	1479	1463
1399430442151245439	1508	1475	1479	1463
1399430442176292767	1509	1475	1479	1463
1399430442201178521	1510	1474	1479	1464
1399430442216149680	1510	1474	1478	1465
1399430442236252017	1509	1474	1478	1464
1399430442251198730	1510	1474	1478	1463
1399430442266131704	1511	1475	1478	1464
1399430442291018155	1512	1474	1477	1464
1399430442316168336	1513	1475	1477	1465
1399430442341157429	1514	1475	1476	1465
1399430442376206350	1514	1475	1476	1464
1399430442411221080	1515	1476	1476	1464
1399430442451154042	1516	1478	1475	1464
1399430442471163973	1518	1477	1475	1464
1399430442481230230	1518	1477	1475	1464
1399430442501112134	1519	1478	1475	1463
1399430442516156546	1519	1479	1475	1463
1399430442531219727	1519	1480	1475	1464
1399430442561087078	1521	1480	1474	1464
1399430442581173538	1522	1480	1474	1463
1399430442611142980	1524	1483	1474	1464
1399430442626112077	1525	1484	1474	1465
1399430442641118761	1526	1485	1474	1465
1399430442666108443	1525	1485	1474	1464
1399430442681132505	1526	1486	1473	1465
1399430442711208127	1527	1486	1473	1466
1399430442736181049	1529	1486	1473	1466
1399430442751166607	1529	1486	1473	1466
1399430442766113706	1529	1486	1473	1466
1399430442781134864	1530	1486	1473	1466
1399430442801003894	1528	1486	1473	1467
1399430442826142466	1531	1487	1473	1467
1399430442845917403	1532	1489	1473	1468
1399430442875940291	1530	1487	1473	1467
1399430442905942220	1530	1488	1474	1467
1399430442920918560	1529	1488	1474	1468
1399430442941038023	1529	1489	1474	1468
1399430442960999138	1527	1488	1474	1467
1399430442986129757	1528	1488	1474	1467
1399430443001366170	1526	1488	1474	1467
1399430443016158543	1525	1488	1474	1467
1399430443031141090	1524	1489	1474	1466
1399430443051185153	1524	1490	1474	1467
1399430443076224867	1522	1489	1474	1467
1399430443091201290	1520	1489	1474	1467
1399430443126241534	1518	1489	1474	1466
1399430443151051000	1516	1489	1474	1466
1399430443176174936	1512	1490	1474	1467
1399430443191161189	1511	1489	1474	1467
1399430443206195132	1509	1489	1474	1466
1399430443226172998	1507	1489	1474	1466
1399430443241250213	1506	1488	1474	1466
1399430443261248716	1504	1489	1474	1466
1399430443276238626	1503	1489	1473	1466
1399430443291184715	1500	1489	1473	1466
1399430443316178608	1498	1488	1473	1466
1399430443341199496	1495	1488	1473	1466
1399430443361176371	1493	1487	1473	1467
1399430443381180773	1491	1487	1472	1467
1399430443416192279	1489	1485	1472	1466
1399430443431158584	1487	1485	1472	1467
1399430443451170382	1487	1486	1472	1466
1399430443466117771	1486	1485	1472	1467
1399430443481215763	1486	1485	1472	1467
1399430443501228114	1485	1484	1472	1467
1399430443516175483	1482	1486	1472	1467
1399430443530852273	1483	1485	1472	1468
1399430443551216461	1482	1482	1472	1466
1399430443576182263	1482	1483	1472	1468
1399430443601135015	1484	1482	1472	1467
