#Time	 Roll 	 Pitch 	 Yaw 	 Thrust
1399575960100369518	1520	1516	1926	1105
1399575960200677593	1520	1516	1926	1105
1399575960301010083	1520	1516	1926	1105
1399575960401347060	1520	1516	1926	1105
1399575960501590388	1520	1516	1926	1105
1399575960601814996	1520	1516	1926	1105
1399575960701973831	1520	1516	1926	1105
1399575960802148237	1520	1516	1926	1105
1399575960902383766	1520	1516	1926	1105
1399575961002636675	1520	1516	1926	1105
1399575961102874234	1520	1516	1926	1105
1399575961203101258	1520	1516	1926	1105
1399575961303319229	1520	1516	1926	1105
1399575961403568307	1520	1516	1926	1105
1399575961503806717	1520	1516	1926	1105
1399575961604111035	1520	1516	1926	1105
1399575961704354699	1520	1516	1926	1105
1399575961804582432	1520	1516	1926	1105
1399575961904825102	1520	1516	1926	1105
1399575962005064144	1520	1516	1926	1105
1399575962105304899	1520	1516	1926	1105
1399575962205562131	1520	1516	1926	1105
1399575962305803813	1520	1516	1926	1105
1399575962406041595	1520	1516	1926	1105
1399575962506280447	1520	1516	1926	1105
1399575962606507330	1520	1516	1926	1105
1399575962706748073	1520	1516	1926	1105
1399575962806931367	1520	1516	1926	1105
1399575962907090059	1520	1516	1926	1105
1399575963007228747	1520	1516	1926	1105
1399575963107373675	1520	1516	1513	1105
1399575968293310116	1516	1511	1520	1378
1399575968303448201	1516	1511	1520	1378
1399575968313407428	1516	1511	1520	1378
1399575968318401118	1516	1510	1520	1378
1399575968328434044	1516	1511	1520	1378
1399575968338505122	1516	1511	1520	1378
1399575968353516363	1516	1511	1520	1378
1399575968368357460	1516	1511	1520	1378
1399575968378457196	1516	1511	1520	1378
1399575968388274611	1517	1511	1520	1378
1399575968398217798	1516	1511	1520	1388
1399575968403174963	1516	1511	1520	1388
1399575968413261042	1517	1510	1520	1387
1399575968418302871	1516	1512	1520	1388
1399575968433267584	1517	1511	1520	1387
1399575968438163694	1517	1511	1520	1388
1399575968448181052	1516	1511	1520	1388
1399575968453091878	1517	1511	1520	1387
1399575968463180937	1516	1511	1520	1388
1399575968468246004	1517	1511	1520	1388
1399575968483209439	1516	1511	1520	1388
1399575968488084193	1516	1510	1520	1388
1399575968493208559	1517	1511	1520	1397
1399575968503134201	1516	1511	1520	1397
1399575968513084042	1516	1511	1520	1397
1399575968518103068	1516	1511	1520	1397
1399575968528320746	1516	1511	1520	1397
1399575968538170618	1516	1510	1520	1397
1399575968543106403	1516	1511	1520	1398
1399575968558339002	1516	1511	1520	1397
1399575968563140547	1517	1511	1520	1397
1399575968568164165	1517	1511	1520	1397
1399575968583225531	1515	1511	1520	1398
1399575968588203972	1517	1511	1520	1397
1399575968598161109	1517	1510	1520	1407
1399575968603084699	1516	1512	1520	1407
1399575968613155798	1516	1511	1520	1407
1399575968618128673	1517	1511	1520	1406
1399575968633195532	1516	1511	1520	1407
1399575968638146022	1516	1511	1520	1407
1399575968643095000	1516	1511	1520	1407
1399575968653132342	1516	1512	1520	1407
1399575968663159987	1517	1511	1520	1407
1399575968668156309	1516	1511	1520	1407
1399575968683249284	1516	1511	1520	1407
1399575968688179844	1516	1511	1520	1407
1399575968698177149	1516	1511	1520	1416
1399575968713237433	1516	1511	1520	1416
1399575968718379188	1516	1511	1520	1416
1399575968733472494	1516	1511	1520	1416
1399575968738379942	1516	1511	1520	1416
1399575968748448323	1516	1511	1520	1416
1399575968753164930	1516	1511	1520	1416
1399575968768577434	1515	1510	1520	1416
1399575968793535142	1515	1511	1520	1425
1399575968803479578	1515	1511	1520	1425
1399575968813443186	1514	1511	1520	1426
1399575968818404927	1515	1512	1520	1425
1399575968833428391	1515	1512	1520	1425
1399575968838322692	1514	1511	1520	1425
1399575968843348539	1515	1513	1520	1426
1399575968858599875	1513	1512	1520	1425
1399575968863426144	1514	1514	1520	1426
1399575968868434594	1513	1511	1520	1425
1399575968883407300	1514	1514	1520	1426
1399575968888251561	1513	1511	1520	1425
1399575968903233196	1513	1513	1520	1426
1399575968913191360	1513	1513	1520	1426
1399575968918326427	1513	1511	1520	1425
1399575968933213560	1512	1513	1520	1426
1399575968938185321	1513	1511	1520	1426
1399575968948208368	1512	1514	1520	1425
1399575968963323890	1510	1513	1520	1425
1399575968968147068	1508	1510	1520	1425
1399575968983338550	1510	1514	1520	1425
1399575968988202436	1507	1511	1520	1423
1399575968998292598	1508	1513	1520	1426
1399575969003259747	1507	1511	1520	1423
1399575969013216006	1502	1513	1520	1425
1399575969018184173	1501	1511	1520	1423
1399575969028339296	1499	1515	1520	1425
1399575969038205965	1499	1510	1520	1423
1399575969043155210	1498	1515	1520	1424
1399575969053125962	1497	1511	1520	1422
1399575969063164073	1492	1516	1520	1423
1399575969068179143	1491	1517	1520	1421
1399575969078211135	1488	1513	1520	1422
1399575969088126272	1489	1517	1520	1420
1399575969098203835	1486	1514	1520	1422
1399575969103146898	1487	1516	1520	1421
1399575969113208720	1474	1520	1520	1419
1399575969118186361	1474	1517	1520	1419
1399575969128235429	1474	1521	1520	1419
1399575969138197956	1471	1517	1520	1419
1399575969148253132	1475	1519	1520	1418
1399575969153167739	1470	1520	1520	1419
1399575969163159583	1463	1514	1520	1417
1399575969168129616	1462	1518	1520	1417
1399575969183226532	1459	1514	1520	1418
1399575969198531053	1459	1517	1519	1416
1399575969203272232	1462	1516	1519	1417
1399575969213323896	1455	1515	1519	1414
1399575969218287687	1454	1511	1519	1416
1399575969233434049	1454	1514	1519	1414
1399575969238364979	1450	1513	1518	1414
1399575969248229516	1454	1511	1519	1414
1399575969253296993	1450	1516	1518	1412
1399575969263345391	1462	1506	1519	1414
1399575969268331569	1458	1513	1518	1412
1399575969283414306	1457	1506	1518	1410
1399575969288330220	1458	1509	1518	1411
1399575969293291948	1454	1510	1517	1409
1399575969313427272	1457	1511	1517	1410
1399575969318349827	1455	1511	1517	1409
1399575969333420689	1455	1511	1517	1409
1399575969338356548	1451	1512	1516	1407
1399575969348390427	1453	1509	1516	1409
1399575969353321316	1449	1510	1516	1406
1399575969363386484	1463	1507	1516	1406
1399575969373325343	1461	1506	1516	1406
1399575969383304061	1460	1505	1515	1405
1399575969388289114	1460	1506	1515	1405
1399575969398310171	1459	1505	1515	1404
1399575969403349227	1457	1506	1514	1404
1399575969413194095	1482	1501	1514	1405
1399575969423243205	1484	1500	1514	1402
1399575969433483846	1479	1502	1514	1404
1399575969438386063	1483	1501	1514	1402
1399575969448440853	1481	1503	1513	1402
1399575969453349858	1479	1503	1513	1402
1399575969463157015	1486	1504	1513	1402
1399575969468219049	1484	1506	1513	1401
1399575969483465478	1488	1510	1513	1402
1399575969488415823	1481	1504	1512	1399
1399575969498407501	1483	1508	1512	1402
1399575969503419603	1481	1504	1512	1397
1399575969513413796	1481	1514	1512	1400
1399575969518561599	1484	1512	1512	1398
1399575969528543871	1480	1513	1512	1399
1399575969538527527	1482	1511	1511	1398
1399575969543376605	1480	1511	1511	1398
1399575969558230594	1482	1517	1511	1399
1399575969563183718	1487	1512	1511	1396
1399575969568442469	1489	1518	1511	1399
1399575969583308629	1488	1513	1510	1396
1399575969588512593	1487	1517	1510	1397
1399575969598376313	1488	1515	1510	1397
1399575969603350344	1488	1516	1510	1397
1399575969613359679	1488	1515	1510	1398
1399575969618373896	1488	1511	1510	1397
1399575969633478971	1490	1516	1510	1398
1399575969638389723	1489	1511	1510	1395
1399575969648504581	1488	1514	1510	1397
1399575969653454892	1489	1512	1510	1397
1399575969663381943	1494	1514	1510	1396
1399575969668366001	1492	1512	1510	1397
1399575969683534858	1494	1511	1510	1395
1399575969688472666	1495	1513	1510	1396
1399575969698356518	1491	1516	1509	1397
1399575969703439183	1490	1513	1510	1396
1399575969713452768	1484	1522	1509	1397
1399575969718412256	1480	1519	1509	1396
1399575969728442909	1482	1522	1510	1397
1399575969738479274	1479	1519	1509	1394
1399575969748464039	1483	1524	1509	1399
1399575969753458741	1477	1518	1509	1395
1399575969763257320	1474	1530	1510	1397
1399575969768383064	1474	1529	1509	1396
1399575969778611691	1473	1528	1509	1397
1399575969793545779	1474	1525	1509	1395
1399575969798295140	1473	1530	1509	1398
1399575969803335679	1475	1529	1509	1398
1399575969813454779	1472	1525	1509	1395
1399575969823465922	1463	1528	1509	1398
1399575969833140072	1459	1524	1509	1397
1399575969838439570	1461	1525	1509	1398
1399575969848452152	1460	1523	1509	1395
1399575969853297245	1464	1529	1509	1398
1399575969868339562	1458	1520	1509	1398
1399575969884011154	1458	1521	1509	1396
1399575969888468887	1461	1522	1509	1400
1399575969898104366	1458	1521	1509	1396
1399575969903094064	1457	1524	1509	1401
1399575969918202603	1458	1518	1509	1397
1399575969933289505	1455	1519	1509	1400
1399575969938100529	1458	1519	1509	1398
1399575969948161959	1454	1523	1509	1401
1399575969953205342	1456	1518	1509	1399
1399575969963163277	1447	1515	1509	1401
1399575969968094094	1449	1517	1509	1400
1399575969983165158	1448	1517	1509	1400
1399575969988079902	1446	1516	1509	1401
1399575969998089593	1448	1517	1509	1402
1399575970003074716	1447	1516	1509	1401
1399575970013087078	1428	1519	1509	1403
1399575970018076581	1427	1516	1509	1401
1399575970033233159	1430	1521	1509	1404
1399575970038070733	1428	1517	1509	1402
1399575970043122121	1429	1519	1509	1403
1399575970058210746	1419	1519	1509	1403
1399575970063129729	1423	1522	1509	1404
1399575970068066649	1420	1520	1509	1404
1399575970083205833	1422	1521	1509	1404
1399575970088085636	1421	1519	1509	1404
1399575970098151513	1421	1523	1509	1405
1399575970103191406	1422	1518	1509	1403
1399575970113051990	1424	1517	1509	1408
1399575970123084467	1424	1513	1509	1403
1399575970133111716	1425	1517	1509	1408
1399575970138070168	1424	1515	1509	1405
1399575970148179409	1425	1514	1509	1406
1399575970153075922	1424	1519	1509	1407
1399575970163109458	1432	1505	1509	1407
1399575970168136863	1430	1509	1509	1407
1399575970183182447	1430	1505	1509	1408
1399575970188070778	1431	1510	1509	1407
1399575970198074338	1431	1506	1510	1408
1399575970203097616	1431	1510	1510	1409
1399575970213101540	1442	1504	1509	1405
1399575970218148230	1442	1509	1510	1411
1399575970228159247	1442	1504	1510	1407
1399575970238116035	1443	1508	1510	1410
1399575970243073001	1441	1504	1510	1408
1399575970258207459	1457	1506	1510	1410
1399575970263041043	1454	1507	1510	1409
1399575970268071467	1457	1505	1510	1410
1399575970278125257	1456	1505	1510	1409
1399575970298238244	1457	1506	1510	1411
1399575970303180195	1459	1503	1510	1410
1399575970313095625	1460	1511	1510	1412
1399575970318074418	1460	1510	1510	1411
1399575970333168804	1463	1510	1510	1412
1399575970338197523	1462	1510	1510	1411
1399575970348081454	1463	1510	1511	1413
1399575970353071900	1464	1509	1511	1411
1399575970363094308	1471	1513	1511	1413
1399575970373155155	1469	1512	1510	1412
1399575970383173773	1473	1515	1511	1414
1399575970398220384	1473	1512	1511	1414
1399575970403134688	1475	1512	1511	1413
1399575970413070348	1484	1512	1511	1413
1399575970423111386	1486	1510	1511	1413
1399575970433153881	1486	1512	1511	1414
1399575970438096071	1488	1511	1511	1415
1399575970448135137	1487	1512	1511	1415
1399575970453090863	1488	1512	1511	1415
1399575970463119038	1505	1509	1511	1416
1399575970468129430	1506	1508	1511	1414
1399575970478171776	1508	1507	1511	1415
1399575970493197485	1508	1509	1511	1416
1399575970503154441	1508	1512	1511	1416
1399575970513058745	1514	1507	1511	1416
1399575970523076652	1515	1512	1511	1417
1399575970533072017	1516	1507	1511	1416
1399575970538298411	1518	1511	1511	1418
1399575970548086474	1518	1508	1511	1415
1399575970553030963	1521	1510	1511	1418
1399575970563079564	1514	1518	1511	1416
1399575970573234492	1517	1518	1512	1418
1399575970583154273	1517	1519	1512	1416
1399575970588079238	1519	1518	1512	1418
1399575970598126552	1519	1520	1511	1418
1399575970603214946	1521	1518	1511	1418
1399575970613101836	1518	1521	1511	1418
1399575970618130714	1519	1520	1511	1417
1399575970633221016	1521	1521	1511	1419
1399575970638125641	1521	1520	1511	1417
1399575970648103358	1524	1520	1511	1419
1399575970653042697	1525	1519	1511	1418
1399575970663107255	1521	1522	1512	1418
1399575970673083626	1518	1523	1512	1418
1399575970683199334	1521	1523	1512	1418
1399575970688110576	1520	1524	1512	1419
1399575970693091692	1522	1525	1511	1419
1399575970703143476	1523	1525	1511	1421
1399575970713130264	1521	1524	1511	1419
1399575970733172966	1522	1524	1512	1420
1399575970738116005	1524	1526	1511	1420
1399575970758131075	1519	1524	1512	1420
1399575970763065804	1520	1522	1512	1420
1399575970768124877	1522	1525	1512	1421
1399575970783172406	1520	1524	1511	1422
1399575970788106861	1523	1525	1512	1421
1399575970793090032	1527	1522	1512	1419
1399575970808219705	1510	1527	1512	1423
1399575970813178144	1510	1526	1512	1421
1399575970818102031	1513	1525	1512	1423
1399575970833261988	1516	1526	1512	1420
1399575970838147398	1511	1526	1512	1423
1399575970853186458	1517	1526	1512	1422
1399575970863119660	1507	1529	1512	1424
1399575970868145175	1508	1528	1512	1423
1399575970883168303	1508	1527	1512	1422
1399575970888124399	1509	1528	1512	1422
1399575970898163316	1507	1529	1512	1426
1399575970903105304	1512	1528	1512	1420
1399575970913136566	1501	1529	1512	1425
1399575970918070134	1504	1531	1512	1423
1399575970928187179	1503	1526	1512	1422
1399575970938183674	1503	1531	1512	1425
1399575970948116374	1503	1529	1512	1423
1399575970953029233	1505	1530	1512	1424
1399575970963182867	1482	1535	1512	1424
1399575970968217881	1482	1536	1512	1425
1399575970978143482	1486	1535	1512	1423
1399575970988060078	1482	1535	1511	1425
1399575970993104864	1484	1538	1511	1426
1399575971008243936	1461	1533	1512	1423
1399575971013082122	1461	1536	1511	1424
1399575971018132202	1459	1536	1511	1425
1399575971033212004	1462	1535	1512	1425
1399575971038148288	1463	1536	1511	1423
1399575971048186003	1459	1535	1511	1426
1399575971053075129	1462	1536	1511	1423
1399575971063167195	1450	1531	1511	1424
1399575971068177670	1448	1536	1511	1426
1399575971083281313	1449	1531	1511	1424
1399575971088020390	1451	1533	1511	1424
1399575971093057354	1446	1536	1511	1424
1399575971103075905	1446	1533	1511	1426
1399575971113052754	1451	1530	1511	1422
1399575971118096119	1443	1529	1511	1425
1399575971133141854	1444	1532	1511	1425
1399575971138163709	1444	1527	1511	1423
1399575971148085896	1445	1529	1511	1424
1399575971153168100	1442	1531	1511	1424
1399575971163128320	1436	1526	1511	1426
1399575971168085980	1438	1526	1511	1422
1399575971183148526	1438	1526	1511	1425
1399575971188163400	1435	1528	1511	1424
1399575971198124677	1434	1525	1511	1424
1399575971203134153	1434	1527	1511	1424
1399575971213119961	1437	1525	1510	1423
1399575971228211825	1437	1528	1510	1425
1399575971233084901	1436	1525	1510	1422
1399575971238143876	1436	1526	1510	1425
1399575971248107988	1434	1527	1510	1423
1399575971253072424	1435	1525	1510	1424
1399575971263105392	1435	1524	1510	1424
1399575971268109617	1435	1520	1510	1422
1399575971283170198	1433	1522	1510	1424
1399575971288116885	1431	1523	1509	1423
1399575971298147352	1432	1521	1510	1425
1399575971303084673	1431	1524	1510	1422
1399575971313114017	1439	1515	1509	1425
1399575971323079440	1438	1520	1509	1424
1399575971333221456	1438	1514	1509	1423
1399575971338177080	1438	1515	1509	1423
1399575971348200510	1434	1515	1509	1422
1399575971353072360	1437	1514	1509	1424
1399575971363094228	1437	1514	1509	1423
1399575971368114391	1440	1512	1509	1425
1399575971383123574	1437	1514	1509	1424
1399575971388103705	1437	1512	1509	1423
1399575971398112799	1437	1513	1509	1424
1399575971403146940	1434	1513	1509	1423
1399575971413151201	1442	1507	1509	1425
1399575971418070263	1438	1508	1509	1423
1399575971433179838	1441	1507	1509	1424
1399575971438124919	1438	1506	1509	1423
1399575971448084227	1438	1507	1509	1423
1399575971453092216	1439	1505	1509	1423
1399575971463129709	1441	1504	1509	1423
1399575971478279622	1445	1502	1509	1424
1399575971483095674	1441	1502	1509	1423
1399575971488066155	1443	1502	1509	1423
1399575971498109952	1442	1501	1509	1423
1399575971503139674	1441	1501	1509	1423
1399575971513112579	1460	1501	1509	1423
1399575971518047638	1457	1500	1509	1423
1399575971533197317	1459	1500	1509	1423
1399575971538144810	1457	1500	1509	1423
1399575971543024947	1458	1500	1509	1422
1399575971553042988	1458	1499	1509	1422
1399575971563128237	1480	1498	1509	1422
1399575971568248478	1480	1496	1509	1422
1399575971583192103	1479	1497	1509	1422
1399575971588086692	1480	1495	1509	1421
1399575971598094222	1480	1495	1509	1422
1399575971603065661	1479	1496	1509	1421
1399575971613096364	1509	1491	1509	1422
1399575971618077979	1508	1494	1509	1421
1399575971633227181	1509	1490	1509	1422
1399575971638105336	1509	1494	1509	1421
1399575971648155371	1509	1489	1509	1420
1399575971653197742	1511	1493	1509	1422
1399575971663148847	1521	1493	1509	1420
1399575971668103822	1524	1492	1509	1422
1399575971678085564	1522	1493	1509	1420
1399575971693171439	1525	1492	1509	1421
1399575971713158176	1538	1492	1509	1420
1399575971718127633	1537	1492	1509	1420
1399575971728127423	1541	1491	1509	1421
1399575971738129956	1539	1491	1509	1418
1399575971748086326	1542	1488	1509	1421
1399575971753139531	1542	1491	1509	1419
1399575971763149725	1556	1494	1509	1419
1399575971768048664	1558	1497	1509	1420
1399575971778127714	1557	1494	1509	1419
1399575971788178726	1561	1495	1509	1420
1399575971798172077	1558	1496	1509	1419
1399575971803070681	1563	1494	1509	1420
1399575971813127760	1568	1491	1509	1418
1399575971818172004	1571	1489	1509	1418
1399575971833177389	1572	1490	1509	1418
1399575971838152240	1570	1490	1509	1417
1399575971853198900	1575	1489	1509	1418
1399575971863131166	1577	1492	1509	1418
1399575971873099222	1577	1491	1509	1418
1399575971883106251	1579	1491	1509	1417
1399575971888120887	1582	1489	1509	1417
1399575971898214325	1580	1493	1509	1417
1399575971903066348	1585	1489	1509	1416
1399575971913123002	1589	1494	1509	1417
1399575971918111051	1590	1496	1509	1418
1399575971933148707	1591	1494	1509	1417
1399575971938119223	1591	1495	1509	1416
1399575971948101974	1595	1492	1509	1417
1399575971953122575	1594	1494	1509	1416
1399575971963090064	1596	1498	1509	1416
1399575971968130795	1598	1501	1508	1416
1399575971983188193	1597	1500	1508	1416
1399575971988128276	1600	1498	1509	1416
1399575971998105818	1598	1499	1509	1416
1399575972003105116	1604	1499	1509	1416
1399575972013077830	1605	1504	1509	1415
1399575972023099611	1605	1503	1509	1415
1399575972033210152	1609	1501	1509	1415
1399575972038095826	1606	1503	1509	1416
1399575972048120954	1613	1504	1509	1415
1399575972053103777	1608	1504	1509	1416
1399575972063124315	1605	1513	1509	1417
1399575972068112149	1603	1514	1509	1415
1399575972083232035	1605	1516	1509	1416
1399575972088120030	1606	1512	1509	1414
1399575972098136018	1603	1515	1509	1417
1399575972103098654	1611	1515	1509	1414
1399575972113177070	1584	1526	1509	1416
1399575972118079623	1593	1524	1509	1415
1399575972133171305	1586	1527	1509	1417
1399575972148167439	1592	1526	1509	1415
1399575972153126910	1593	1525	1509	1416
1399575972163146167	1578	1538	1509	1417
1399575972168112109	1578	1532	1509	1414
1399575972178114336	1580	1539	1509	1417
1399575972188071997	1581	1534	1509	1414
1399575972193256806	1579	1538	1509	1417
1399575972208172937	1557	1540	1509	1414
1399575972213123511	1552	1545	1509	1417
1399575972218111133	1558	1540	1509	1414
1399575972233159805	1554	1545	1509	1417
1399575972238059855	1559	1542	1509	1414
1399575972243159312	1557	1543	1509	1416
1399575972253081187	1558	1543	1509	1415
1399575972263070701	1524	1539	1509	1416
1399575972268078819	1523	1539	1509	1416
1399575972283226704	1525	1541	1509	1415
1399575972288087630	1522	1541	1509	1416
1399575972298077651	1525	1542	1509	1415
1399575972303115070	1521	1541	1509	1416
1399575972318201492	1509	1540	1509	1415
1399575972333166076	1509	1541	1509	1415
1399575972338097498	1507	1542	1509	1416
1399575972348060707	1508	1542	1509	1415
1399575972353089708	1504	1543	1509	1414
1399575972363056428	1491	1543	1509	1416
1399575972368073374	1490	1542	1509	1414
1399575972383133603	1488	1542	1509	1416
1399575972388104409	1488	1546	1509	1415
1399575972398082309	1488	1544	1509	1416
1399575972403066883	1485	1547	1509	1417
1399575972413171154	1459	1545	1509	1414
1399575972418215939	1459	1548	1509	1417
1399575972428143183	1454	1549	1509	1415
1399575972443216103	1456	1549	1509	1416
1399575972453134622	1453	1549	1509	1418
1399575972463094215	1440	1549	1510	1415
1399575972468074808	1436	1551	1510	1417
1399575972478049206	1439	1553	1510	1418
1399575972493259473	1431	1551	1509	1417
1399575972498029531	1436	1551	1510	1417
1399575972503105902	1430	1553	1510	1416
1399575972513169794	1417	1544	1510	1418
1399575972518149077	1415	1542	1510	1417
1399575972533221416	1410	1543	1510	1419
1399575972538125731	1411	1545	1510	1417
1399575972553221727	1406	1545	1511	1419
1399575972563108227	1395	1541	1511	1418
1399575972568093194	1396	1544	1511	1419
1399575972583293240	1392	1542	1511	1418
1399575972588155760	1390	1546	1511	1420
1399575972598130020	1387	1544	1511	1418
1399575972603086038	1385	1545	1511	1420
1399575972613130498	1382	1535	1511	1418
1399575972618211010	1378	1534	1512	1419
1399575972633249102	1376	1537	1512	1421
1399575972638117523	1373	1534	1512	1421
1399575972643088335	1372	1537	1512	1420
1399575972663188254	1360	1534	1512	1420
1399575972673108270	1356	1533	1512	1419
1399575972683106340	1355	1533	1513	1421
1399575972698180304	1349	1534	1513	1421
1399575972703119093	1345	1537	1513	1421
1399575972713051923	1361	1514	1513	1422
1399575972718096260	1360	1514	1513	1420
1399575972733285655	1355	1513	1513	1421
1399575972738168749	1354	1515	1513	1423
1399575972748102410	1350	1515	1513	1421
1399575972753067880	1349	1513	1514	1423
1399575972763439337	1349	1509	1514	1421
1399575972768434706	1346	1508	1514	1423
1399575972778373015	1344	1508	1514	1422
1399575972788393758	1340	1508	1514	1423
1399575972798451626	1337	1510	1515	1425
1399575972803318264	1336	1509	1515	1424
1399575972813429306	1399	1503	1515	1424
1399575972818364667	1395	1502	1515	1424
1399575972833482518	1392	1503	1515	1425
1399575972848547068	1388	1502	1515	1425
1399575972853419437	1385	1503	1516	1425
1399575972863391212	1389	1495	1516	1426
1399575972883433005	1384	1496	1516	1426
1399575972888359304	1382	1495	1516	1427
1399575972898436993	1377	1495	1516	1427
1399575972903374297	1379	1495	1516	1428
1399575972913259674	1406	1492	1517	1428
1399575972918325435	1406	1489	1517	1429
1399575972933416372	1403	1492	1517	1428
1399575972938402513	1402	1487	1517	1429
1399575972958161997	1407	1489	1517	1429
1399575972963341691	1407	1489	1517	1432
1399575972968304481	1400	1488	1517	1429
1399575972983474083	1403	1486	1518	1431
1399575972988420405	1399	1489	1518	1430
1399575972998307122	1397	1484	1518	1432
1399575973003325470	1398	1488	1518	1432
1399575973013371034	1442	1487	1518	1430
1399575973018203199	1446	1490	1518	1433
1399575973033447706	1438	1488	1518	1432
1399575973038184906	1442	1486	1518	1434
1399575973048371450	1438	1487	1518	1432
1399575973053662726	1439	1484	1519	1433
1399575973068567013	1455	1492	1519	1433
1399575973083473427	1455	1490	1519	1434
1399575973088432700	1452	1491	1519	1434
1399575973098409864	1453	1490	1519	1436
1399575973103298797	1452	1488	1519	1433
1399575973113394803	1452	1488	1519	1435
1399575973133490081	1462	1490	1519	1435
1399575973138404506	1462	1491	1519	1436
1399575973148434710	1462	1487	1519	1435
1399575973153348673	1461	1490	1519	1437
1399575973163447855	1461	1495	1520	1436
1399575973168326200	1462	1499	1519	1437
1399575973178443853	1461	1493	1520	1435
1399575973193496142	1462	1498	1520	1439
1399575973198545057	1461	1494	1520	1436
1399575973203296311	1463	1492	1520	1438
1399575973213470955	1457	1498	1520	1437
1399575973218487645	1458	1492	1520	1438
1399575973228576116	1459	1496	1520	1438
1399575973238411965	1459	1492	1520	1438
1399575973248388249	1461	1493	1520	1438
1399575973253354046	1459	1491	1520	1437
1399575973263522009	1475	1494	1520	1440
1399575973268504167	1477	1492	1520	1436
1399575973283594244	1478	1491	1520	1440
1399575973288446966	1478	1491	1520	1438
1399575973303445563	1479	1491	1519	1438
1399575973313496427	1482	1489	1519	1439
1399575973318382099	1485	1486	1519	1438
1399575973333417133	1484	1494	1519	1438
1399575973348469306	1485	1494	1519	1440
1399575973353317091	1490	1492	1519	1439
1399575973363404927	1440	1501	1519	1438
1399575973368564392	1443	1504	1519	1441
1399575973383224314	1444	1502	1519	1440
1399575973388145703	1448	1496	1518	1437
1399575973398146975	1450	1506	1518	1441
1399575973403121443	1448	1500	1518	1441
1399575973413270187	1472	1502	1518	1438
1399575973428373923	1472	1506	1518	1440
1399575973433236841	1474	1500	1518	1440
1399575973438197211	1478	1507	1518	1439
1399575973448136272	1479	1499	1517	1440
1399575973453067827	1483	1503	1517	1439
1399575973463144902	1466	1505	1517	1438
1399575973468256800	1469	1509	1517	1442
1399575973478156135	1471	1503	1517	1437
1399575973488150878	1472	1506	1517	1438
1399575973498113046	1473	1505	1517	1440
1399575973503111395	1475	1506	1516	1438
1399575973513291156	1479	1501	1516	1437
1399575973518133542	1448	1504	1516	1439
1399575973538322514	1452	1503	1516	1439
1399575973548459262	1455	1503	1516	1435
1399575973553390665	1459	1502	1516	1439
1399575973563378215	1430	1496	1516	1436
1399575973568369766	1429	1494	1515	1437
1399575973583515759	1438	1496	1515	1436
1399575973588612574	1434	1496	1516	1437
1399575973598423291	1443	1496	1516	1438
1399575973603484104	1442	1495	1515	1435
1399575973613429449	1435	1502	1515	1437
1399575973618381932	1437	1502	1515	1437
1399575973633629448	1437	1502	1515	1437
1399575973638247730	1444	1504	1515	1437
1399575973648408938	1444	1501	1515	1435
1399575973653474825	1448	1503	1514	1437
1399575973663484521	1453	1500	1514	1435
1399575973683518229	1454	1501	1514	1436
1399575973688300624	1457	1499	1514	1435
1399575973698182948	1461	1502	1514	1435
1399575973703118869	1464	1500	1514	1434
1399575973713169728	1485	1497	1514	1435
1399575973723102312	1487	1500	1514	1434
1399575973733245895	1490	1497	1513	1435
1399575973738093441	1491	1503	1513	1435
1399575973748160046	1495	1497	1514	1433
1399575973753212295	1495	1500	1513	1434
1399575973763149760	1502	1499	1513	1433
1399575973768094651	1500	1500	1513	1434
1399575973783224819	1507	1500	1513	1431
1399575973788108089	1502	1501	1513	1434
1399575973803278234	1508	1501	1513	1432
1399575973813166361	1495	1502	1512	1433
1399575973818219220	1496	1504	1512	1431
1399575973833252040	1499	1502	1512	1432
1399575973838162473	1503	1505	1512	1431
1399575973848135309	1499	1504	1512	1433
1399575973853280779	1506	1505	1512	1431
1399575973863362173	1486	1498	1511	1431
1399575973868468869	1487	1498	1511	1431
1399575973878450013	1491	1501	1511	1431
1399575973898571965	1492	1500	1511	1431
1399575973903340512	1494	1500	1511	1430
1399575973913411378	1496	1502	1510	1432
1399575973918098206	1490	1499	1510	1428
1399575973928495993	1492	1498	1510	1432
1399575973938271778	1492	1504	1510	1431
1399575973943391549	1496	1499	1510	1429
1399575973958300338	1492	1499	1510	1431
1399575973963396043	1494	1501	1509	1428
1399575973973376744	1497	1499	1509	1431
1399575973983401607	1496	1503	1509	1428
1399575973988356771	1500	1502	1509	1429
1399575973998448074	1502	1501	1509	1429
1399575974003478517	1498	1505	1508	1428
1399575974013531951	1554	1502	1508	1429
1399575974018444691	1554	1507	1508	1428
1399575974033560979	1554	1504	1508	1427
1399575974038536210	1555	1504	1508	1428
1399575974048467264	1552	1507	1507	1427
1399575974053429225	1558	1506	1507	1428
1399575974063521438	1553	1512	1507	1427
1399575974068383256	1555	1512	1507	1427
1399575974083464851	1556	1514	1507	1426
1399575974088323800	1555	1512	1507	1425
1399575974093310300	1557	1515	1507	1427
1399575974103441427	1556	1514	1506	1424
1399575974113449982	1558	1518	1506	1426
1399575974133430722	1558	1517	1506	1424
1399575974138352076	1560	1518	1506	1424
1399575974148401371	1558	1517	1506	1425
1399575974153413019	1564	1516	1506	1422
1399575974163425442	1550	1516	1505	1423
1399575974168347354	1554	1516	1505	1424
1399575974178480290	1553	1516	1505	1423
1399575974193601838	1552	1518	1505	1423
1399575974198313072	1558	1516	1505	1423
1399575974203284533	1557	1517	1504	1422
1399575974213400657	1567	1507	1504	1421
1399575974218553574	1570	1509	1504	1421
1399575974228467673	1568	1510	1504	1421
1399575974238270097	1572	1512	1504	1422
1399575974248411835	1572	1511	1504	1421
1399575974253505642	1571	1512	1503	1421
1399575974268573409	1578	1507	1503	1420
1399575974283528511	1580	1511	1503	1421
1399575974288432833	1580	1509	1503	1421
1399575974298443890	1580	1511	1503	1419
1399575974303282458	1582	1509	1503	1418
1399575974318529951	1595	1520	1503	1421
1399575974333464344	1598	1520	1503	1419
1399575974338513596	1598	1522	1502	1419
1399575974348465316	1600	1521	1503	1418
1399575974353377836	1602	1521	1503	1419
1399575974363285591	1604	1520	1502	1418
1399575974373403553	1610	1518	1502	1417
1399575974378531928	1609	1519	1502	1417
1399575974388467398	1607	1521	1502	1418
1399575974393379500	1614	1519	1503	1417
1399575974403450113	1610	1521	1502	1416
1399575974413373739	1616	1525	1502	1416
1399575974423469462	1616	1528	1503	1417
1399575974433321621	1615	1530	1502	1417
1399575974438364184	1616	1525	1503	1416
1399575974448511664	1616	1529	1503	1415
1399575974453467365	1618	1528	1503	1415
1399575974463444503	1606	1532	1503	1416
1399575974473543580	1606	1532	1503	1414
1399575974483391648	1609	1533	1503	1416
1399575974488490166	1607	1535	1503	1414
1399575974503431587	1609	1533	1503	1414
1399575974513430849	1591	1533	1503	1414
1399575974518338858	1595	1534	1503	1414
1399575974533493493	1592	1535	1503	1411
1399575974538413255	1596	1534	1503	1415
1399575974548429335	1595	1537	1503	1413
1399575974553361061	1596	1534	1504	1414
1399575974563422863	1585	1534	1504	1412
1399575974568406418	1583	1537	1504	1413
1399575974583542604	1586	1536	1504	1413
1399575974588361869	1585	1536	1504	1412
1399575974598168587	1588	1536	1504	1413
1399575974603363787	1588	1537	1504	1412
1399575974613167504	1578	1537	1505	1411
1399575974618331333	1583	1534	1505	1411
1399575974628371897	1579	1539	1505	1412
1399575974638370802	1582	1537	1505	1411
1399575974643385608	1584	1539	1505	1412
1399575974663454999	1594	1536	1506	1411
1399575974668334751	1595	1537	1506	1409
1399575974688588395	1596	1538	1506	1411
1399575974698334198	1595	1540	1506	1410
1399575974703371761	1599	1538	1507	1410
1399575974713431734	1612	1541	1507	1411
1399575974723381880	1617	1538	1507	1409
1399575974738417287	1615	1541	1507	1410
1399575974748385549	1618	1539	1508	1409
1399575974753411197	1613	1543	1508	1409
1399575974763490570	1627	1544	1508	1410
1399575974768340545	1623	1545	1508	1408
1399575974783573276	1623	1547	1508	1410
1399575974798495137	1622	1546	1508	1408
1399575974803371611	1618	1548	1508	1411
1399575974813411952	1611	1549	1508	1407
1399575974818372310	1609	1551	1509	1410
1399575974833429613	1609	1549	1509	1407
1399575974838518062	1611	1548	1509	1408
1399575974848386006	1607	1551	1509	1409
1399575974853422671	1608	1550	1509	1409
1399575974863435415	1585	1546	1509	1408
1399575974883531287	1586	1545	1509	1408
1399575974888372402	1585	1546	1509	1407
1399575974893441488	1583	1546	1510	1411
1399575974903439755	1585	1546	1510	1407
1399575974913507966	1572	1540	1510	1408
1399575974918378052	1570	1540	1510	1408
1399575974928289506	1569	1540	1510	1407
1399575974938424610	1571	1539	1510	1408
1399575974948367331	1568	1543	1510	1407
1399575974953306975	1569	1539	1510	1407
1399575974963388465	1566	1546	1510	1410
1399575974973494411	1578	1533	1510	1405
1399575974983441247	1577	1534	1510	1409
1399575974988344005	1571	1540	1510	1407
1399575974998431459	1575	1532	1510	1407
1399575975003505531	1570	1539	1510	1407
1399575975013472646	1568	1535	1510	1407
1399575975018376921	1567	1532	1510	1407
1399575975033375106	1561	1537	1510	1407
1399575975038551461	1565	1531	1511	1406
1399575975048134226	1558	1537	1510	1407
1399575975053148788	1561	1533	1511	1406
1399575975063140079	1580	1549	1511	1407
1399575975068163736	1580	1548	1511	1406
1399575975083240928	1576	1548	1511	1407
1399575975088422570	1575	1549	1511	1406
1399575975098164658	1575	1547	1511	1406
1399575975103362807	1569	1550	1512	1407
1399575975113474530	1563	1543	1512	1405
1399575975118388393	1559	1544	1512	1406
1399575975128461721	1558	1546	1512	1406
1399575975138469374	1555	1543	1512	1406
1399575975148426564	1554	1545	1512	1405
1399575975153322877	1552	1544	1512	1407
1399575975163437536	1540	1544	1512	1406
1399575975173518549	1538	1542	1512	1405
1399575975183468742	1536	1543	1513	1407
1399575975188251634	1533	1545	1513	1406
1399575975193341590	1531	1542	1513	1407
1399575975203407840	1528	1544	1513	1405
1399575975213404274	1515	1539	1513	1408
1399575975218548309	1513	1540	1514	1406
1399575975233542674	1509	1537	1514	1406
1399575975238469991	1509	1539	1514	1407
1399575975248388163	1503	1539	1514	1406
1399575975253432997	1504	1537	1515	1408
1399575975268424468	1493	1542	1515	1407
1399575975283486014	1488	1543	1515	1407
1399575975288419810	1486	1541	1515	1408
1399575975298313140	1486	1541	1516	1407
1399575975303301434	1480	1540	1516	1407
1399575975318531824	1484	1542	1516	1408
1399575975333546542	1483	1541	1516	1409
1399575975338483407	1475	1541	1516	1408
1399575975348406311	1476	1538	1517	1408
1399575975353352965	1472	1540	1517	1409
1399575975363534353	1467	1537	1517	1410
1399575975368557076	1468	1536	1517	1408
1399575975378316377	1460	1535	1517	1409
1399575975393220640	1461	1534	1518	1409
1399575975398390259	1454	1535	1518	1409
1399575975403276340	1454	1534	1518	1409
1399575975413377921	1460	1527	1518	1409
1399575975418330078	1457	1530	1518	1411
1399575975428397059	1456	1527	1519	1408
1399575975438472475	1451	1528	1519	1411
1399575975448420899	1449	1529	1519	1410
1399575975453332208	1443	1527	1519	1412
1399575975463262022	1457	1524	1519	1410
1399575975468323039	1451	1521	1520	1412
1399575975488531039	1447	1522	1520	1411
1399575975498485824	1443	1523	1521	1413
1399575975503382616	1438	1520	1521	1411
1399575975513453021	1448	1520	1521	1414
1399575975518279042	1444	1516	1521	1411
1399575975533545269	1441	1518	1522	1415
1399575975538362225	1437	1517	1522	1413
1399575975548480049	1435	1515	1522	1415
1399575975553502755	1432	1515	1523	1414
1399575975563257393	1429	1515	1523	1415
1399575975568458732	1428	1519	1523	1416
1399575975583520008	1424	1512	1523	1414
1399575975588325824	1421	1516	1524	1417
1399575975598338802	1418	1513	1524	1416
1399575975603283474	1416	1513	1524	1418
1399575975613380885	1407	1517	1524	1416
1399575975618371695	1405	1518	1525	1418
1399575975628500827	1401	1514	1525	1417
1399575975638521052	1397	1516	1525	1419
1399575975648384065	1394	1513	1525	1419
1399575975653477668	1391	1514	1526	1419
1399575975663360276	1384	1504	1526	1420
1399575975673472812	1381	1506	1526	1420
1399575975683541896	1377	1502	1526	1419
1399575975688121267	1375	1504	1526	1422
1399575975698386656	1373	1503	1527	1420
1399575975703444476	1368	1500	1527	1422
1399575975713332428	1355	1499	1527	1422
1399575975718244006	1350	1495	1527	1423
1399575975733478454	1349	1496	1528	1423
1399575975738380365	1346	1493	1528	1422
1399575975748397053	1345	1494	1528	1424
1399575975753377990	1340	1493	1528	1423
1399575975763338306	1343	1487	1529	1425
1399575975768297294	1339	1487	1529	1424
1399575975783398743	1336	1485	1529	1427
1399575975798574469	1336	1484	1530	1426
1399575975803430864	1336	1483	1530	1427
1399575975813505745	1336	1482	1530	1427
1399575975818432356	1336	1483	1531	1429
1399575975828351359	1336	1481	1531	1427
1399575975838500719	1336	1482	1531	1430
1399575975843613145	1336	1478	1532	1428
1399575975863480948	1336	1479	1532	1430
1399575975868428418	1336	1482	1532	1431
1399575975883827773	1336	1478	1532	1431
1399575975888562743	1336	1478	1533	1431
1399575975908688152	1336	1485	1533	1432
1399575975913585195	1336	1484	1533	1431
1399575975918471071	1336	1485	1533	1433
1399575975933557878	1336	1484	1533	1433
1399575975938478123	1336	1484	1533	1433
1399575975953581634	1336	1483	1533	1434
1399575975963426950	1336	1486	1534	1434
1399575975973439122	1336	1488	1534	1435
1399575975983418715	1336	1486	1534	1435
1399575975988406961	1336	1487	1534	1437
1399575975998531254	1336	1485	1534	1434
1399575976003569900	1336	1485	1534	1437
1399575976013501247	1336	1498	1534	1436
1399575976018588087	1336	1495	1534	1437
1399575976033357968	1336	1497	1534	1437
1399575976038444593	1336	1495	1534	1436
1399575976048400093	1336	1496	1534	1439
1399575976053305925	1336	1495	1534	1437
1399575976063382372	1336	1492	1534	1439
1399575976073387944	1336	1492	1534	1438
1399575976083728554	1336	1491	1534	1440
1399575976088572060	1336	1490	1534	1438
1399575976098662051	1336	1492	1534	1439
1399575976103455689	1336	1490	1534	1440
1399575976113455118	1336	1491	1533	1440
1399575976135512377	1520	1516	1514	1350
1399575976155351838	1520	1516	1514	1349
1399575976175208809	1520	1516	1514	1348
1399575976195535729	1520	1516	1514	1346
1399575976215625390	1520	1516	1514	1345
1399575976235454718	1520	1516	1514	1344
1399575976255104677	1520	1516	1514	1343
1399575976275044253	1520	1516	1514	1342
1399575976295426885	1520	1516	1514	1341
1399575976315387331	1520	1516	1514	1340
1399575976335166437	1520	1516	1514	1339
1399575976355512412	1520	1516	1514	1338
1399575976374938096	1520	1516	1514	1337
1399575976394814654	1520	1516	1514	1335
1399575976415125906	1520	1516	1514	1334
1399575976435163686	1520	1516	1514	1350
1399575976455354473	1520	1516	1514	1349
1399575976475140077	1520	1516	1514	1348
1399575976495216188	1520	1516	1514	1346
1399575976515138987	1520	1516	1514	1345
1399575976535047474	1520	1516	1514	1344
1399575976555465129	1520	1516	1514	1343
1399575976575221658	1520	1516	1514	1342
1399575976595066712	1520	1516	1514	1341
1399575976615313243	1520	1516	1514	1340
1399575976635259921	1520	1516	1514	1339
1399575976654837480	1520	1516	1514	1350
1399575976675318735	1520	1516	1514	1349
1399575976695464010	1520	1516	1514	1348
1399575976715298650	1520	1516	1514	1346
1399575976735220637	1520	1516	1514	1345
1399575976755273705	1520	1516	1514	1344
1399575976774863946	1520	1516	1514	1343
1399575976795578724	1520	1516	1514	1342
1399575976815185568	1520	1516	1514	1341
1399575976834873600	1520	1516	1514	1340
1399575976855406782	1520	1516	1514	1339
1399575976875067095	1520	1516	1514	1350
1399575976894675267	1520	1516	1514	1349
1399575976915198545	1520	1516	1514	1348
1399575976934814413	1520	1516	1514	1346
1399575976955482535	1520	1516	1514	1345
1399575976975073620	1520	1516	1514	1344
1399575976994714345	1520	1516	1514	1343
1399575977015220432	1520	1516	1514	1342
1399575977034902397	1520	1516	1514	1350
1399575977055532437	1520	1516	1514	1349
1399575977075299791	1520	1516	1514	1348
1399575977095245861	1520	1516	1514	1346
1399575977115507880	1520	1516	1514	1345
1399575977134990641	1520	1516	1514	1344
1399575977155003428	1520	1516	1514	1343
1399575977175266166	1520	1516	1514	1342
1399575977195133039	1520	1516	1514	1341
1399575977215560547	1520	1516	1514	1340
1399575977235279038	1520	1516	1514	1339
1399575977255228635	1520	1516	1514	1350
1399575977275517018	1520	1516	1514	1349
1399575977295444075	1520	1516	1514	1348
1399575977315497129	1520	1516	1514	1346
1399575977335357041	1520	1516	1514	1345
1399575977355254056	1520	1516	1514	1344
1399575977375629509	1520	1516	1514	1343
1399575977395431256	1520	1516	1514	1342
1399575977415475429	1520	1516	1514	1341
1399575977434891743	1520	1516	1514	1340
1399575977455478844	1520	1516	1514	1339
1399575977475134457	1520	1516	1514	1338
1399575977494814600	1520	1516	1514	1350
1399575977515186823	1520	1516	1514	1349
1399575977535074487	1520	1516	1514	1348
1399575977554785361	1520	1516	1514	1346
1399575977575341618	1520	1516	1514	1345
1399575977594732900	1520	1516	1514	1344
1399575977615397385	1520	1516	1514	1343
1399575977635098864	1520	1516	1514	1342
1399575977654864272	1520	1516	1514	1341
1399575977675243096	1520	1516	1514	1340
1399575977694873448	1520	1516	1514	1350
1399575977715638759	1520	1516	1514	1349
1399575977735037429	1520	1516	1514	1348
1399575977754653892	1520	1516	1514	1346
1399575977775211747	1520	1516	1514	1345
1399575977794874653	1520	1516	1514	1344
1399575977815479061	1520	1516	1514	1343
1399575977835021650	1520	1516	1514	1342
1399575977855545681	1520	1516	1514	1341
1399575977874858924	1520	1516	1514	1340
1399575977894834650	1520	1516	1514	1339
1399575977915491311	1520	1516	1514	1338
1399575977935161555	1520	1516	1514	1337
1399575977954766440	1520	1516	1514	1335
1399575977974620104	1520	1516	1514	1334
1399575977995059828	1520	1516	1514	1333
1399575978014706468	1520	1516	1514	1332
1399575978035028657	1520	1516	1514	1331
1399575978055610328	1520	1516	1514	1330
1399575978075216789	1520	1516	1514	1329
1399575978094998687	1520	1516	1514	1328
1399575978114670763	1520	1516	1514	1327
1399575978135071949	1520	1516	1514	1326
1399575978154727092	1520	1516	1514	1325
1399575978175179837	1520	1516	1514	1323
1399575978194968414	1520	1516	1514	1322
1399575978215567424	1520	1516	1514	1321
1399575978235134767	1520	1516	1514	1320
1399575978254636902	1520	1516	1514	1319
1399575978275259244	1520	1516	1514	1318
1399575978295107729	1520	1516	1514	1317
1399575978305051159	1520	1516	1101	1105
1399575978405219449	1520	1516	1101	1105
1399575978505387361	1520	1516	1101	1105
1399575978605594170	1520	1516	1101	1105
1399575978705820940	1520	1516	1101	1105
1399575978806087816	1520	1516	1101	1105
1399575978906359208	1520	1516	1101	1105
1399575979006615435	1520	1516	1101	1105
1399575979106805373	1520	1516	1101	1105
1399575979207031376	1520	1516	1101	1105
1399575979307217191	1520	1516	1101	1105
1399575979407451481	1520	1516	1101	1105
1399575979507625822	1520	1516	1101	1105
1399575979607789800	1520	1516	1101	1105
1399575979707957559	1520	1516	1101	1105
1399575979808100800	1520	1516	1101	1105
1399575979908243279	1520	1516	1101	1105
1399575980008365213	1520	1516	1101	1105
1399575980108506252	1520	1516	1101	1105
1399575980208648664	1520	1516	1101	1105
1399575980308788477	1520	1516	1101	1105
1399575980408938882	1520	1516	1101	1105
1399575980509087921	1520	1516	1101	1105
1399575980609237867	1520	1516	1101	1105
1399575980709380065	1520	1516	1101	1105
1399575980809526077	1520	1516	1101	1105
1399575980909673622	1520	1516	1101	1105
1399575981009815494	1520	1516	1101	1105
1399575981109962104	1520	1516	1101	1105
1399575981210102942	1520	1516	1101	1105
1399575981310251522	1520	1516	1513	1105
1399575981320621258	1520	1516	1101	1105
1399575981420803009	1520	1516	1101	1105
1399575981520990901	1520	1516	1101	1105
1399575981621154479	1520	1516	1101	1105
1399575981721310688	1520	1516	1101	1105
1399575981821474193	1520	1516	1101	1105
1399575981921638276	1520	1516	1101	1105
1399575982021803165	1520	1516	1101	1105
1399575982121979945	1520	1516	1101	1105
1399575982222162871	1520	1516	1101	1105
1399575982322331784	1520	1516	1101	1105
1399575982422483147	1520	1516	1101	1105
1399575982522657577	1520	1516	1101	1105
1399575982622805394	1520	1516	1101	1105
1399575982722961369	1520	1516	1101	1105
1399575982823294244	1520	1516	1101	1105
1399575982923569958	1520	1516	1101	1105
1399575983023847895	1520	1516	1101	1105
1399575983124150731	1520	1516	1101	1105
1399575983224425972	1520	1516	1101	1105
1399575983324694129	1520	1516	1101	1105
1399575983424998169	1520	1516	1101	1105
1399575983525279747	1520	1516	1101	1105
1399575983625577334	1520	1516	1101	1105
1399575983725853223	1520	1516	1101	1105
1399575983826125530	1520	1516	1101	1105
1399575983926396935	1520	1516	1101	1105
1399575984026677387	1520	1516	1101	1105
1399575984126865059	1520	1516	1101	1105
1399575984227029834	1520	1516	1101	1105
1399575984327268290	1520	1516	1513	1105
1399575984331812491	1520	1516	1101	1105
1399575984432036645	1520	1516	1101	1105
1399575984532279163	1520	1516	1101	1105
1399575984632527489	1520	1516	1101	1105
1399575984732730420	1520	1516	1101	1105
1399575984832949444	1520	1516	1101	1105
1399575984933137600	1520	1516	1101	1105
1399575985033272787	1520	1516	1101	1105
1399575985133424769	1520	1516	1101	1105
1399575985233575769	1520	1516	1101	1105
1399575985333718648	1520	1516	1101	1105
1399575985433879509	1520	1516	1101	1105
1399575985534023370	1520	1516	1101	1105
1399575985584976585	1520	1516	1101	1105
1399575985685132184	1520	1516	1101	1105
1399575985785283400	1520	1516	1101	1105
1399575985885446026	1520	1516	1101	1105
1399575985985608177	1520	1516	1101	1105
1399575986085772667	1520	1516	1101	1105
1399575986185933899	1520	1516	1101	1105
1399575986286100504	1520	1516	1101	1105
1399575986386268013	1520	1516	1101	1105
1399575986486436986	1520	1516	1101	1105
1399575986586605945	1520	1516	1101	1105
1399575986686769129	1520	1516	1101	1105
1399575986786928930	1520	1516	1101	1105
1399575986887106964	1520	1516	1101	1105
1399575986987276920	1520	1516	1101	1105
1399575987087446851	1520	1516	1101	1105
1399575987187616543	1520	1516	1101	1105
1399575987287777231	1520	1516	1513	1105
