#Time	 Roll 	 Pitch 	 Yaw 	 Thrust
1399894821143046630	1530	1498	1510	1378
1399894821163029011	1531	1495	1510	1379
1399894821178123295	1529	1496	1510	1379
1399894821203065644	1530	1500	1510	1380
1399894821233061002	1534	1495	1510	1381
1399894821253171990	1531	1498	1510	1381
1399894821283157125	1528	1497	1510	1383
1399894821303115487	1531	1499	1510	1383
1399894821328034068	1531	1495	1510	1384
1399894821343072297	1526	1498	1510	1385
1399894821363051644	1533	1496	1510	1385
1399894821378064552	1535	1496	1510	1386
1399894821393098355	1530	1500	1510	1386
1399894821413039460	1536	1494	1510	1387
1399894821433123324	1527	1502	1510	1387
1399894821453170574	1530	1498	1510	1387
1399894821483141791	1534	1497	1510	1389
1399894821503119269	1532	1496	1510	1390
1399894821533156536	1530	1496	1510	1389
1399894821553147659	1528	1498	1510	1390
1399894821578161172	1526	1499	1510	1391
1399894821593077090	1529	1498	1510	1392
1399894821613137153	1527	1497	1510	1392
1399894821628095885	1527	1493	1510	1393
1399894821642948016	1530	1496	1510	1393
1399894821663011496	1531	1499	1510	1394
1399894821683002917	1534	1496	1510	1395
1399894821703016677	1531	1497	1510	1396
1399894821733026618	1531	1491	1510	1397
1399894821753020283	1532	1496	1510	1397
1399894821783057611	1530	1488	1510	1399
1399894821803079847	1530	1495	1510	1399
1399894821818089508	1531	1501	1510	1398
1399894821848136327	1531	1497	1510	1400
1399894821863018008	1530	1497	1510	1400
1399894821878066565	1529	1501	1510	1401
1399894821893045680	1528	1502	1510	1400
1399894821918123375	1524	1494	1510	1402
1399894821938139097	1527	1498	1510	1403
1399894821953050028	1530	1495	1510	1402
1399894821983159268	1526	1500	1510	1402
1399894821998035714	1528	1500	1510	1402
1399894822018001813	1524	1499	1510	1402
1399894822038002507	1527	1497	1510	1402
1399894822053041906	1519	1496	1511	1403
1399894822083096686	1537	1496	1511	1403
1399894822093065335	1531	1496	1511	1403
1399894822113036321	1524	1501	1511	1401
1399894822128126690	1523	1494	1511	1403
1399894822143004709	1523	1484	1512	1405
1399894822168022943	1525	1488	1512	1405
1399894822188200225	1530	1484	1512	1404
1399894822218075457	1525	1488	1513	1405
1399894822238076616	1530	1481	1513	1405
1399894822268050973	1525	1488	1514	1404
1399894822287957341	1510	1492	1514	1404
1399894822318106956	1518	1478	1515	1405
1399894822338014882	1524	1482	1515	1405
1399894822353055268	1519	1470	1516	1404
1399894822368114361	1528	1486	1516	1405
1399894822388082401	1514	1490	1516	1404
1399894822403054022	1506	1495	1516	1405
1399894822433235474	1515	1474	1517	1404
1399894822448141086	1524	1481	1517	1405
1399894822468111722	1516	1482	1518	1405
1399894822487982748	1523	1480	1518	1404
1399894822502969130	1514	1478	1518	1406
1399894822533105181	1508	1479	1518	1406
1399894822548043765	1520	1487	1518	1406
1399894822563015644	1502	1464	1518	1407
1399894822578007716	1508	1488	1518	1406
1399894822593090239	1509	1484	1519	1406
1399894822613069608	1511	1499	1519	1404
1399894822628050521	1511	1481	1519	1407
1399894822642833815	1501	1483	1519	1404
1399894822668163280	1503	1493	1519	1406
1399894822703131052	1509	1486	1518	1406
1399894822738013467	1509	1489	1518	1408
1399894822762958114	1510	1504	1518	1407
1399894822783157948	1503	1489	1518	1408
1399894822798128724	1504	1496	1517	1407
1399894822813162596	1499	1498	1517	1408
1399894822828188816	1516	1500	1517	1408
1399894822843031611	1506	1499	1516	1408
1399894822863189783	1510	1501	1516	1411
1399894822883103316	1518	1490	1516	1409
1399894822903118683	1511	1492	1516	1409
1399894822933176774	1514	1501	1516	1408
1399894822953255984	1515	1496	1515	1410
1399894822983237966	1499	1488	1515	1411
1399894823003190697	1510	1492	1515	1411
1399894823033216816	1513	1489	1515	1411
1399894823048097882	1494	1486	1515	1411
1399894823063132914	1505	1493	1515	1411
1399894823078103096	1514	1508	1515	1412
1399894823093117943	1509	1501	1515	1412
1399894823113093113	1511	1487	1515	1413
1399894823132791638	1519	1483	1515	1415
1399894823153053441	1510	1494	1515	1414
1399894823183161757	1511	1499	1515	1412
1399894823203134043	1506	1503	1515	1412
1399894823233145317	1514	1495	1515	1412
1399894823253067136	1516	1496	1515	1412
1399894823283104055	1516	1490	1515	1411
1399894823303010225	1522	1479	1516	1411
1399894823318092899	1511	1493	1516	1411
1399894823338184022	1526	1487	1516	1410
1399894823353058914	1516	1503	1516	1410
1399894823383125848	1515	1492	1516	1409
1399894823398095125	1521	1495	1516	1409
1399894823418129472	1520	1493	1516	1409
1399894823438096400	1515	1487	1516	1409
1399894823453145888	1518	1492	1517	1409
1399894823483078244	1515	1492	1517	1408
1399894823498071906	1517	1497	1517	1408
1399894823518171738	1520	1495	1517	1408
1399894823538101722	1535	1502	1517	1408
1399894823553149099	1525	1499	1517	1408
1399894823568149499	1524	1503	1517	1408
1399894823588078287	1534	1492	1517	1410
1399894823603093772	1529	1498	1517	1410
1399894823633268711	1534	1498	1517	1408
1399894823643186732	1544	1484	1516	1410
1399894823668192310	1540	1490	1517	1410
1399894823688060568	1538	1490	1517	1409
1399894823718149164	1544	1484	1516	1409
1399894823738077978	1534	1488	1516	1411
1399894823768112075	1543	1485	1516	1411
1399894823788029176	1533	1480	1516	1412
1399894823803017142	1537	1484	1516	1412
1399894823818109140	1541	1483	1516	1411
1399894823838220616	1535	1495	1516	1410
1399894823868213064	1545	1483	1515	1411
1399894823888082618	1526	1479	1515	1412
1399894823918015314	1537	1484	1515	1411
1399894823938065785	1535	1485	1515	1411
1399894823968015864	1543	1488	1514	1411
1399894823988134158	1537	1486	1514	1411
1399894824018117011	1541	1483	1514	1411
1399894824038105318	1545	1491	1514	1410
1399894824053158712	1546	1487	1514	1410
1399894824068079298	1541	1487	1514	1411
1399894824088099617	1541	1479	1513	1412
1399894824103096620	1540	1486	1513	1411
1399894824133079928	1541	1488	1513	1411
1399894824153177374	1534	1482	1513	1411
1399894824183186865	1532	1485	1513	1411
1399894824203108801	1534	1488	1512	1411
1399894824233159111	1531	1492	1512	1410
1399894824253105672	1535	1490	1512	1411
1399894824282877172	1524	1487	1512	1411
1399894824298264370	1525	1485	1512	1411
1399894824313268336	1530	1487	1512	1411
1399894824328119932	1534	1485	1512	1411
1399894824348136041	1527	1487	1512	1410
1399894824368112630	1526	1488	1511	1411
1399894824388134541	1538	1482	1511	1411
1399894824403037466	1527	1488	1511	1411
1399894824433181976	1520	1490	1511	1411
1399894824448149385	1529	1484	1511	1412
1399894824468110222	1518	1487	1511	1412
1399894824488081730	1530	1486	1511	1412
1399894824503126020	1525	1483	1511	1412
1399894824517874019	1522	1489	1511	1413
1399894824537926707	1526	1484	1511	1414
1399894824552958247	1520	1481	1511	1413
1399894824567987958	1519	1489	1511	1414
1399894824588053139	1532	1492	1510	1414
1399894824602953065	1525	1489	1510	1414
1399894824638160037	1514	1486	1510	1415
1399894824668191003	1514	1481	1510	1415
1399894824703076930	1514	1483	1510	1414
1399894824733249039	1512	1486	1510	1415
1399894824748122224	1512	1483	1510	1415
1399894824763035032	1516	1490	1510	1414
1399894824778114241	1515	1486	1510	1415
1399894824793099848	1515	1491	1510	1415
1399894824813118921	1516	1483	1510	1415
1399894824828045795	1514	1473	1510	1416
1399894824853007881	1517	1477	1510	1415
1399894824883046955	1519	1485	1511	1415
1399894824903069386	1518	1476	1511	1415
1399894824933088352	1513	1478	1511	1416
1399894824953129016	1520	1480	1511	1416
1399894824983165766	1525	1479	1511	1415
1399894824993179343	1524	1493	1511	1414
1399894825013080247	1518	1489	1511	1414
1399894825028116619	1516	1488	1511	1415
1399894825042733128	1524	1481	1511	1416
1399894825063127272	1524	1479	1511	1416
1399894825078003957	1523	1476	1511	1415
1399894825103019259	1522	1483	1511	1416
1399894825138080133	1519	1481	1511	1416
1399894825168078936	1517	1480	1511	1416
1399894825193140602	1522	1483	1511	1416
1399894825218108582	1522	1479	1511	1416
1399894825238173929	1523	1488	1510	1416
1399894825253009245	1522	1479	1510	1417
1399894825268034362	1523	1480	1510	1418
1399894825288146155	1518	1480	1510	1418
1399894825303115805	1517	1480	1510	1418
1399894825328075723	1525	1486	1510	1417
1399894825353180771	1521	1486	1510	1417
1399894825383164072	1525	1481	1510	1418
1399894825403105158	1525	1482	1510	1418
1399894825433225554	1528	1483	1510	1418
1399894825453105407	1530	1483	1510	1418
1399894825478088584	1523	1477	1510	1419
1399894825493090499	1524	1479	1509	1419
1399894825512991296	1520	1489	1509	1418
1399894825528037160	1517	1489	1509	1418
1399894825543054509	1516	1490	1509	1418
1399894825563126539	1516	1484	1509	1419
1399894825583213017	1522	1476	1509	1420
1399894825603115776	1523	1482	1509	1419
1399894825633761956	1520	1485	1509	1418
1399894825653065200	1519	1481	1509	1419
1399894825683061851	1526	1483	1509	1419
1399894825702827699	1521	1485	1509	1418
1399894825717975016	1520	1489	1509	1418
1399894825737869221	1521	1483	1509	1419
1399894825753117549	1526	1478	1509	1419
1399894825768050813	1524	1480	1509	1419
1399894825788095217	1532	1486	1509	1418
1399894825803072799	1529	1489	1509	1418
1399894825818118719	1528	1495	1510	1417
1399894825853178645	1524	1485	1510	1418
1399894825888050202	1527	1484	1510	1418
1399894825918188101	1526	1482	1510	1418
1399894825938059067	1525	1479	1510	1418
1399894825953010573	1525	1472	1510	1418
1399894825983285954	1524	1479	1510	1417
1399894825993069685	1524	1478	1510	1418
1399894826012992485	1527	1477	1510	1418
1399894826028202853	1524	1471	1510	1418
1399894826053086021	1522	1477	1510	1417
1399894826083054829	1522	1480	1510	1417
1399894826103117822	1518	1477	1510	1417
1399894826133193195	1517	1473	1510	1417
1399894826153144851	1521	1472	1510	1418
1399894826183124090	1524	1477	1510	1417
1399894826203086468	1519	1477	1509	1417
1399894826223074894	1524	1486	1509	1417
1399894826238101604	1526	1484	1509	1417
1399894826253178394	1524	1486	1509	1417
1399894826268068709	1524	1486	1509	1417
1399894826287982672	1522	1481	1509	1417
1399894826313142120	1522	1482	1509	1416
1399894826332835820	1516	1477	1509	1416
1399894826352992609	1517	1478	1509	1416
1399894826383017632	1513	1475	1509	1416
1399894826403046567	1514	1478	1509	1416
1399894826433032895	1518	1487	1509	1414
1399894826448187035	1517	1483	1509	1415
1399894826463083820	1519	1486	1509	1414
1399894826478055191	1525	1470	1509	1414
1399894826493016920	1515	1475	1509	1414
1399894826513114922	1516	1474	1509	1414
1399894826533183467	1522	1476	1509	1414
1399894826543136210	1523	1476	1509	1413
1399894826568200538	1521	1478	1509	1412
1399894826588094497	1516	1476	1509	1413
1399894826618093845	1520	1475	1509	1413
1399894826638256028	1526	1480	1509	1413
1399894826668157096	1525	1478	1509	1413
1399894826687763260	1524	1476	1508	1415
1399894826702984335	1527	1476	1508	1414
1399894826718030741	1527	1483	1508	1413
1399894826738088037	1525	1481	1508	1413
1399894826753087143	1526	1483	1508	1414
1399894826768246834	1528	1480	1508	1415
1399894826788036833	1520	1476	1508	1416
1399894826803121588	1519	1477	1507	1416
1399894826833122590	1526	1478	1507	1415
1399894826853199032	1528	1474	1507	1416
1399894826873059138	1530	1484	1507	1416
1399894826888103965	1530	1483	1507	1417
1399894826918014839	1529	1474	1507	1418
1399894826938202722	1530	1469	1507	1420
1399894826952992497	1532	1465	1507	1420
1399894826968059052	1534	1468	1507	1420
1399894826988117947	1531	1476	1507	1420
1399894827003144030	1531	1477	1507	1420
1399894827027986301	1531	1468	1507	1422
1399894827053251195	1535	1468	1508	1423
1399894827088194635	1535	1478	1508	1423
1399894827118087441	1535	1476	1508	1424
1399894827143066088	1537	1479	1508	1424
1399894827168233016	1539	1481	1509	1424
1399894827188198565	1541	1467	1509	1425
1399894827203060069	1533	1478	1509	1425
1399894827218065585	1537	1479	1509	1425
1399894827238167181	1536	1482	1509	1425
1399894827253140330	1538	1485	1509	1425
1399894827283077170	1540	1482	1510	1425
1399894827303083104	1538	1480	1510	1426
1399894827333172367	1533	1489	1510	1426
1399894827353120839	1538	1488	1511	1426
1399894827383036019	1545	1476	1511	1427
1399894827403053274	1548	1482	1511	1428
1399894827433082974	1547	1489	1512	1426
1399894827443022230	1545	1480	1512	1427
1399894827462980427	1544	1481	1512	1429
1399894827478115306	1543	1475	1512	1429
1399894827493089711	1538	1479	1512	1429
1399894827518135210	1541	1484	1512	1430
1399894827538084314	1531	1487	1512	1430
1399894827568069319	1533	1486	1512	1430
1399894827588039791	1541	1486	1513	1431
1399894827618125461	1537	1490	1512	1431
1399894827638171733	1525	1489	1512	1430
1399894827668160751	1527	1482	1512	1432
1399894827688098722	1528	1481	1512	1431
1399894827703024246	1522	1483	1512	1432
1399894827718190910	1524	1488	1512	1432
1399894827738099137	1527	1493	1512	1430
1399894827768290959	1527	1487	1512	1432
1399894827787870341	1516	1484	1512	1432
1399894827818258140	1528	1492	1512	1431
1399894827837962872	1527	1494	1512	1430
1399894827868058719	1528	1482	1512	1431
1399894827887793087	1529	1480	1512	1431
1399894827918283608	1528	1485	1512	1430
1399894827938131679	1529	1493	1512	1428
1399894827953277319	1526	1485	1512	1429
1399894827968123275	1528	1484	1512	1429
1399894827988146534	1543	1486	1512	1427
1399894828003032431	1542	1488	1512	1427
1399894828033197926	1535	1481	1512	1427
1399894828048140523	1537	1486	1512	1427
1399894828068084848	1538	1482	1512	1427
1399894828088119523	1538	1482	1512	1426
1399894828102989367	1537	1476	1512	1427
1399894828133183955	1542	1481	1511	1426
1399894828148159552	1542	1474	1511	1427
1399894828168144163	1542	1476	1511	1426
1399894828188111856	1541	1471	1511	1426
1399894828203108779	1545	1466	1511	1426
1399894828218084870	1539	1465	1511	1426
1399894828238145842	1543	1472	1511	1426
1399894828253106207	1533	1476	1511	1425
1399894828283157232	1541	1475	1510	1424
1399894828303095453	1530	1474	1510	1425
1399894828333090393	1539	1456	1510	1425
1399894828353110173	1540	1461	1510	1425
1399894828383223684	1548	1465	1510	1423
1399894828398079162	1542	1467	1510	1423
1399894828413152768	1539	1458	1510	1424
1399894828428083301	1545	1447	1510	1424
1399894828443444994	1543	1460	1510	1423
1399894828463047205	1546	1461	1510	1421
1399894828488088507	1551	1456	1510	1422
1399894828503037982	1552	1453	1510	1421
1399894828537970170	1551	1455	1510	1422
1399894828568182691	1546	1454	1510	1421
1399894828593049536	1553	1458	1510	1420
1399894828623150812	1548	1461	1510	1420
1399894828638185248	1544	1462	1510	1420
1399894828653139748	1550	1458	1510	1419
1399894828668028966	1543	1460	1510	1420
1399894828688154604	1545	1457	1510	1419
1399894828703075207	1542	1468	1510	1419
1399894828718022129	1545	1470	1510	1418
1399894828738108899	1536	1458	1510	1419
1399894828768065132	1539	1465	1510	1418
1399894828788117660	1537	1473	1511	1419
1399894828818197995	1533	1471	1511	1419
1399894828838057780	1541	1470	1511	1420
1399894828867984165	1541	1476	1511	1419
1399894828888276975	1554	1463	1511	1419
1399894828903082183	1556	1468	1511	1419
1399894828918067138	1551	1466	1511	1420
1399894828938074087	1548	1461	1511	1419
1399894828953191796	1556	1470	1511	1418
1399894828968111795	1550	1479	1511	1418
1399894828988032040	1544	1464	1511	1418
1399894829017991202	1542	1458	1510	1419
1399894829053099811	1542	1464	1510	1418
1399894829088087138	1544	1460	1510	1418
1399894829103146797	1537	1456	1510	1419
1399894829133335892	1542	1461	1510	1419
1399894829148031346	1532	1458	1510	1418
1399894829163147728	1538	1461	1509	1418
1399894829178286745	1539	1467	1509	1417
1399894829193047940	1534	1471	1509	1416
1399894829218159372	1532	1465	1509	1417
1399894829228175148	1536	1461	1509	1416
1399894829253167763	1535	1460	1509	1418
1399894829283135970	1539	1472	1509	1417
1399894829303169238	1541	1472	1509	1418
1399894829333206034	1533	1461	1509	1418
1399894829353078177	1535	1470	1509	1418
1399894829383034821	1532	1466	1509	1417
1399894829393038876	1536	1463	1509	1418
1399894829413023614	1538	1468	1509	1418
1399894829428126620	1531	1467	1509	1419
1399894829442997467	1534	1465	1509	1418
1399894829468023876	1529	1468	1509	1419
1399894829488049183	1526	1467	1509	1420
1399894829518093562	1532	1475	1509	1420
1399894829538172067	1530	1477	1509	1420
1399894829568090431	1533	1478	1509	1421
1399894829587967982	1537	1477	1509	1421
1399894829618113261	1537	1469	1509	1423
1399894829638021639	1540	1479	1509	1422
1399894829653146118	1541	1474	1509	1422
1399894829668072794	1543	1477	1509	1422
1399894829687997376	1540	1472	1509	1422
1399894829702971942	1539	1474	1509	1423
1399894829733047736	1542	1463	1509	1423
1399894829748064028	1543	1467	1509	1423
1399894829768096826	1541	1460	1509	1424
1399894829787998281	1540	1461	1509	1425
1399894829803088215	1538	1454	1509	1426
1399894829833021386	1543	1472	1509	1425
1399894829848055349	1539	1464	1509	1426
1399894829868107113	1544	1467	1508	1425
1399894829888167055	1543	1467	1508	1425
1399894829903108384	1544	1472	1508	1425
1399894829918050245	1548	1476	1508	1424
1399894829938152673	1551	1471	1508	1425
1399894829953111386	1543	1468	1508	1426
1399894829983164232	1551	1479	1508	1424
1399894830003061411	1549	1477	1508	1424
1399894830033192554	1555	1474	1508	1423
1399894830053134185	1555	1473	1507	1423
1399894830083148931	1553	1468	1507	1424
1399894830103168745	1551	1473	1507	1423
1399894830123086241	1552	1468	1507	1423
1399894830138085385	1545	1464	1507	1423
1399894830153006211	1549	1466	1506	1422
1399894830168061820	1555	1466	1506	1422
1399894830188080712	1555	1461	1506	1423
1399894830203024531	1555	1464	1506	1424
1399894830233096106	1553	1471	1506	1423
1399894830253107277	1556	1468	1506	1423
1399894830283051042	1551	1475	1505	1424
1399894830303060213	1553	1472	1505	1424
1399894830333028473	1552	1476	1505	1424
1399894830343260977	1551	1463	1504	1425
1399894830363111006	1550	1466	1504	1425
1399894830377998140	1546	1466	1504	1424
1399894830392976322	1543	1470	1504	1423
1399894830413019613	1544	1471	1504	1422
1399894830428156173	1547	1467	1504	1422
1399894830453070404	1546	1464	1504	1422
1399894830488131923	1542	1463	1503	1422
1399894830518191316	1541	1464	1503	1421
1399894830543123274	1546	1467	1503	1420
1399894830568139173	1548	1468	1503	1420
1399894830588080005	1545	1467	1503	1421
1399894830603076196	1545	1466	1503	1420
1399894830618073142	1546	1460	1504	1419
1399894830638171902	1546	1465	1504	1419
1399894830653069386	1544	1466	1504	1419
1399894830668042868	1539	1464	1504	1418
1399894830688178402	1537	1475	1504	1418
1399894830718217400	1536	1466	1505	1418
1399894830738035315	1534	1465	1505	1418
1399894830768115470	1538	1466	1505	1418
1399894830788068450	1533	1470	1506	1417
1399894830818068352	1539	1468	1506	1418
1399894830838118304	1534	1465	1507	1418
1399894830868154885	1538	1467	1507	1418
1399894830878117859	1537	1466	1507	1419
1399894830893189932	1540	1457	1508	1420
1399894830913090897	1544	1454	1508	1420
1399894830933116978	1533	1456	1508	1420
1399894830948041456	1531	1463	1509	1420
1399894830968192569	1537	1459	1509	1420
1399894830987972662	1543	1456	1509	1421
1399894831003001591	1542	1457	1510	1421
1399894831033059428	1539	1459	1510	1421
1399894831048032924	1543	1460	1510	1421
1399894831068093300	1542	1457	1510	1422
1399894831088033885	1538	1467	1511	1420
1399894831103058264	1537	1467	1511	1421
1399894831118158466	1539	1458	1511	1422
1399894831138142116	1534	1454	1511	1422
1399894831153069901	1537	1462	1511	1423
1399894831173158174	1543	1464	1511	1422
1399894831188017364	1540	1463	1511	1423
1399894831218080740	1540	1467	1511	1422
1399894831233075986	1531	1472	1511	1423
1399894831253022865	1533	1472	1511	1423
1399894831283087570	1537	1454	1511	1424
1399894831303086798	1538	1459	1511	1424
1399894831328172182	1537	1465	1511	1423
1399894831343076844	1536	1461	1511	1424
1399894831363188718	1533	1459	1511	1424
1399894831378190952	1532	1458	1510	1424
1399894831393119480	1534	1461	1510	1424
1399894831413164521	1534	1458	1510	1425
1399894831433087368	1534	1450	1510	1426
1399894831453024906	1535	1455	1510	1425
1399894831483124906	1534	1453	1510	1426
1399894831503088776	1539	1459	1510	1426
1399894831533173063	1539	1462	1510	1427
1399894831553058219	1541	1462	1509	1427
1399894831578089011	1542	1468	1509	1427
1399894831593054609	1541	1467	1509	1428
1399894831613245365	1539	1458	1509	1428
1399894831628147659	1541	1463	1509	1428
1399894831653135347	1540	1466	1510	1428
1399894831667969254	1541	1467	1510	1428
1399894831703114375	1537	1468	1510	1429
1399894831738158543	1532	1467	1510	1429
1399894831768086376	1531	1472	1511	1428
1399894831798077324	1528	1466	1511	1429
1399894831818103252	1525	1467	1511	1429
1399894831838084844	1541	1462	1511	1429
1399894831853063929	1541	1466	1511	1429
1399894831867967915	1550	1472	1511	1429
1399894831888011586	1547	1465	1511	1430
1399894831918196070	1542	1468	1511	1429
1399894831938139257	1546	1471	1511	1430
1399894831968087606	1543	1469	1510	1429
1399894831988083275	1545	1468	1510	1429
1399894832017874455	1543	1471	1509	1429
1399894832038079899	1545	1473	1509	1428
1399894832063022168	1540	1473	1509	1429
1399894832078091959	1541	1467	1508	1428
1399894832093020373	1537	1467	1508	1428
1399894832113065942	1534	1470	1508	1428
1399894832133029388	1537	1474	1507	1427
1399894832143001181	1537	1477	1507	1427
1399894832168172081	1533	1471	1507	1428
1399894832188116960	1534	1470	1506	1428
1399894832218109117	1538	1464	1506	1428
1399894832238053440	1541	1457	1506	1428
1399894832268105777	1540	1465	1506	1427
1399894832288057000	1538	1473	1506	1427
1399894832303080642	1536	1467	1506	1428
1399894832318148797	1536	1467	1506	1428
1399894832338207647	1530	1470	1506	1428
1399894832353190079	1537	1470	1506	1428
1399894832368087860	1537	1465	1507	1428
1399894832388009702	1537	1460	1507	1429
1399894832418087337	1534	1464	1507	1428
1399894832438112835	1539	1462	1507	1428
1399894832468169299	1538	1460	1508	1429
1399894832488065112	1539	1456	1508	1429
1399894832518095489	1544	1454	1508	1429
1399894832533161055	1539	1455	1508	1429
1399894832543065174	1539	1460	1508	1429
1399894832563101589	1544	1467	1508	1428
1399894832578115677	1546	1463	1508	1429
1399894832592981529	1546	1454	1508	1430
1399894832612971899	1543	1454	1508	1429
1399894832628035510	1546	1461	1508	1430
1399894832653129757	1546	1460	1508	1430
1399894832683080263	1546	1456	1508	1430
1399894832703188288	1545	1458	1508	1430
1399894832733069217	1540	1459	1507	1430
1399894832753062427	1542	1457	1507	1429
1399894832778214756	1546	1454	1507	1429
1399894832793135967	1547	1452	1507	1429
1399894832823115757	1541	1458	1506	1428
1399894832837928403	1544	1455	1506	1427
1399894832852941112	1542	1453	1506	1428
1399894832868003460	1536	1453	1506	1428
1399894832888114569	1547	1458	1506	1427
1399894832902831951	1550	1461	1506	1426
1399894832933137509	1547	1447	1506	1427
1399894832948085487	1551	1456	1506	1426
1399894832968211933	1545	1457	1505	1427
1399894832987966890	1544	1452	1505	1427
1399894833003059583	1548	1457	1505	1426
1399894833033201815	1547	1452	1505	1427
1399894833048051581	1550	1456	1505	1426
1399894833063122146	1551	1460	1505	1426
1399894833077950375	1554	1468	1505	1425
1399894833093123084	1553	1467	1505	1425
1399894833113175291	1551	1467	1505	1425
1399894833138131987	1551	1469	1505	1425
1399894833168120931	1548	1472	1506	1425
1399894833203083552	1548	1466	1506	1425
1399894833228203957	1547	1467	1506	1425
1399894833247957518	1547	1464	1506	1425
1399894833268136199	1551	1466	1506	1425
1399894833288040294	1553	1465	1507	1426
1399894833303186485	1551	1471	1507	1426
1399894833318025729	1547	1475	1507	1425
1399894833338147535	1548	1478	1507	1425
1399894833353150348	1550	1475	1507	1425
1399894833373150404	1546	1470	1507	1426
1399894833387965284	1551	1465	1507	1427
1399894833418072716	1546	1473	1507	1426
1399894833438148688	1542	1468	1507	1427
1399894833468058656	1544	1466	1508	1428
1399894833488122548	1545	1476	1508	1428
1399894833513054125	1541	1484	1508	1428
1399894833528148288	1541	1486	1508	1429
1399894833543005413	1546	1480	1508	1429
1399894833563164059	1540	1477	1508	1430
1399894833578164466	1546	1481	1508	1429
1399894833593126690	1547	1487	1508	1428
1399894833618123790	1539	1488	1507	1429
1399894833653048147	1545	1487	1507	1428
1399894833688114947	1543	1486	1506	1427
1399894833718106103	1540	1482	1506	1427
1399894833748076522	1542	1491	1506	1426
1399894833768118262	1540	1488	1506	1426
1399894833788166374	1537	1480	1506	1425
1399894833803090411	1536	1486	1506	1424
1399894833818046664	1539	1485	1506	1425
1399894833838127608	1529	1484	1505	1425
1399894833868205912	1533	1475	1506	1425
1399894833888160945	1537	1468	1506	1425
1399894833918214399	1537	1467	1506	1425
1399894833938149351	1531	1488	1507	1424
1399894833968080434	1533	1481	1508	1425
1399894833988069896	1542	1473	1508	1427
1399894834018106671	1537	1479	1509	1426
1399894834038065103	1541	1487	1509	1426
1399894834053151515	1542	1490	1510	1426
1399894834068009653	1537	1478	1510	1427
1399894834088058363	1540	1471	1510	1428
1399894834118003370	1540	1479	1511	1427
1399894834138063546	1538	1477	1511	1428
1399894834168043607	1539	1478	1512	1428
1399894834188022058	1537	1483	1512	1428
1399894834218052930	1539	1481	1512	1428
1399894834237970235	1541	1477	1512	1428
1399894834268114367	1539	1478	1512	1428
1399894834288071146	1540	1481	1512	1428
1399894834303167661	1538	1476	1512	1429
1399894834318107541	1537	1472	1512	1429
1399894834338105385	1544	1474	1512	1428
1399894834353067957	1541	1475	1512	1428
1399894834383238594	1542	1468	1512	1429
1399894834398085775	1543	1468	1512	1428
1399894834418156990	1544	1471	1511	1428
1399894834438162782	1543	1467	1511	1429
1399894834453080171	1543	1472	1511	1428
1399894834483253153	1542	1468	1510	1428
1399894834498120113	1545	1470	1510	1428
1399894834513097128	1546	1477	1510	1427
1399894834528139887	1548	1476	1509	1427
1399894834543138288	1549	1474	1509	1426
1399894834563134331	1552	1478	1509	1426
1399894834578107406	1550	1473	1508	1426
1399894834603129155	1554	1472	1508	1426
1399894834633339491	1549	1474	1507	1426
1399894834653216416	1554	1471	1507	1425
1399894834683180718	1560	1464	1507	1426
1399894834703149414	1555	1468	1506	1426
1399894834733066174	1554	1474	1506	1425
1399894834743111984	1560	1474	1506	1424
1399894834763055092	1558	1466	1506	1426
1399894834778012657	1550	1463	1506	1426
1399894834793101636	1553	1463	1506	1426
1399894834818096089	1555	1465	1506	1425
1399894834838013855	1549	1468	1506	1425
1399894834868119023	1552	1463	1506	1425
1399894834903182896	1561	1460	1506	1426
1399894834937786450	1552	1459	1506	1427
1399894834953120123	1550	1460	1506	1426
1399894834983064552	1565	1465	1506	1427
1399894834998086187	1557	1458	1506	1428
1399894835012963639	1559	1453	1506	1428
1399894835027995735	1557	1454	1507	1429
1399894835042925073	1561	1449	1507	1430
1399894835068050882	1554	1454	1507	1430
1399894835087760702	1564	1460	1508	1430
1399894835118061040	1558	1458	1508	1431
1399894835138073528	1559	1463	1508	1431
1399894835168016524	1554	1461	1509	1433
1399894835188095192	1560	1449	1509	1434
1399894835218052641	1563	1448	1510	1434
1399894835238050138	1559	1449	1510	1435
1399894835253033276	1557	1452	1510	1434
1399894835267984525	1559	1451	1510	1435
1399894835288148042	1552	1457	1511	1436
1399894835303101824	1550	1460	1511	1436
1399894835323038583	1550	1456	1511	1436
1399894835338101248	1554	1457	1512	1436
1399894835368082635	1551	1454	1512	1437
1399894835388129734	1550	1456	1512	1437
1399894835418115274	1550	1462	1513	1436
1399894835438113365	1546	1470	1513	1436
1399894835468089654	1541	1460	1514	1438
1399894835488162111	1545	1462	1514	1437
1399894835503156775	1544	1458	1514	1438
1399894835518083599	1544	1460	1514	1438
1399894835538088001	1546	1466	1515	1438
1399894835568093790	1546	1471	1515	1437
1399894835588120150	1549	1466	1515	1437
1399894835618130946	1548	1472	1515	1437
1399894835638293391	1551	1470	1515	1437
1399894835668199388	1554	1465	1515	1438
1399894835688118590	1543	1476	1515	1437
1399894835718229364	1545	1475	1514	1437
1399894835738030525	1545	1473	1514	1437
1399894835753037855	1545	1472	1513	1437
1399894835768069105	1548	1479	1513	1435
1399894835788013966	1549	1480	1513	1435
1399894835803069003	1551	1467	1512	1436
1399894835833111068	1539	1488	1512	1434
1399894835848142800	1542	1485	1511	1435
1399894835868123475	1541	1479	1511	1434
1399894835888093586	1542	1481	1510	1434
1399894835903066321	1544	1481	1510	1433
1399894835933035897	1549	1474	1509	1431
1399894835947917044	1547	1474	1509	1431
1399894835968061892	1551	1476	1508	1431
1399894835988041081	1558	1472	1508	1430
1399894836003009600	1556	1474	1507	1429
1399894836018007988	1554	1473	1507	1429
1399894836038083295	1549	1474	1507	1430
1399894836068222020	1550	1479	1506	1429
1399894836103119121	1549	1478	1505	1429
1399894836138118418	1558	1467	1504	1429
1399894836162992977	1559	1474	1504	1428
1399894836187993443	1562	1467	1504	1429
1399894836203173358	1562	1476	1503	1428
1399894836218174871	1564	1470	1503	1428
1399894836238035804	1562	1467	1503	1429
1399894836253215639	1564	1461	1503	1430
1399894836273048114	1565	1463	1503	1428
1399894836288046821	1565	1463	1503	1429
1399894836318075555	1569	1469	1503	1428
1399894836333199797	1572	1460	1503	1429
1399894836353080322	1572	1456	1503	1428
1399894836383092679	1570	1452	1503	1428
1399894836403096520	1576	1457	1504	1428
1399894836433123253	1573	1462	1504	1426
1399894836443129213	1566	1459	1504	1427
1399894836463138089	1561	1454	1504	1429
1399894836478114846	1572	1447	1505	1427
1399894836493026268	1572	1447	1505	1428
1399894836513071440	1571	1459	1505	1427
1399894836528112609	1574	1454	1505	1426
1399894836553130396	1577	1459	1506	1427
1399894836583029854	1576	1451	1507	1428
1399894836603170078	1573	1463	1507	1427
1399894836633871001	1574	1451	1508	1427
1399894836653090345	1570	1456	1508	1428
1399894836683200544	1567	1454	1509	1428
1399894836692973144	1571	1460	1510	1428
1399894836712995758	1568	1459	1510	1428
1399894836727992514	1570	1456	1510	1430
1399894836743094967	1569	1453	1511	1430
1399894836768157284	1572	1456	1511	1429
1399894836788094637	1569	1456	1512	1430
1399894836818096781	1569	1464	1512	1430
1399894836853069391	1567	1464	1513	1431
1399894836888076283	1565	1464	1513	1431
1399894836903119861	1559	1463	1513	1432
1399894836933029027	1565	1476	1514	1431
1399894836947962212	1558	1472	1514	1432
1399894836963017116	1559	1473	1514	1432
1399894836978134532	1565	1475	1514	1432
1399894836992952796	1567	1472	1515	1432
1399894837018076395	1566	1474	1515	1432
1399894837038097335	1568	1485	1515	1433
1399894837068040187	1568	1480	1515	1433
1399894837088088578	1566	1479	1516	1434
1399894837118033732	1564	1483	1516	1433
1399894837138038562	1556	1479	1516	1433
1399894837168081395	1557	1483	1516	1433
1399894837188058212	1556	1482	1516	1432
1399894837203119898	1564	1490	1516	1432
1399894837218110801	1566	1486	1517	1432
1399894837238156861	1557	1484	1517	1432
1399894837253288439	1553	1486	1516	1433
1399894837283189751	1553	1480	1517	1433
1399894837303107437	1552	1484	1517	1433
1399894837333177388	1550	1502	1517	1432
1399894837353225222	1549	1492	1517	1432
1399894837383150041	1551	1475	1517	1434
1399894837403169341	1543	1485	1517	1433
1399894837428213804	1558	1484	1516	1431
1399894837443046999	1546	1489	1516	1432
1399894837462941001	1547	1482	1516	1432
1399894837477908222	1544	1487	1516	1432
1399894837503006632	1544	1485	1516	1432
1399894837517785471	1546	1484	1516	1431
1399894837553225597	1546	1486	1515	1431
1399894837588232044	1545	1487	1515	1431
1399894837613050982	1543	1492	1514	1430
1399894837638165748	1537	1484	1514	1431
1399894837653064331	1536	1487	1513	1430
1399894837683165196	1543	1471	1513	1431
1399894837693139936	1540	1470	1513	1430
1399894837713059752	1536	1476	1512	1430
1399894837728112128	1543	1465	1512	1430
1399894837753084618	1536	1464	1512	1430
1399894837773184821	1540	1463	1511	1429
1399894837788232129	1535	1460	1511	1429
1399894837818136056	1536	1449	1510	1429
1399894837838063427	1528	1471	1510	1428
1399894837868155829	1524	1467	1510	1428
1399894837888004087	1528	1463	1509	1428
1399894837903137600	1533	1461	1509	1428
1399894837918189003	1523	1463	1509	1427
1399894837938161847	1534	1468	1509	1427
1399894837953110981	1534	1472	1509	1425
1399894837968068628	1532	1477	1509	1426
1399894837993097522	1542	1467	1508	1426
1399894838018067951	1541	1473	1508	1427
1399894838053201196	1531	1462	1508	1426
1399894838078158078	1527	1460	1508	1427
1399894838103134594	1533	1454	1508	1425
1399894838133101538	1542	1449	1508	1426
1399894838148115659	1544	1460	1508	1426
1399894838163083212	1540	1466	1508	1425
1399894838178034079	1541	1461	1508	1426
1399894838193140474	1544	1453	1508	1427
1399894838213117611	1544	1454	1509	1428
1399894838233148107	1540	1450	1509	1427
1399894838243148133	1544	1455	1509	1427
1399894838268048350	1548	1451	1509	1428
1399894838288010362	1540	1455	1509	1428
1399894838318083337	1549	1457	1510	1428
1399894838337938666	1542	1467	1510	1428
1399894838368137762	1547	1459	1510	1429
1399894838388043815	1551	1455	1510	1429
1399894838403124932	1551	1463	1511	1430
1399894838418027654	1555	1460	1511	1430
1399894838438107514	1554	1451	1511	1430
1399894838453010745	1557	1448	1511	1432
1399894838468015271	1556	1448	1512	1432
1399894838488027061	1558	1451	1512	1432
1399894838518011902	1557	1455	1512	1432
1399894838537987155	1557	1467	1512	1430
1399894838568106492	1559	1456	1513	1432
1399894838588038651	1554	1455	1513	1432
1399894838618039956	1563	1465	1513	1431
1399894838638098027	1559	1458	1514	1432
1399894838653047719	1561	1455	1514	1432
1399894838668066023	1561	1459	1514	1431
1399894838688011375	1564	1467	1514	1430
1399894838702913917	1561	1472	1514	1430
1399894838728008511	1554	1468	1514	1430
1399894838753137142	1559	1466	1514	1430
1399894838783150224	1569	1477	1514	1429
1399894838803198089	1569	1473	1514	1429
1399894838833128139	1574	1481	1514	1428
1399894838853214003	1577	1477	1515	1428
1399894838883110247	1567	1474	1515	1429
1399894838892756730	1569	1476	1515	1428
1399894838912885656	1565	1483	1515	1427
1399894838928202375	1573	1478	1515	1428
1399894838943169764	1570	1482	1515	1427
1399894838968292833	1571	1480	1515	1428
1399894838988037328	1567	1470	1515	1428
1399894839018079379	1565	1480	1515	1428
1399894839033164064	1564	1486	1515	1428
1399894839053122917	1570	1481	1515	1429
1399894839083299093	1568	1484	1514	1428
1399894839103223507	1564	1485	1514	1429
1399894839128127712	1566	1484	1513	1430
1399894839143059273	1566	1487	1513	1431
1399894839163071236	1572	1496	1513	1430
1399894839178151805	1571	1492	1512	1431
1399894839203160655	1570	1487	1512	1431
1399894839218005489	1574	1492	1511	1432
1399894839238161956	1568	1482	1511	1432
1399894839268149086	1566	1490	1510	1432
1399894839288140627	1572	1487	1510	1432
1399894839318173925	1566	1480	1509	1433
1399894839338039449	1558	1475	1508	1434
1399894839368070909	1558	1472	1508	1433
1399894839388004067	1556	1486	1507	1434
1399894839403062235	1560	1472	1507	1434
1399894839418088210	1559	1468	1507	1435
1399894839438216123	1556	1475	1506	1434
1399894839463174187	1552	1472	1506	1435
1399894839483089825	1553	1473	1505	1435
1399894839503144185	1551	1475	1505	1434
1399894839533083279	1554	1482	1504	1433
1399894839553085196	1554	1476	1503	1433
1399894839582901279	1551	1463	1503	1434
1399894839602796240	1552	1469	1502	1433
1399894839628109993	1550	1478	1502	1431
1399894839643220196	1551	1475	1501	1432
1399894839663186012	1554	1469	1501	1432
1399894839677815958	1549	1461	1501	1433
1399894839703060993	1542	1463	1500	1432
1399894839723155423	1540	1462	1500	1431
1399894839738057216	1561	1454	1500	1432
1399894839768165231	1559	1455	1500	1431
1399894839787989745	1559	1454	1500	1431
1399894839818091836	1544	1456	1500	1431
1399894839838093389	1546	1461	1500	1431
1399894839853080306	1547	1456	1501	1431
1399894839868104195	1545	1456	1501	1431
1399894839888210677	1544	1454	1501	1432
1399894839903080274	1549	1455	1501	1432
1399894839918016074	1551	1448	1502	1433
1399894839942966337	1557	1460	1503	1431
1399894839968081618	1570	1457	1503	1432
1399894840003163950	1574	1445	1505	1433
1399894840038155567	1588	1441	1506	1434
1399894840063103284	1597	1448	1507	1433
1399894840083233439	1599	1451	1508	1435
1399894840098162761	1605	1444	1508	1435
1399894840113062978	1608	1443	1509	1435
1399894840128160181	1608	1449	1509	1434
1399894840143067151	1600	1447	1510	1434
1399894840163142219	1595	1451	1511	1435
1399894840183133165	1579	1448	1511	1436
1399894840203072620	1575	1452	1512	1435
1399894840233105434	1559	1453	1513	1435
1399894840253034027	1539	1452	1514	1435
1399894840283136138	1493	1451	1515	1436
1399894840303186042	1475	1459	1516	1435
1399894840333154435	1484	1453	1516	1435
1399894840348084472	1465	1453	1517	1435
1399894840363066391	1462	1463	1517	1435
1399894840378068522	1473	1456	1518	1435
1399894840393182848	1470	1449	1518	1437
1399894840413066483	1472	1453	1519	1435
1399894840433076399	1477	1450	1519	1435
1399894840442921150	1481	1462	1519	1435
1399894840468091709	1486	1457	1520	1435
1399894840488107908	1512	1453	1520	1435
1399894840517996077	1537	1460	1521	1435
1399894840538071951	1530	1453	1521	1436
1399894840568043753	1545	1462	1521	1435
1399894840598036038	1582	1459	1521	1435
1399894840613035353	1589	1460	1521	1436
1399894840628113192	1590	1452	1521	1435
1399894840643037423	1577	1461	1520	1436
1399894840668135017	1581	1470	1520	1435
1399894840688022111	1568	1472	1520	1434
1399894840718063698	1560	1470	1519	1435
1399894840737985289	1526	1463	1519	1435
1399894840768128463	1522	1470	1518	1435
1399894840788160735	1494	1460	1517	1435
1399894840818158452	1474	1470	1517	1434
1399894840848128971	1503	1470	1516	1434
1399894840863086277	1494	1468	1515	1436
1399894840878221391	1491	1475	1515	1434
1399894840893024396	1493	1484	1514	1434
1399894840918135824	1489	1477	1514	1434
1399894840937968708	1498	1482	1513	1434
1399894840953108885	1510	1483	1513	1433
1399894840983154401	1536	1476	1512	1436
1399894840998090058	1547	1483	1512	1433
1399894841018175605	1552	1479	1511	1434
1399894841038184341	1555	1479	1511	1435
1399894841053066366	1553	1481	1511	1435
1399894841083128506	1578	1476	1511	1435
1399894841093119776	1581	1469	1511	1437
1399894841113026891	1584	1468	1511	1437
1399894841128038968	1561	1467	1511	1436
1399894841168104382	1565	1472	1510	1437
1399894841188128937	1550	1464	1510	1437
1399894841203009162	1553	1469	1510	1436
1399894841233102806	1527	1459	1510	1438
1399894841248102593	1534	1457	1510	1437
1399894841268056650	1518	1462	1510	1438
1399894841288178911	1534	1474	1510	1438
1399894841303062914	1529	1476	1510	1438
1399894841333169471	1539	1482	1510	1436
1399894841343165753	1525	1481	1510	1437
1399894841363043554	1526	1470	1510	1439
1399894841378035579	1534	1476	1510	1437
1399894841403077948	1542	1473	1510	1438
1399894841428073828	1552	1484	1510	1436
1399894841453085928	1561	1481	1511	1436
1399894841473055168	1564	1477	1511	1436
1399894841488052397	1581	1478	1511	1436
1399894841518138111	1607	1465	1511	1436
1399894841538022508	1611	1473	1512	1436
1399894841568190495	1619	1475	1512	1436
1399894841588142104	1629	1465	1513	1436
1399894841602762674	1634	1470	1513	1435
1399894841617842138	1630	1464	1513	1436
1399894841638139273	1630	1465	1513	1435
1399894841662966781	1617	1460	1513	1437
1399894841683052795	1616	1466	1513	1436
1399894841703044724	1608	1467	1513	1436
1399894841733082308	1572	1454	1513	1438
1399894841753026316	1555	1458	1513	1438
1399894841783112598	1554	1465	1513	1438
1399894841797955094	1541	1460	1513	1438
1399894841813120923	1534	1460	1513	1439
1399894841828173773	1511	1461	1513	1439
1399894841843146139	1503	1464	1513	1438
1399894841863050910	1494	1469	1512	1438
1399894841878140191	1503	1470	1512	1438
1399894841893022173	1496	1459	1512	1439
1399894841918107720	1488	1464	1511	1439
1399894841953036554	1493	1461	1511	1439
1399894841988178489	1515	1463	1510	1438
1399894842013182199	1519	1456	1509	1438
1399894842033127200	1557	1468	1509	1438
1399894842048072365	1558	1472	1509	1436
1399894842062998543	1567	1464	1509	1437
1399894842078120925	1541	1456	1508	1437
1399894842093091968	1547	1458	1508	1436
1399894842113076984	1564	1456	1508	1436
1399894842133106226	1562	1467	1508	1436
1399894842143013014	1566	1461	1508	1436
1399894842168076658	1577	1461	1508	1436
1399894842188018198	1578	1469	1508	1436
1399894842218192910	1580	1469	1508	1435
1399894842233070034	1549	1462	1508	1435
1399894842253034192	1545	1457	1508	1436
1399894842283058516	1543	1449	1508	1437
1399894842292999866	1549	1456	1508	1437
1399894842313052695	1548	1463	1508	1436
1399894842328138136	1541	1466	1509	1436
1399894842343026095	1538	1459	1509	1437
1399894842363122726	1540	1460	1509	1437
1399894842378140556	1538	1464	1509	1437
1399894842403111901	1540	1463	1509	1437
1399894842433151620	1550	1453	1510	1439
1399894842453146704	1557	1457	1510	1438
1399894842483133637	1579	1462	1510	1437
1399894842503110067	1588	1459	1510	1437
1399894842523061008	1599	1461	1510	1437
1399894842538077544	1606	1470	1510	1436
1399894842553251543	1604	1469	1511	1436
1399894842568157151	1609	1460	1511	1437
1399894842588134730	1615	1464	1511	1436
1399894842603169679	1615	1461	1511	1437
1399894842628092530	1613	1466	1512	1435
1399894842653181391	1610	1465	1513	1435
1399894842673094913	1598	1462	1513	1435
1399894842688047703	1589	1461	1513	1434
1399894842718004687	1572	1467	1514	1433
1399894842738048122	1560	1466	1514	1433
1399894842768156848	1550	1463	1515	1433
1399894842788172509	1528	1467	1515	1432
1399894842803049436	1512	1462	1515	1432
1399894842823065980	1507	1460	1515	1433
1399894842838167222	1502	1458	1516	1433
1399894842853065250	1495	1457	1516	1432
1399894842873038683	1489	1463	1516	1431
1399894842888107699	1488	1459	1516	1431
1399894842918148948	1485	1463	1516	1431
1399894842938117359	1513	1470	1516	1430
1399894842968089054	1517	1465	1516	1432
1399894842988085245	1537	1469	1516	1432
1399894843018097755	1560	1469	1515	1431
1399894843038112632	1590	1474	1515	1431
1399894843053134337	1591	1469	1515	1433
1399894843068154861	1599	1463	1515	1434
1399894843088120959	1601	1462	1515	1433
1399894843103179362	1609	1465	1515	1434
1399894843118051003	1614	1463	1514	1434
1399894843153169594	1631	1459	1514	1434
1399894843188070098	1581	1462	1513	1435
1399894843218143423	1578	1462	1513	1435
1399894843238106989	1548	1464	1513	1435
1399894843253007196	1550	1460	1513	1435
1399894843278086191	1505	1464	1512	1436
1399894843293067064	1499	1461	1512	1438
1399894843313083147	1492	1458	1512	1437
1399894843328148338	1499	1451	1512	1437
1399894843353109676	1485	1461	1511	1437
1399894843373165685	1507	1457	1511	1437
1399894843388044497	1506	1461	1511	1436
1399894843418112099	1500	1461	1510	1436
1399894843438081312	1515	1466	1510	1436
1399894843468061940	1519	1463	1509	1437
1399894843488073643	1526	1466	1509	1436
1399894843518191883	1545	1461	1508	1437
1399894843538133913	1559	1465	1508	1437
1399894843553148195	1564	1462	1508	1437
1399894843568045734	1571	1463	1508	1437
1399894843588267840	1566	1465	1508	1437
1399894843618092545	1584	1464	1507	1437
1399894843638072963	1580	1470	1507	1436
1399894843668137826	1585	1464	1507	1436
1399894843688090815	1554	1466	1507	1435
1399894843718082175	1544	1459	1507	1436
1399894843738141179	1535	1461	1507	1435
1399894843768203964	1531	1464	1507	1435
1399894843788244768	1514	1464	1506	1435
1399894843803182057	1516	1469	1506	1433
1399894843817997316	1519	1469	1506	1434
1399894843837793589	1512	1466	1506	1433
1399894843867836166	1516	1465	1506	1434
1399894843888152910	1543	1458	1506	1435
1399894843917835862	1554	1464	1506	1434
1399894843938044165	1573	1475	1506	1434
1399894843968135809	1586	1465	1505	1434
1399894843988073895	1621	1465	1505	1434
1399894844018197003	1636	1469	1506	1434
1399894844038006446	1662	1459	1505	1435
1399894844053094279	1658	1470	1505	1434
1399894844068129281	1681	1470	1506	1434
1399894844088150088	1645	1473	1506	1434
1399894844103116367	1648	1469	1506	1433
1399894844133060108	1625	1468	1506	1434
1399894844148140651	1620	1462	1506	1435
1399894844168069535	1613	1469	1506	1435
1399894844188205778	1613	1468	1506	1434
1399894844202990959	1596	1467	1507	1436
1399894844233073730	1556	1479	1507	1435
1399894844248060774	1542	1480	1507	1435
1399894844263020628	1529	1474	1507	1435
1399894844278153877	1529	1473	1507	1435
1399894844293113411	1526	1472	1507	1435
1399894844313116659	1506	1474	1508	1437
1399894844328101593	1519	1474	1508	1436
1399894844353022496	1506	1476	1507	1435
1399894844383169676	1505	1483	1507	1434
1399894844403140797	1499	1482	1507	1434
1399894844433183823	1499	1472	1507	1434
1399894844453100543	1504	1478	1506	1433
1399894844478208183	1535	1473	1506	1433
1399894844493172629	1535	1477	1506	1433
1399894844513161089	1548	1474	1505	1432
1399894844528084021	1513	1481	1505	1432
1399894844543035697	1528	1476	1505	1432
1399894844563104476	1525	1479	1505	1432
1399894844583163790	1543	1468	1505	1432
1399894844603149511	1560	1469	1505	1431
1399894844633355735	1553	1464	1505	1431
1399894844652922181	1550	1466	1505	1432
1399894844683211492	1547	1467	1505	1430
1399894844703153520	1550	1459	1505	1433
1399894844728118072	1534	1457	1505	1433
1399894844743141287	1536	1460	1505	1433
1399894844763116875	1532	1460	1505	1433
1399894844778178230	1520	1459	1505	1433
1399894844792979385	1525	1460	1506	1433
1399894844813034409	1522	1456	1506	1434
1399894844833098176	1529	1459	1506	1433
1399894844853063230	1530	1455	1507	1435
1399894844873005949	1518	1457	1507	1434
1399894844888084885	1523	1462	1507	1434
1399894844917944609	1534	1445	1507	1436
1399894844933019735	1543	1451	1507	1436
1399894844953073209	1553	1451	1508	1436
1399894844978148192	1568	1447	1508	1438
1399894844993018858	1580	1443	1508	1436
1399894845013071561	1586	1454	1509	1436
1399894845028217848	1593	1448	1509	1437
1399894845052855854	1601	1444	1509	1437
1399894845067770792	1605	1452	1510	1437
1399894845087804206	1597	1447	1510	1437
1399894845117798851	1595	1445	1511	1438
1399894845137789226	1578	1449	1511	1438
1399894845167753868	1573	1448	1512	1438
1399894845188199368	1560	1441	1513	1439
1399894845213059670	1557	1439	1513	1440
1399894845228087340	1550	1424	1514	1440
1399894845243040496	1536	1441	1514	1439
1399894845263039600	1530	1445	1515	1439
1399894845278141908	1508	1452	1515	1438
1399894845293047210	1506	1451	1516	1438
1399894845318015240	1495	1445	1516	1439
1399894845338078051	1512	1445	1517	1439
1399894845368036871	1511	1447	1518	1440
1399894845388171238	1514	1452	1518	1440
1399894845418139839	1532	1454	1519	1440
1399894845438102507	1546	1445	1519	1441
1399894845463070514	1555	1453	1520	1441
1399894845478067316	1578	1446	1520	1441
1399894845493142794	1580	1451	1520	1441
1399894845513159414	1592	1457	1520	1440
1399894845528180161	1610	1448	1520	1441
1399894845543067194	1620	1449	1521	1441
1399894845568210238	1631	1453	1521	1441
1399894845588057728	1603	1456	1521	1442
1399894845618123202	1608	1457	1521	1441
1399894845638176516	1597	1462	1520	1441
1399894845668002897	1588	1461	1520	1443
1399894845688124295	1583	1459	1520	1442
1399894845703110795	1577	1463	1520	1442
1399894845717952354	1565	1471	1520	1442
1399894845738088048	1545	1466	1520	1443
1399894845753088298	1542	1465	1519	1443
1399894845773177668	1526	1469	1519	1444
1399894845788064991	1518	1475	1519	1442
1399894845818156047	1496	1472	1518	1444
1399894845838043738	1473	1470	1518	1444
1399894845868117054	1469	1476	1518	1444
1399894845888023784	1462	1469	1517	1444
1399894845918133763	1460	1471	1517	1444
1399894845937971568	1502	1467	1517	1444
1399894845953053891	1509	1469	1516	1444
1399894845972765556	1501	1483	1516	1444
1399894845987999506	1509	1477	1516	1443
1399894846003006051	1510	1478	1516	1443
1399894846018013861	1522	1477	1515	1444
1399894846038115822	1557	1476	1515	1442
1399894846063157106	1567	1470	1515	1443
1399894846078057064	1585	1472	1514	1442
1399894846103055503	1592	1469	1514	1442
1399894846133152783	1541	1483	1514	1442
1399894846153140518	1548	1477	1513	1442
1399894846173038796	1544	1474	1513	1443
1399894846188116416	1538	1478	1513	1442
1399894846203079669	1535	1482	1512	1442
1399894846217994013	1528	1482	1512	1441
1399894846238054105	1510	1478	1512	1444
1399894846253051617	1508	1470	1512	1443
1399894846268035018	1512	1469	1512	1444
1399894846303064186	1520	1477	1511	1442
1399894846338114717	1524	1468	1511	1443
1399894846368175333	1536	1467	1511	1442
1399894846393121413	1548	1465	1511	1442
1399894846423112171	1580	1474	1511	1441
1399894846438068646	1601	1465	1512	1441
1399894846453109314	1590	1464	1512	1443
1399894846468051466	1608	1453	1512	1442
1399894846488074517	1623	1463	1513	1442
1399894846503079983	1630	1466	1513	1441
1399894846518014710	1648	1461	1513	1442
1399894846553093595	1650	1462	1514	1442
1399894846588176412	1647	1464	1514	1442
1399894846617959816	1641	1464	1515	1442
1399894846643067065	1639	1457	1515	1442
1399894846668052857	1633	1458	1515	1441
1399894846683020295	1606	1456	1516	1442
1399894846693050066	1590	1452	1516	1444
1399894846713078426	1584	1452	1516	1443
1399894846728085529	1580	1456	1516	1443
1399894846743038992	1565	1455	1516	1444
1399894846768123924	1553	1453	1516	1443
1399894846788018501	1531	1456	1516	1443
1399894846818076869	1515	1454	1516	1444
1399894846838108301	1534	1451	1516	1445
1399894846868074526	1530	1457	1516	1445
1399894846888027612	1532	1456	1516	1445
1399894846918057689	1538	1462	1516	1444
1399894846938071971	1549	1454	1515	1446
1399894846952999386	1546	1460	1515	1444
1399894846967885094	1548	1462	1515	1444
1399894846988191572	1561	1455	1515	1445
1399894847018239626	1574	1452	1515	1445
1399894847038061808	1591	1457	1515	1445
1399894847068224734	1593	1457	1515	1445
1399894847088085200	1603	1450	1515	1443
1399894847118090531	1597	1451	1515	1444
1399894847138003058	1568	1450	1515	1444
1399894847163204057	1556	1458	1515	1443
1399894847187918484	1551	1450	1515	1442
1399894847202950814	1541	1453	1515	1443
1399894847217967471	1540	1446	1515	1443
1399894847238062439	1502	1450	1515	1443
1399894847253048347	1507	1445	1515	1443
1399894847283200321	1488	1443	1515	1443
1399894847298082423	1482	1455	1515	1443
1399894847318120582	1481	1454	1515	1443
1399894847338131922	1470	1452	1515	1443
1399894847353040271	1473	1459	1515	1442
1399894847383242654	1499	1445	1515	1444
1399894847398105162	1490	1454	1515	1443
1399894847418120165	1496	1459	1515	1443
1399894847437998291	1520	1449	1515	1444
1399894847453089257	1509	1449	1515	1442
1399894847473075439	1529	1464	1515	1442
1399894847488123350	1547	1462	1515	1442
1399894847503079079	1549	1465	1514	1442
1399894847533127618	1572	1466	1514	1441
1399894847553134440	1577	1464	1514	1441
1399894847583207973	1551	1467	1514	1442
1399894847603100932	1542	1462	1514	1442
1399894847633375057	1517	1460	1514	1442
1399894847643274843	1509	1459	1514	1442
1399894847663147563	1507	1454	1514	1443
1399894847678098361	1475	1461	1514	1443
1399894847693028348	1486	1459	1514	1441
1399894847713063939	1477	1470	1514	1440
1399894847728426324	1447	1461	1514	1441
1399894847753161339	1445	1456	1514	1441
1399894847788115066	1465	1463	1513	1441
1399894847818142337	1462	1465	1514	1441
1399894847853225781	1478	1467	1514	1440
1399894847883240146	1518	1466	1514	1440
1399894847898200616	1528	1465	1513	1440
1399894847913087235	1537	1477	1514	1439
1399894847928229905	1579	1478	1514	1439
1399894847943087278	1589	1469	1514	1440
1399894847963166039	1612	1466	1514	1440
1399894847978133668	1581	1467	1514	1439
1399894848003068380	1603	1465	1514	1439
1399894848023154020	1606	1465	1514	1440
1399894848038012021	1623	1463	1514	1440
1399894848068093759	1632	1469	1514	1438
1399894848082943218	1618	1460	1514	1439
1399894848103228243	1618	1464	1514	1438
1399894848133145119	1614	1468	1514	1438
1399894848143213725	1606	1470	1514	1439
1399894848163159502	1599	1465	1514	1439
1399894848178122700	1585	1475	1514	1438
1399894848192943871	1579	1463	1514	1440
1399894848218165166	1556	1472	1513	1438
1399894848238116277	1578	1460	1513	1440
1399894848268118398	1571	1468	1513	1439
1399894848283092783	1571	1459	1513	1438
1399894848303093908	1562	1466	1512	1437
1399894848333082982	1544	1461	1512	1437
1399894848353284503	1535	1463	1512	1437
1399894848378010882	1567	1460	1511	1437
1399894848392793348	1561	1465	1511	1438
1399894848413100830	1562	1452	1511	1439
1399894848428152059	1573	1452	1511	1439
1399894848443082017	1579	1456	1511	1438
1399894848463151153	1580	1453	1511	1438
1399894848483083697	1590	1450	1511	1438
1399894848503048926	1591	1453	1511	1438
1399894848533014627	1586	1464	1511	1437
1399894848553188207	1584	1456	1511	1438
1399894848583118602	1585	1457	1511	1440
1399894848603110924	1582	1460	1510	1440
1399894848628129739	1564	1457	1510	1440
1399894848643175062	1561	1463	1510	1439
1399894848663089056	1550	1457	1509	1440
1399894848678086746	1524	1456	1508	1440
1399894848693083883	1525	1461	1508	1441
1399894848713105551	1514	1459	1507	1441
1399894848733217058	1519	1456	1507	1442
1399894848753212670	1512	1455	1506	1442
1399894848783123346	1499	1449	1505	1443
1399894848803117162	1498	1450	1504	1442
1399894848833181147	1514	1451	1503	1443
1399894848853082605	1512	1451	1502	1443
1399894848868092384	1517	1445	1502	1444
1399894848888094200	1529	1451	1501	1442
1399894848903140949	1535	1454	1501	1443
1399894848918081404	1549	1452	1500	1442
1399894848938085900	1543	1450	1500	1444
1399894848953121571	1543	1454	1500	1443
1399894848968089671	1547	1446	1500	1444
1399894849003146696	1574	1445	1499	1444
1399894849038074013	1599	1453	1499	1444
1399894849073127169	1577	1449	1499	1444
1399894849088092775	1578	1444	1500	1444
1399894849103048877	1573	1447	1500	1445
1399894849133084574	1558	1445	1500	1445
1399894849142928648	1541	1443	1501	1444
1399894849163074433	1533	1443	1501	1446
1399894849177980918	1505	1439	1501	1446
1399894849203113802	1498	1444	1502	1446
1399894849233120472	1495	1452	1503	1446
1399894849253094563	1481	1448	1504	1447
1399894849283071661	1456	1455	1505	1447
1399894849303088084	1449	1453	1506	1447
1399894849333237849	1475	1453	1507	1448
1399894849353226199	1473	1455	1509	1447
1399894849373097841	1496	1458	1509	1448
1399894849388103205	1501	1459	1510	1447
1399894849403055378	1508	1461	1511	1447
1399894849423145039	1522	1453	1512	1447
1399894849438126119	1532	1446	1512	1448
1399894849453157523	1536	1446	1513	1448
1399894849473102140	1542	1449	1514	1447
1399894849488050355	1553	1455	1515	1446
1399894849518256763	1570	1446	1517	1447
1399894849537804073	1587	1442	1518	1447
1399894849568208515	1596	1437	1519	1447
1399894849582984121	1582	1461	1520	1446
1399894849597982644	1582	1460	1520	1446
1399894849612967530	1588	1446	1521	1447
1399894849628045898	1574	1446	1521	1447
1399894849643146562	1575	1453	1522	1447
1399894849663172357	1572	1457	1523	1447
1399894849678188760	1541	1450	1523	1447
1399894849703242357	1538	1453	1524	1447
1399894849738070356	1524	1458	1525	1447
1399894849768086732	1516	1461	1526	1447
1399894849793027387	1535	1464	1526	1447
1399894849818081135	1521	1467	1526	1447
1399894849838183129	1537	1463	1526	1447
1399894849853129243	1546	1467	1526	1448
1399894849868112093	1543	1467	1526	1448
1399894849888110473	1558	1465	1526	1449
1399894849903235857	1560	1458	1526	1449
1399894849918063830	1567	1463	1526	1449
1399894849938053198	1587	1461	1526	1448
1399894849968035717	1589	1461	1525	1448
1399894849988021494	1581	1462	1525	1449
1399894850018241038	1584	1467	1524	1448
1399894850033187012	1565	1470	1523	1448
1399894850053189767	1571	1473	1523	1447
1399894850083130165	1549	1463	1522	1448
1399894850093138944	1551	1466	1522	1448
1399894850113040610	1543	1471	1521	1447
1399894850128077881	1535	1469	1521	1448
1399894850143220905	1518	1466	1520	1448
1399894850168141261	1510	1477	1519	1447
1399894850188195169	1511	1473	1519	1446
1399894850218133554	1494	1477	1518	1446
1399894850238131031	1493	1475	1517	1445
1399894850268097511	1492	1476	1517	1446
1399894850288063166	1497	1472	1516	1445
1399894850318124678	1497	1476	1516	1445
1399894850338189688	1525	1465	1515	1445
1399894850353127286	1518	1471	1515	1445
1399894850368068980	1533	1475	1515	1443
1399894850388073015	1554	1481	1514	1442
1399894850403117819	1557	1469	1514	1444
1399894850422832268	1584	1463	1514	1444
1399894850437841966	1602	1467	1514	1444
1399894850467904080	1617	1466	1513	1443
1399894850483134495	1614	1465	1513	1443
1399894850503127184	1624	1472	1513	1442
1399894850523237792	1628	1467	1512	1442
1399894850538046440	1642	1475	1512	1441
1399894850567994137	1644	1465	1511	1443
1399894850588127192	1625	1463	1511	1444
1399894850603107069	1627	1468	1511	1443
1399894850618031965	1625	1471	1510	1442
1399894850638125199	1602	1466	1510	1442
1399894850653130748	1598	1462	1510	1443
1399894850672960960	1602	1462	1510	1443
1399894850688001458	1597	1461	1510	1441
1399894850717939152	1572	1459	1510	1443
1399894850738060052	1578	1462	1510	1442
1399894850768102487	1569	1457	1510	1442
1399894850788045373	1556	1460	1510	1442
1399894850818041781	1549	1458	1510	1441
1399894850837973372	1561	1451	1510	1441
1399894850853039735	1558	1444	1510	1443
1399894850867998796	1558	1447	1510	1442
1399894850888191181	1562	1448	1510	1441
1399894850913152846	1561	1445	1510	1442
1399894850938204609	1586	1448	1510	1441
1399894850968166125	1580	1447	1510	1441
1399894851003076774	1593	1445	1510	1440
1399894851028219465	1581	1438	1510	1440
1399894851047997627	1589	1443	1510	1440
1399894851068091890	1584	1438	1510	1439
1399894851088047643	1582	1447	1510	1440
1399894851102984512	1576	1435	1510	1440
1399894851118119508	1569	1429	1510	1441
1399894851138086288	1549	1438	1510	1440
1399894851168088078	1544	1442	1510	1440
1399894851188062327	1527	1444	1510	1440
1399894851218155413	1513	1437	1510	1440
1399894851237994196	1488	1450	1510	1440
1399894851268106938	1488	1444	1511	1440
1399894851288140604	1500	1441	1511	1439
1399894851313135318	1495	1445	1511	1440
1399894851328171309	1515	1442	1511	1440
1399894851343006404	1505	1451	1511	1440
1399894851363060135	1520	1442	1511	1440
1399894851378068748	1542	1453	1511	1440
1399894851393088632	1540	1448	1511	1440
1399894851418070584	1559	1451	1512	1440
1399894851438082437	1578	1453	1511	1439
1399894851468079894	1586	1453	1512	1439
1399894851488065811	1568	1447	1512	1439
1399894851518108343	1581	1451	1513	1438
1399894851538113521	1560	1444	1513	1438
1399894851553103762	1567	1459	1513	1437
1399894851568082323	1560	1449	1514	1438
1399894851588151636	1541	1441	1513	1438
1399894851603034420	1538	1449	1514	1437
1399894851623175887	1525	1450	1514	1438
1399894851638185695	1518	1459	1514	1437
1399894851667815239	1504	1448	1514	1437
1399894851688137741	1497	1442	1514	1436
1399894851718074924	1472	1444	1514	1437
1399894851738118195	1475	1457	1515	1437
1399894851768137769	1469	1457	1515	1437
1399894851788084858	1472	1449	1514	1438
1399894851803009483	1470	1456	1514	1437
1399894851823166453	1480	1454	1514	1437
1399894851838119929	1491	1448	1514	1438
1399894851853053976	1483	1449	1514	1437
1399894851868023717	1497	1455	1514	1436
1399894851888007580	1509	1465	1514	1436
1399894851918159788	1529	1453	1514	1436
1399894851938012559	1556	1452	1513	1436
1399894851968178415	1573	1455	1513	1436
1399894851982836691	1561	1448	1513	1436
1399894852003240608	1572	1452	1513	1435
1399894852033123298	1590	1455	1513	1434
1399894852043106065	1598	1451	1513	1434
1399894852063111928	1602	1452	1513	1434
1399894852078095881	1595	1450	1513	1434
1399894852093130863	1594	1455	1513	1433
1399894852118145899	1593	1450	1512	1433
1399894852138239632	1578	1461	1512	1433
1399894852167878529	1568	1454	1512	1434
1399894852203092383	1552	1458	1511	1434
1399894852238158401	1566	1462	1511	1434
1399894852253134566	1573	1458	1511	1433
1399894852283046335	1560	1468	1511	1434
1399894852292898369	1558	1465	1510	1434
1399894852313083432	1555	1468	1510	1435
1399894852328005712	1556	1452	1510	1434
1399894852343075138	1567	1444	1510	1434
1399894852368066926	1568	1455	1510	1434
1399894852387975972	1574	1445	1510	1434
1399894852417989712	1579	1450	1510	1433
1399894852438028092	1598	1451	1510	1433
1399894852468087680	1605	1452	1509	1434
1399894852488069966	1606	1449	1509	1435
1399894852518128384	1607	1449	1509	1433
1399894852538164335	1602	1449	1509	1433
1399894852553169360	1610	1447	1509	1433
1399894852568127971	1601	1443	1509	1433
1399894852588106249	1582	1446	1509	1434
1399894852603141147	1579	1436	1509	1434
1399894852623104875	1552	1464	1509	1432
1399894852638194781	1543	1463	1509	1432
1399894852668097452	1532	1455	1509	1434
