#Time	 Roll 	 Pitch 	 Yaw 	 Thrust
1399583620381931465	1521	1521	1513	1378
1399583620396797979	1521	1527	1513	1378
1399583620411737287	1523	1526	1513	1378
1399583620436770919	1520	1526	1513	1378
1399583620446637218	1520	1527	1513	1378
1399583620476931163	1520	1525	1513	1434
1399583620491746402	1520	1526	1513	1381
1399583620501676845	1523	1527	1513	1381
1399583620526719915	1518	1525	1513	1381
1399583620541673292	1519	1526	1513	1381
1399583620556689795	1517	1526	1513	1381
1399583620576690967	1519	1524	1513	1434
1399583620591648342	1521	1525	1513	1384
1399583620606690897	1522	1525	1513	1384
1399583620621718394	1523	1525	1513	1384
1399583620636771350	1519	1526	1513	1384
1399583620651670171	1518	1529	1513	1384
1399583620671642508	1521	1526	1513	1434
1399583620686697283	1519	1527	1513	1387
1399583620706675419	1521	1528	1513	1387
1399583620726723301	1521	1526	1513	1385
1399583620736655473	1520	1523	1513	1386
1399583620756643599	1521	1528	1513	1386
1399583620776672791	1520	1526	1513	1434
1399583620791722689	1518	1522	1513	1388
1399583620806716539	1518	1526	1513	1388
1399583620826957992	1527	1522	1513	1388
1399583620841953366	1518	1527	1513	1388
1399583620856880733	1526	1525	1513	1389
1399583620871935157	1523	1525	1513	1434
1399583620886909117	1519	1523	1513	1391
1399583620911851239	1521	1523	1513	1392
1399583620942009476	1525	1536	1513	1391
1399583620956978204	1516	1535	1513	1390
1399583620971852257	1519	1530	1513	1434
1399583620991976879	1517	1535	1513	1393
1399583621006927164	1509	1530	1513	1394
1399583621027022772	1511	1529	1513	1392
1399583621041956583	1523	1520	1513	1391
1399583621061899393	1511	1536	1513	1387
1399583621081997960	1530	1537	1513	1388
1399583621096892159	1524	1537	1513	1387
1399583621126929589	1513	1541	1514	1386
1399583621141985207	1508	1551	1513	1381
1399583621156908980	1505	1545	1514	1380
1399583621176930950	1514	1532	1514	1435
1399583621191861713	1502	1515	1514	1380
1399583621201875450	1505	1519	1514	1381
1399583621226758311	1496	1529	1514	1375
1399583621241947571	1506	1523	1514	1375
1399583621256873703	1498	1519	1514	1372
1399583621276979131	1510	1510	1514	1435
1399583621291971855	1504	1515	1514	1377
1399583621306886746	1497	1504	1514	1376
1399583621326962260	1477	1523	1513	1373
1399583621347003069	1482	1489	1514	1377
1399583621361910305	1488	1515	1513	1375
1399583621382025241	1507	1525	1513	1376
1399583621396912039	1494	1530	1514	1373
1399583621411815341	1467	1520	1514	1373
1399583621431879521	1482	1500	1514	1374
1399583621446921626	1478	1529	1513	1372
1399583621461907480	1506	1521	1513	1373
1399583621481872103	1505	1528	1513	1373
1399583621511921370	1482	1513	1513	1374
1399583621531840748	1490	1512	1513	1374
1399583621561845171	1486	1511	1513	1373
1399583621591857077	1486	1508	1513	1376
1399583621601881291	1494	1504	1513	1376
1399583621621716793	1493	1494	1513	1377
1399583621641672193	1489	1494	1512	1375
1399583621656692083	1491	1511	1512	1379
1399583621676690017	1512	1525	1512	1435
1399583621691681245	1509	1515	1512	1379
1399583621706668424	1491	1525	1512	1380
1399583621726728270	1495	1520	1512	1379
1399583621746786338	1506	1524	1512	1381
1399583621761728037	1499	1512	1512	1383
1399583621781871796	1502	1512	1512	1385
1399583621796913770	1505	1515	1512	1385
1399583621811904597	1493	1515	1511	1387
1399583621831927093	1503	1522	1511	1386
1399583621856920819	1504	1530	1511	1386
1399583621871859902	1510	1533	1511	1436
1399583621886848000	1502	1528	1511	1391
1399583621902064725	1511	1531	1511	1389
1399583621921842865	1510	1528	1511	1390
1399583621941865712	1509	1517	1511	1392
1399583621956898518	1510	1520	1510	1391
1399583621971884688	1519	1517	1510	1436
1399583621991935427	1510	1537	1510	1395
1399583622006920527	1518	1528	1510	1396
1399583622026938214	1522	1526	1510	1395
1399583622046676840	1517	1533	1510	1395
1399583622061904052	1520	1536	1510	1396
1399583622081910215	1520	1541	1510	1398
1399583622106941302	1506	1524	1510	1399
1399583622126939658	1507	1530	1510	1399
1399583622141968914	1520	1539	1510	1397
1399583622152028426	1529	1546	1510	1395
1399583622176984674	1537	1542	1510	1397
1399583622191963033	1523	1527	1511	1398
1399583622206960854	1517	1537	1511	1399
1399583622226931645	1527	1524	1510	1399
1399583622241910293	1530	1529	1510	1398
1399583622261895077	1517	1530	1511	1397
1399583622281863748	1524	1536	1511	1400
1399583622296877510	1524	1522	1511	1399
1399583622311854315	1510	1531	1511	1399
1399583622331857932	1512	1526	1511	1397
1399583622346849803	1519	1517	1511	1398
1399583622361903015	1513	1527	1511	1397
1399583622381927647	1511	1528	1511	1398
1399583622401937676	1520	1532	1511	1397
1399583622412069311	1520	1529	1511	1397
1399583622426941870	1512	1530	1511	1396
1399583622446984790	1519	1528	1511	1397
1399583622461930651	1516	1523	1511	1397
1399583622481944132	1516	1515	1511	1400
1399583622496939644	1517	1538	1511	1397
1399583622511905374	1520	1522	1511	1397
1399583622531922180	1517	1539	1511	1396
1399583622546989559	1522	1540	1511	1393
1399583622561915925	1522	1516	1511	1395
1399583622581765281	1503	1533	1511	1397
1399583622596967165	1518	1512	1511	1397
1399583622611907319	1519	1508	1511	1398
1399583622636919746	1508	1526	1511	1395
1399583622646901252	1510	1516	1511	1395
1399583622662029102	1506	1531	1511	1395
1399583622681919663	1517	1525	1511	1397
1399583622696921791	1498	1526	1511	1398
1399583622711993671	1515	1530	1511	1396
1399583622741925753	1501	1512	1511	1396
1399583622756913190	1514	1525	1511	1395
1399583622776907866	1512	1524	1511	1438
1399583622792004754	1509	1531	1511	1398
1399583622806998388	1511	1524	1511	1397
1399583622821875781	1503	1522	1511	1398
1399583622837022414	1519	1529	1511	1399
1399583622851633467	1514	1514	1511	1398
1399583622871843272	1519	1529	1511	1438
1399583622886909047	1511	1520	1511	1398
1399583622911912398	1504	1520	1511	1399
1399583622931772664	1504	1527	1511	1398
1399583622951892867	1498	1522	1511	1398
1399583622976672519	1500	1522	1511	1396
1399583622991701202	1503	1518	1511	1398
1399583623006677667	1501	1527	1511	1394
1399583623026772330	1511	1515	1511	1396
1399583623041642032	1510	1515	1511	1395
1399583623051652524	1505	1508	1511	1395
1399583623071619746	1512	1512	1511	1393
1399583623091589932	1510	1531	1511	1393
1399583623106669147	1514	1531	1510	1391
1399583623121613619	1511	1517	1510	1393
1399583623136643024	1518	1517	1510	1392
1399583623156631378	1517	1508	1510	1395
1399583623176644548	1511	1524	1510	1390
1399583623186594016	1513	1533	1510	1391
1399583623211690722	1511	1526	1510	1391
1399583623231610800	1516	1530	1510	1392
1399583623246612746	1508	1529	1510	1392
1399583623261585264	1520	1549	1510	1390
1399583623281638030	1512	1537	1510	1391
1399583623296622791	1520	1535	1510	1390
1399583623311609835	1517	1525	1510	1392
1399583623336651694	1500	1527	1510	1391
1399583623346621693	1512	1526	1510	1392
1399583623361781268	1505	1538	1510	1391
1399583623381629031	1508	1530	1510	1390
1399583623396587855	1511	1528	1509	1389
1399583623411613709	1511	1523	1509	1391
1399583623431608753	1511	1527	1509	1389
1399583623446606426	1511	1511	1509	1392
1399583623461608758	1520	1531	1509	1390
1399583623481617894	1517	1522	1509	1389
1399583623496592856	1522	1538	1509	1390
1399583623511612579	1525	1536	1509	1388
1399583623531621321	1506	1531	1509	1389
1399583623546610945	1517	1522	1509	1390
1399583623581665681	1505	1511	1509	1391
1399583623596680726	1522	1515	1510	1390
1399583623616633254	1503	1540	1510	1388
1399583623631644002	1524	1540	1510	1387
1399583623646664705	1517	1547	1510	1390
1399583623666635487	1526	1537	1510	1388
1399583623681621287	1512	1535	1510	1390
1399583623696610277	1518	1528	1510	1391
1399583623711640788	1497	1529	1510	1393
1399583623731768050	1517	1530	1510	1392
1399583623746633810	1504	1536	1510	1391
1399583623761632393	1502	1544	1510	1390
1399583623781603175	1509	1544	1509	1389
1399583623811598188	1506	1532	1509	1392
1399583623826615597	1509	1530	1509	1393
1399583623846612136	1505	1512	1509	1393
1399583623861621499	1510	1519	1509	1395
1399583623886624993	1516	1528	1509	1395
1399583623906575566	1511	1511	1509	1394
1399583623926557840	1515	1518	1509	1395
1399583623941629608	1499	1535	1509	1394
1399583623956633869	1511	1538	1509	1394
1399583623976577623	1515	1529	1509	1395
1399583623991663321	1506	1526	1509	1397
1399583624006623121	1510	1517	1509	1397
1399583624026645458	1509	1518	1509	1397
1399583624041655288	1502	1528	1509	1395
1399583624051638960	1497	1543	1509	1395
1399583624081680506	1500	1522	1509	1398
1399583624096689213	1497	1532	1509	1397
1399583624111658705	1498	1543	1509	1396
1399583624131675336	1494	1547	1509	1395
1399583624146660324	1504	1539	1510	1395
1399583624161615212	1508	1538	1510	1396
1399583624181564611	1502	1526	1510	1397
1399583624196601862	1503	1515	1510	1399
1399583624226645219	1510	1537	1510	1395
1399583624241614097	1508	1524	1510	1397
1399583624256703972	1509	1512	1510	1399
1399583624271673715	1503	1508	1510	1399
1399583624286705623	1509	1509	1510	1398
1399583624301715848	1512	1522	1510	1397
1399583624326676444	1510	1525	1510	1396
1399583624336634230	1505	1529	1509	1396
1399583624351647794	1503	1520	1509	1397
1399583624376689943	1503	1517	1509	1398
1399583624391604181	1500	1516	1509	1398
1399583624406642098	1503	1521	1509	1397
1399583624426628117	1506	1525	1509	1397
1399583624441583241	1501	1524	1509	1397
1399583624456544463	1502	1523	1509	1397
1399583624476630335	1499	1518	1509	1398
1399583624491643634	1507	1521	1509	1398
1399583624506602752	1509	1517	1509	1399
1399583624526651379	1503	1518	1509	1399
1399583624551672119	1507	1517	1509	1398
1399583624571654601	1501	1520	1509	1398
1399583624586671049	1502	1510	1509	1399
1399583624606684397	1503	1510	1509	1399
1399583624626673358	1502	1513	1509	1399
1399583624646647833	1502	1521	1509	1400
1399583624661617028	1501	1520	1509	1400
1399583624691661743	1500	1520	1509	1400
1399583624706603272	1500	1519	1509	1400
1399583624726627374	1501	1517	1509	1401
1399583624741625504	1507	1519	1509	1400
1399583624756630260	1500	1525	1508	1400
1399583624786662534	1501	1525	1508	1401
1399583624801607142	1497	1527	1508	1401
1399583624821650711	1500	1523	1508	1401
1399583624846648088	1500	1529	1508	1401
1399583624876667792	1498	1530	1508	1401
1399583624891707562	1499	1523	1508	1401
1399583624911651482	1503	1524	1508	1401
1399583624931680352	1499	1514	1508	1403
1399583624946655572	1498	1517	1508	1402
1399583624961655661	1501	1525	1508	1401
1399583624981574017	1501	1533	1508	1400
1399583624996695548	1500	1540	1508	1400
1399583625011582540	1498	1534	1508	1401
1399583625031650065	1497	1523	1508	1403
1399583625046638648	1503	1510	1509	1404
1399583625066660448	1503	1514	1509	1404
1399583625081610510	1499	1527	1509	1403
1399583625096638380	1506	1535	1509	1402
1399583625111616968	1502	1530	1509	1403
1399583625131582961	1502	1519	1509	1405
1399583625146682231	1507	1521	1509	1404
1399583625161680005	1505	1527	1509	1404
1399583625181643934	1507	1533	1509	1404
1399583625196593574	1507	1530	1509	1404
1399583625211608472	1504	1525	1509	1406
1399583625241671106	1508	1525	1509	1405
1399583625256624930	1510	1527	1509	1405
1399583625271583391	1508	1527	1509	1406
1399583625286671654	1509	1517	1509	1406
1399583625311662432	1514	1521	1509	1407
1399583625331700932	1511	1516	1509	1407
1399583625346664542	1514	1512	1509	1408
1399583625361611352	1517	1523	1509	1408
1399583625376646785	1514	1527	1509	1407
1399583625396697588	1513	1535	1509	1406
1399583625411626800	1510	1530	1509	1407
1399583625431650110	1510	1529	1509	1409
1399583625456671135	1508	1531	1509	1408
1399583625476585360	1507	1534	1509	1408
1399583625491616401	1516	1515	1509	1410
1399583625521677927	1514	1522	1509	1409
1399583625541655138	1514	1527	1509	1408
1399583625551631372	1520	1535	1509	1407
1399583625576586713	1517	1529	1509	1408
1399583625591609454	1514	1516	1509	1411
1399583625606634770	1517	1501	1510	1412
1399583625621666399	1513	1507	1510	1411
1399583625641688094	1510	1518	1510	1409
1399583625656677404	1512	1523	1510	1408
1399583625676763062	1512	1520	1510	1409
1399583625696681633	1508	1520	1510	1409
1399583625711660886	1505	1529	1511	1408
1399583625731691635	1503	1518	1511	1408
1399583625746614349	1504	1515	1511	1409
1399583625761605191	1503	1508	1511	1409
1399583625776618948	1499	1509	1511	1409
1399583625801740610	1510	1515	1511	1408
1399583625811663895	1506	1518	1511	1408
1399583625831665951	1508	1526	1512	1406
1399583625846634148	1510	1522	1512	1406
1399583625861630368	1503	1512	1512	1407
1399583625881674239	1506	1515	1512	1407
1399583625896643347	1516	1515	1512	1406
1399583625926683904	1514	1523	1513	1407
1399583625941589563	1506	1511	1513	1407
1399583625956606554	1508	1519	1513	1406
1399583625976656562	1517	1518	1513	1406
1399583625991582922	1510	1508	1513	1407
1399583626001650581	1507	1507	1512	1407
1399583626021581845	1507	1515	1512	1405
1399583626036606334	1512	1539	1512	1404
1399583626051615280	1511	1536	1512	1405
1399583626076650104	1510	1528	1512	1406
1399583626096667054	1507	1535	1511	1406
1399583626111656989	1498	1521	1511	1407
1399583626131602988	1499	1507	1511	1408
1399583626146617437	1502	1518	1511	1408
1399583626161816009	1510	1532	1510	1407
1399583626181682304	1505	1529	1510	1407
1399583626206773623	1510	1522	1509	1407
1399583626226679678	1516	1526	1509	1408
1399583626241667750	1513	1514	1509	1408
1399583626251668961	1506	1507	1508	1409
1399583626276692129	1510	1515	1508	1409
1399583626296673336	1515	1511	1507	1409
1399583626311642990	1510	1517	1507	1409
1399583626331609802	1510	1524	1506	1409
1399583626346604733	1510	1528	1506	1409
1399583626361595133	1509	1529	1506	1409
1399583626381656168	1506	1528	1506	1409
1399583626396677253	1512	1538	1505	1409
1399583626426717976	1509	1538	1505	1409
1399583626441680621	1504	1525	1505	1409
1399583626456623309	1499	1528	1505	1409
1399583626476661846	1497	1529	1505	1409
1399583626486582386	1499	1534	1504	1409
1399583626511637197	1504	1532	1504	1409
1399583626541639970	1509	1534	1504	1409
1399583626551621149	1509	1534	1504	1409
1399583626576637640	1509	1535	1504	1410
1399583626591636008	1506	1535	1504	1410
1399583626611665865	1511	1537	1504	1410
1399583626631686013	1506	1535	1504	1409
1399583626646658364	1508	1529	1504	1410
1399583626676704101	1508	1534	1504	1409
1399583626691676847	1506	1530	1504	1410
1399583626706649660	1505	1530	1504	1410
1399583626726653595	1506	1532	1504	1408
1399583626741645783	1510	1544	1504	1409
1399583626751590309	1510	1542	1504	1408
1399583626771634010	1504	1545	1504	1409
1399583626786583837	1507	1529	1504	1409
1399583626811643914	1510	1536	1505	1409
1399583626836702200	1506	1547	1505	1409
1399583626856598256	1514	1553	1505	1408
1399583626876660864	1511	1544	1505	1407
1399583626891676911	1513	1537	1505	1409
1399583626911631770	1515	1563	1506	1406
1399583626931659603	1514	1554	1506	1407
1399583626946614349	1514	1535	1506	1408
1399583626961628148	1513	1530	1506	1409
1399583626976657805	1508	1537	1507	1408
1399583626996686613	1511	1547	1507	1406
1399583627026644844	1512	1536	1507	1406
1399583627036663676	1506	1530	1507	1407
1399583627056678949	1509	1539	1507	1405
1399583627076667017	1507	1557	1507	1404
1399583627091660154	1501	1552	1508	1403
1399583627106596369	1510	1536	1508	1404
1399583627126678978	1507	1531	1508	1406
1399583627141621553	1507	1531	1508	1406
1399583627156631127	1504	1544	1508	1405
1399583627176662227	1509	1552	1508	1404
1399583627191650656	1512	1560	1508	1403
1399583627206622532	1508	1552	1508	1404
1399583627221564129	1510	1547	1508	1404
1399583627236613535	1504	1538	1508	1405
1399583627251580780	1503	1537	1508	1405
1399583627276609169	1498	1543	1508	1405
1399583627291601253	1503	1533	1508	1405
1399583627301592441	1502	1531	1508	1404
1399583627326674090	1501	1531	1508	1405
1399583627341655339	1501	1529	1507	1406
1399583627356617728	1496	1527	1507	1406
1399583627376644038	1497	1516	1507	1406
1399583627391614419	1494	1517	1507	1406
1399583627406647136	1493	1520	1507	1406
1399583627426677732	1489	1522	1507	1406
1399583627441643822	1489	1533	1507	1407
1399583627456650227	1493	1522	1507	1408
1399583627471678733	1493	1525	1507	1406
1399583627486689131	1497	1546	1507	1405
1399583627506636687	1493	1546	1507	1404
1399583627526664100	1499	1549	1507	1405
1399583627536564417	1495	1537	1507	1407
1399583627556688154	1500	1523	1507	1408
1399583627576623565	1500	1521	1507	1408
1399583627596571835	1492	1534	1507	1406
1399583627611607906	1501	1527	1507	1406
1399583627631604031	1495	1525	1507	1407
1399583627646667246	1489	1528	1507	1406
1399583627661663454	1487	1522	1507	1405
1399583627681673791	1489	1521	1507	1405
1399583627696645715	1497	1515	1507	1405
1399583627711669310	1503	1518	1507	1404
1399583627736664454	1491	1529	1507	1404
1399583627756680111	1486	1521	1507	1404
1399583627771645978	1495	1528	1507	1403
1399583627791645067	1488	1541	1507	1402
1399583627801599399	1488	1531	1507	1403
1399583627826631144	1491	1526	1507	1404
1399583627841610502	1485	1526	1507	1404
1399583627861607023	1487	1529	1507	1403
1399583627881659175	1489	1522	1508	1403
1399583627896648417	1485	1530	1507	1403
1399583627911677446	1487	1535	1508	1402
1399583627926636619	1494	1531	1508	1403
1399583627946653121	1502	1517	1508	1404
1399583627961990613	1499	1520	1508	1404
1399583627976862656	1496	1517	1508	1404
1399583628006964349	1499	1521	1508	1403
1399583628026938942	1501	1526	1508	1403
1399583628036636620	1501	1522	1508	1405
1399583628056705447	1504	1509	1508	1406
1399583628076878363	1501	1510	1508	1407
1399583628091781302	1506	1515	1508	1406
1399583628106947650	1512	1529	1508	1405
1399583628126773890	1518	1534	1508	1405
1399583628142007919	1506	1535	1508	1406
1399583628151857674	1509	1526	1508	1408
1399583628171879848	1507	1518	1508	1409
1399583628197018670	1507	1536	1508	1408
1399583628211689357	1505	1529	1508	1408
1399583628226663405	1504	1526	1508	1409
1399583628251739633	1506	1523	1508	1409
1399583628261632646	1502	1531	1508	1409
1399583628281673895	1504	1531	1508	1410
1399583628296702435	1508	1525	1508	1411
1399583628311667681	1506	1521	1508	1412
1399583628331666875	1507	1524	1508	1412
1399583628346734913	1506	1533	1508	1411
1399583628361944650	1504	1529	1508	1411
1399583628381955615	1504	1534	1507	1410
1399583628396917949	1519	1536	1507	1410
1399583628412041122	1513	1540	1507	1410
1399583628431986442	1515	1536	1507	1410
1399583628446945937	1511	1529	1507	1412
1399583628461862887	1510	1527	1507	1412
1399583628481928569	1516	1525	1506	1411
1399583628496896723	1510	1533	1506	1410
1399583628516824831	1512	1537	1506	1410
1399583628531977619	1520	1535	1505	1409
1399583628546940587	1516	1539	1505	1408
1399583628576925895	1518	1527	1505	1408
1399583628591923910	1513	1523	1505	1407
1399583628611730642	1515	1535	1504	1407
1399583628631964601	1520	1520	1504	1407
1399583628646944764	1511	1521	1504	1407
1399583628661870780	1520	1520	1504	1406
1399583628681967262	1518	1516	1504	1405
1399583628696957276	1517	1519	1504	1404
1399583628716901699	1514	1523	1504	1402
1399583628731973052	1519	1521	1504	1401
1399583628751983253	1520	1532	1504	1402
1399583628761967799	1518	1530	1504	1400
1399583628781804511	1519	1526	1504	1400
1399583628796924799	1524	1526	1504	1400
1399583628811730606	1515	1523	1505	1401
1399583628831829493	1512	1524	1505	1401
1399583628857000295	1513	1529	1505	1400
1399583628876922089	1515	1535	1505	1399
1399583628891883709	1518	1530	1506	1399
1399583628906873984	1514	1527	1506	1400
1399583628921925527	1510	1522	1506	1399
1399583628936926604	1508	1527	1506	1399
1399583628962038285	1512	1517	1506	1400
1399583628981995898	1518	1519	1507	1399
1399583629001940456	1520	1512	1507	1401
1399583629012028514	1519	1505	1507	1401
1399583629042021126	1509	1522	1508	1399
1399583629056907853	1512	1515	1508	1399
1399583629076956912	1513	1518	1509	1401
1399583629096909523	1508	1513	1509	1400
1399583629111936929	1512	1514	1509	1400
1399583629131996569	1508	1524	1510	1400
1399583629147033071	1512	1531	1510	1399
1399583629161846715	1512	1532	1510	1400
1399583629187059571	1510	1524	1511	1401
1399583629202005602	1511	1535	1512	1401
1399583629226979895	1509	1526	1512	1401
1399583629246959434	1518	1519	1513	1402
1399583629267039884	1517	1525	1513	1403
1399583629281953089	1519	1526	1514	1403
1399583629296946246	1513	1519	1514	1402
1399583629311868672	1514	1524	1515	1402
1399583629331977438	1519	1525	1515	1402
1399583629346794938	1517	1526	1516	1403
1399583629361863677	1519	1517	1516	1404
1399583629382226711	1514	1514	1516	1403
1399583629396699080	1510	1524	1517	1403
1399583629426987484	1509	1528	1517	1403
1399583629451997815	1513	1536	1518	1403
1399583629461966657	1519	1534	1518	1402
1399583629486944316	1522	1541	1518	1401
1399583629506907846	1524	1545	1518	1401
1399583629526988938	1525	1536	1518	1402
1399583629541866831	1517	1522	1518	1403
1399583629561653260	1519	1514	1518	1404
1399583629581793945	1526	1537	1518	1401
1399583629596761870	1515	1522	1518	1403
1399583629627014914	1524	1531	1518	1402
1399583629641955376	1518	1525	1517	1402
1399583629656853077	1515	1527	1517	1402
1399583629686979674	1519	1525	1516	1402
1399583629706991835	1515	1532	1516	1402
1399583629721904073	1517	1528	1516	1402
1399583629741983303	1515	1521	1516	1402
1399583629756946661	1517	1519	1515	1402
1399583629776970858	1509	1520	1515	1403
1399583629791923633	1505	1520	1515	1404
1399583629806866192	1505	1524	1514	1403
1399583629827014349	1508	1528	1514	1402
1399583629841920770	1511	1546	1514	1402
1399583629856910997	1510	1541	1514	1403
1399583629876922653	1507	1532	1513	1404
1399583629886885714	1511	1525	1513	1404
1399583629901822043	1513	1527	1513	1404
1399583629926920596	1510	1523	1513	1404
1399583629941903563	1503	1519	1512	1404
1399583629951867421	1505	1522	1512	1403
1399583629971927940	1500	1518	1512	1404
1399583629991958242	1498	1513	1512	1405
1399583630006984902	1496	1503	1512	1405
1399583630027015435	1497	1510	1511	1405
1399583630046965315	1510	1512	1511	1406
1399583630061846412	1504	1517	1511	1405
1399583630091970725	1508	1509	1511	1406
1399583630106905547	1498	1523	1510	1406
1399583630121903150	1499	1519	1510	1405
1399583630136965926	1497	1523	1510	1407
1399583630161747161	1497	1509	1510	1407
1399583630181892075	1491	1517	1510	1408
1399583630201919210	1490	1513	1509	1407
1399583630211966754	1500	1514	1510	1408
1399583630231657072	1498	1525	1509	1408
1399583630246735435	1493	1524	1509	1408
1399583630261913073	1496	1518	1509	1408
1399583630281958794	1493	1508	1509	1411
1399583630296646870	1497	1497	1509	1411
1399583630311637032	1496	1506	1509	1411
1399583630331631890	1492	1507	1509	1411
1399583630346724468	1490	1515	1509	1411
1399583630361641277	1477	1518	1509	1412
1399583630386641247	1483	1506	1509	1412
1399583630411643278	1481	1496	1509	1414
1399583630426691570	1475	1498	1509	1414
1399583630446687851	1489	1509	1509	1413
1399583630461678270	1493	1512	1509	1413
1399583630491775889	1494	1510	1509	1414
1399583630506667370	1496	1507	1509	1413
1399583630526835529	1494	1516	1509	1412
1399583630541679837	1493	1518	1509	1411
1399583630561685951	1498	1511	1509	1411
1399583630581691509	1493	1520	1509	1411
1399583630606693080	1499	1508	1509	1411
1399583630626694533	1504	1514	1509	1410
1399583630636685137	1503	1523	1509	1410
1399583630651643158	1506	1522	1509	1409
1399583630671683046	1511	1517	1509	1408
1399583630691681269	1506	1518	1509	1408
1399583630706671729	1506	1518	1509	1407
1399583630721723326	1506	1517	1509	1408
1399583630741612145	1506	1507	1510	1408
1399583630756711431	1513	1507	1510	1408
1399583630776729998	1512	1512	1510	1407
1399583630796690096	1511	1503	1510	1408
1399583630811650531	1513	1507	1510	1407
1399583630841676747	1515	1504	1511	1409
1399583630856714329	1515	1497	1511	1408
1399583630871669569	1519	1510	1511	1406
1399583630886713078	1508	1534	1511	1405
1399583630911739757	1518	1507	1512	1408
1399583630931745312	1513	1525	1512	1406
1399583630946659435	1526	1534	1512	1404
1399583630961629190	1527	1539	1512	1405
1399583630981659757	1536	1530	1513	1406
1399583630996676744	1524	1511	1513	1407
1399583631011688346	1531	1515	1513	1407
1399583631031670648	1530	1526	1513	1406
1399583631046663828	1528	1548	1513	1404
1399583631061674715	1522	1550	1513	1403
1399583631081714299	1532	1549	1513	1405
1399583631096701442	1531	1521	1513	1407
1399583631111767202	1535	1524	1513	1407
1399583631136768641	1537	1530	1513	1406
1399583631156725095	1526	1522	1513	1408
1399583631176700747	1541	1534	1513	1406
1399583631186681013	1530	1533	1512	1405
1399583631206674415	1540	1548	1512	1406
1399583631226718122	1545	1533	1512	1407
1399583631246683587	1534	1524	1512	1407
1399583631261694731	1547	1537	1511	1406
1399583631291712469	1540	1548	1511	1406
1399583631306721432	1537	1551	1510	1405
1399583631321703452	1546	1549	1510	1405
1399583631336674391	1536	1531	1510	1408
1399583631351692306	1527	1531	1509	1409
1399583631381669114	1529	1555	1509	1406
1399583631396663321	1546	1531	1508	1405
1399583631411639521	1534	1527	1508	1408
1399583631431699697	1536	1533	1508	1406
1399583631446696796	1534	1541	1508	1406
1399583631461665942	1532	1548	1508	1405
1399583631481665426	1533	1554	1508	1404
1399583631496668641	1527	1542	1507	1404
1399583631511708969	1522	1534	1507	1405
1399583631541676848	1522	1534	1508	1404
1399583631556675137	1513	1533	1508	1405
1399583631581684884	1514	1539	1508	1404
1399583631596648580	1519	1546	1508	1404
1399583631611709037	1514	1537	1509	1405
1399583631631721494	1517	1535	1509	1407
1399583631646736988	1513	1539	1509	1406
1399583631666666348	1511	1547	1509	1405
1399583631681659829	1505	1561	1510	1404
1399583631696634718	1511	1550	1510	1403
1399583631711670534	1509	1550	1510	1404
1399583631731674838	1503	1546	1511	1406
1399583631756708739	1510	1546	1511	1405
1399583631776716219	1506	1527	1512	1406
1399583631791649889	1502	1525	1512	1406
1399583631801695483	1501	1524	1512	1407
1399583631821682718	1499	1530	1513	1408
1399583631846708609	1486	1531	1513	1406
1399583631861662180	1497	1539	1514	1407
1399583631876688455	1493	1542	1514	1408
1399583631901790462	1493	1522	1514	1409
1399583631911998445	1496	1509	1515	1411
1399583631932085433	1495	1517	1515	1409
1399583631946881545	1492	1516	1515	1407
1399583631962090311	1492	1527	1516	1408
1399583631981864827	1491	1514	1516	1408
1399583631996891755	1496	1503	1516	1410
1399583632011888452	1492	1493	1516	1411
1399583632032026574	1495	1499	1517	1411
1399583632046940731	1491	1502	1517	1412
1399583632061666287	1487	1501	1517	1412
1399583632081712632	1490	1517	1517	1410
1399583632096650092	1499	1524	1517	1410
1399583632111687137	1487	1500	1517	1413
1399583632136706763	1491	1508	1517	1412
1399583632146685317	1493	1504	1517	1410
1399583632161717009	1493	1510	1517	1411
1399583632181695820	1490	1500	1517	1412
1399583632196687563	1495	1496	1517	1413
1399583632211671851	1493	1497	1517	1412
1399583632241696510	1498	1495	1517	1412
1399583632256691577	1500	1504	1517	1412
1399583632276704895	1514	1509	1517	1411
1399583632291690780	1511	1518	1516	1413
1399583632306668582	1512	1505	1516	1413
1399583632321644576	1520	1499	1516	1413
1399583632336661920	1515	1505	1516	1412
1399583632351658105	1528	1517	1515	1412
1399583632381649490	1530	1509	1515	1411
1399583632396738346	1513	1509	1514	1411
1399583632411720570	1511	1505	1513	1414
1399583632431740920	1519	1490	1513	1414
1399583632446668141	1510	1509	1512	1413
1399583632461672220	1513	1524	1512	1412
1399583632481667600	1516	1525	1511	1412
1399583632506676382	1514	1522	1510	1412
1399583632526705426	1515	1528	1509	1412
1399583632546704995	1521	1515	1508	1414
1399583632561739496	1522	1502	1508	1415
1399583632591698845	1522	1513	1507	1414
1399583632606713821	1525	1500	1506	1415
1399583632626715031	1527	1504	1505	1416
1399583632636680414	1529	1506	1504	1414
1399583632656704616	1530	1527	1504	1414
1399583632671702955	1540	1530	1503	1413
1399583632691922023	1529	1528	1502	1414
1399583632706997285	1525	1521	1502	1415
1399583632726948077	1530	1519	1501	1416
1399583632746904203	1519	1508	1500	1416
1399583632761893226	1522	1512	1500	1416
1399583632781917603	1512	1515	1499	1417
1399583632796930206	1519	1523	1499	1417
1399583632811891591	1521	1521	1498	1419
1399583632831927516	1517	1517	1498	1419
1399583632846879668	1516	1532	1498	1418
1399583632861879669	1517	1532	1498	1418
1399583632881917215	1518	1536	1497	1418
1399583632896920073	1509	1540	1497	1419
1399583632912013505	1509	1543	1497	1418
1399583632931999439	1504	1543	1497	1419
1399583632961630552	1507	1543	1497	1418
1399583632981630364	1502	1538	1497	1418
1399583633001593863	1504	1545	1497	1414
1399583633031650011	1496	1528	1498	1417
1399583633046705897	1495	1518	1498	1416
1399583633061590014	1493	1526	1498	1414
1399583633081762379	1502	1526	1498	1413
1399583633096672061	1496	1529	1498	1413
1399583633116694513	1487	1525	1499	1411
1399583633131651354	1495	1520	1499	1410
1399583633146700542	1502	1527	1499	1410
1399583633166637411	1476	1530	1499	1410
1399583633181619871	1493	1520	1500	1407
1399583633196814518	1491	1526	1500	1407
1399583633211658546	1482	1524	1501	1408
1399583633231566019	1491	1525	1501	1406
1399583633246614516	1496	1519	1502	1406
1399583633261603015	1495	1521	1503	1405
1399583633281613949	1494	1518	1503	1406
1399583633296595246	1492	1504	1504	1406
1399583633311622099	1487	1509	1504	1405
1399583633326579271	1487	1499	1505	1405
1399583633356650489	1498	1518	1506	1403
1399583633381580711	1496	1517	1507	1403
1399583633396657564	1486	1502	1507	1405
1399583633411611033	1497	1496	1508	1404
1399583633441678396	1494	1497	1508	1404
1399583633456686567	1498	1496	1509	1405
1399583633471678145	1505	1484	1510	1407
1399583633491654793	1504	1494	1510	1408
1399583633511630725	1510	1501	1511	1405
1399583633531613216	1508	1504	1511	1406
1399583633546626222	1515	1517	1511	1407
1399583633576613364	1516	1515	1512	1407
1399583633586620114	1517	1518	1512	1406
1399583633606656505	1514	1521	1513	1407
1399583633626642026	1519	1513	1513	1409
1399583633641590197	1521	1499	1513	1411
1399583633651619084	1517	1497	1513	1411
1399583633676649749	1520	1503	1513	1412
1399583633691660140	1515	1508	1513	1411
1399583633706611509	1515	1507	1513	1412
1399583633726647401	1523	1513	1513	1412
1399583633746610773	1517	1500	1513	1415
1399583633761545677	1526	1502	1513	1415
1399583633781562831	1526	1499	1513	1413
1399583633796667396	1526	1513	1512	1412
1399583633821599965	1530	1524	1512	1412
1399583633831612606	1525	1518	1512	1412
1399583633846568817	1542	1521	1512	1413
1399583633861608914	1532	1513	1512	1413
1399583633881638389	1535	1518	1512	1414
1399583633896677329	1531	1524	1512	1414
1399583633911631482	1532	1517	1512	1415
1399583633931626987	1537	1519	1512	1416
1399583633946629445	1545	1518	1512	1413
1399583633961622900	1545	1517	1512	1413
1399583633981586283	1547	1539	1512	1413
1399583633996607718	1533	1530	1512	1415
1399583634011644874	1544	1529	1512	1415
1399583634046642445	1537	1529	1512	1418
1399583634061658069	1532	1520	1513	1417
1399583634076642038	1541	1526	1513	1416
1399583634096656674	1530	1526	1513	1417
1399583634111684708	1535	1536	1514	1415
1399583634131658360	1532	1545	1514	1415
1399583634146613598	1533	1534	1514	1415
1399583634161651908	1528	1534	1514	1415
1399583634181679684	1532	1539	1515	1414
1399583634206680254	1529	1539	1515	1413
1399583634226628646	1525	1536	1515	1414
1399583634241543467	1528	1546	1516	1412
1399583634256640102	1532	1549	1516	1411
1399583634286684822	1526	1537	1516	1412
1399583634301632171	1522	1525	1517	1413
1399583634321638961	1526	1528	1517	1412
1399583634341584015	1524	1552	1517	1410
1399583634351645471	1524	1556	1517	1409
1399583634376606781	1524	1557	1517	1409
1399583634391639809	1521	1545	1517	1408
1399583634406606625	1516	1547	1517	1409
1399583634426688310	1517	1547	1517	1408
1399583634446647891	1512	1542	1517	1408
1399583634461608770	1510	1548	1517	1407
1399583634476622824	1513	1547	1517	1407
1399583634506657276	1516	1540	1517	1406
1399583634521617844	1513	1544	1517	1407
1399583634536559329	1513	1536	1517	1405
1399583634556621009	1507	1532	1517	1406
1399583634576659750	1512	1523	1517	1407
1399583634601674893	1517	1529	1517	1407
1399583634611673420	1512	1527	1517	1406
1399583634631589987	1511	1517	1517	1407
1399583634646662949	1515	1534	1516	1406
1399583634661587668	1513	1527	1516	1406
1399583634681671839	1516	1535	1516	1405
1399583634696636539	1512	1539	1516	1406
1399583634726600548	1519	1531	1516	1406
1399583634741662105	1509	1523	1516	1406
1399583634756658886	1511	1531	1516	1406
1399583634771623390	1511	1525	1516	1406
1399583634786630974	1512	1519	1516	1406
1399583634801619263	1510	1513	1516	1407
1399583634821619276	1508	1510	1516	1407
1399583634841630182	1518	1520	1516	1406
1399583634856630304	1523	1519	1516	1405
1399583634876658127	1521	1525	1516	1405
1399583634896662654	1518	1513	1515	1406
1399583634911651916	1525	1505	1515	1406
1399583634931628930	1525	1511	1515	1406
1399583634956929843	1533	1501	1515	1407
1399583634976994810	1536	1496	1515	1407
1399583634991974873	1526	1493	1515	1408
1399583635007037840	1526	1502	1515	1407
1399583635021953088	1535	1500	1515	1406
1399583635036976646	1536	1512	1514	1405
1399583635051926452	1537	1516	1514	1405
1399583635076677890	1544	1504	1514	1406
1399583635096881767	1544	1501	1514	1406
1399583635111986753	1549	1512	1514	1405
1399583635131938490	1552	1496	1514	1407
1399583635146955000	1550	1487	1514	1409
1399583635161834838	1543	1495	1514	1409
1399583635191990765	1546	1488	1514	1409
1399583635207059861	1544	1480	1513	1409
1399583635226968091	1550	1491	1513	1409
1399583635241991373	1533	1493	1513	1408
1399583635257049164	1537	1503	1513	1408
1399583635271931824	1538	1495	1513	1410
1399583635287024846	1541	1479	1513	1411
1399583635306936822	1546	1479	1513	1413
1399583635321981699	1555	1472	1513	1411
1399583635341949366	1550	1491	1513	1411
1399583635356929403	1548	1496	1513	1409
1399583635376684306	1556	1500	1513	1410
1399583635391974345	1545	1497	1513	1412
1399583635412029730	1557	1486	1513	1412
1399583635431797158	1542	1502	1513	1411
1399583635446978533	1541	1502	1514	1412
1399583635476800562	1540	1497	1514	1411
1399583635491986302	1537	1497	1514	1412
1399583635506964035	1541	1495	1514	1411
1399583635521928870	1535	1501	1514	1411
1399583635547055944	1526	1500	1515	1411
1399583635561754008	1528	1505	1515	1411
1399583635581914639	1525	1512	1515	1411
1399583635596665591	1524	1510	1515	1411
1399583635611885426	1519	1513	1515	1410
1399583635631881154	1512	1517	1515	1410
1399583635646909492	1519	1505	1515	1410
1399583635661874785	1521	1510	1515	1410
1399583635692013565	1523	1508	1515	1410
1399583635706891315	1521	1510	1515	1410
1399583635721719432	1525	1518	1515	1410
1399583635736965271	1516	1519	1515	1410
1399583635751807501	1519	1515	1514	1410
1399583635777036780	1513	1537	1514	1409
1399583635796987450	1524	1527	1514	1411
1399583635811991623	1521	1507	1514	1412
1399583635831933690	1517	1506	1514	1413
1399583635846884308	1516	1517	1514	1413
1399583635862368513	1515	1530	1514	1412
1399583635881641052	1515	1543	1514	1411
1399583635896664577	1519	1535	1514	1413
1399583635926683881	1516	1535	1513	1413
1399583635941717004	1500	1536	1513	1413
1399583635956709040	1503	1541	1513	1414
1399583635976691202	1507	1528	1513	1415
1399583635986671321	1505	1517	1512	1415
1399583636011680354	1504	1533	1512	1416
1399583636026693986	1512	1518	1511	1415
1399583636046654036	1511	1523	1511	1415
1399583636066776221	1508	1533	1511	1413
1399583636081879998	1516	1545	1510	1414
1399583636096701553	1501	1538	1510	1414
1399583636111905481	1509	1530	1509	1415
1399583636131880192	1507	1529	1509	1415
1399583636146864636	1511	1536	1509	1414
1399583636176958123	1514	1539	1508	1415
1399583636191887497	1518	1545	1508	1413
1399583636206950825	1521	1560	1508	1414
1399583636226719322	1516	1545	1507	1412
1399583636236682574	1520	1555	1507	1415
1399583636256675916	1525	1540	1507	1415
1399583636271746964	1512	1543	1507	1416
1399583636286677529	1518	1531	1506	1416
1399583636306691587	1519	1541	1506	1414
1399583636326724541	1527	1553	1506	1412
1399583636336713797	1517	1554	1506	1412
1399583636356705477	1520	1546	1506	1413
1399583636376965176	1520	1544	1506	1414
1399583636392021342	1520	1527	1505	1413
1399583636411912596	1517	1542	1505	1411
1399583636432060366	1514	1538	1506	1411
1399583636446927357	1518	1542	1506	1411
1399583636462060090	1519	1537	1505	1411
1399583636481911839	1513	1534	1506	1411
1399583636496945766	1505	1528	1506	1411
1399583636511918557	1502	1531	1506	1410
1399583636526957817	1509	1539	1506	1410
1399583636546946448	1513	1532	1506	1410
1399583636561828984	1506	1528	1506	1410
1399583636581866122	1511	1521	1506	1413
1399583636596874950	1519	1534	1507	1413
1399583636611830103	1513	1536	1507	1412
1399583636631983281	1512	1535	1507	1412
1399583636646873666	1518	1533	1507	1411
1399583636676963754	1518	1532	1507	1456
1399583636691972489	1515	1533	1507	1413
1399583636706748394	1508	1536	1507	1413
1399583636721684252	1514	1541	1507	1412
1399583636736635297	1515	1553	1507	1411
1399583636751663157	1518	1547	1507	1411
1399583636776718557	1509	1542	1507	1414
1399583636796681084	1511	1536	1507	1414
1399583636816714391	1511	1531	1507	1413
1399583636831730119	1508	1531	1507	1414
1399583636846682731	1500	1533	1507	1414
1399583636861630351	1505	1525	1507	1415
1399583636881643612	1509	1528	1507	1417
1399583636896718086	1500	1524	1506	1418
1399583636911663283	1501	1514	1507	1418
1399583636931621363	1496	1524	1507	1418
1399583636946642437	1497	1531	1507	1416
1399583636961655603	1494	1531	1507	1416
1399583636991715193	1498	1525	1507	1418
1399583637006682417	1492	1530	1507	1418
1399583637026923369	1496	1520	1508	1418
1399583637041906699	1500	1518	1508	1418
1399583637057108250	1489	1530	1508	1419
1399583637076914867	1500	1513	1509	1456
1399583637096952143	1487	1540	1509	1419
1399583637112004650	1490	1529	1509	1419
1399583637131999099	1491	1521	1510	1420
1399583637146882636	1490	1519	1510	1421
1399583637162084468	1483	1519	1511	1422
1399583637181721839	1484	1526	1511	1421
1399583637196644811	1486	1527	1512	1421
1399583637211686292	1490	1525	1512	1421
1399583637231649756	1492	1531	1512	1421
1399583637246685097	1492	1521	1513	1419
1399583637261669150	1494	1520	1513	1418
1399583637276678591	1489	1520	1513	1420
1399583637296683475	1494	1508	1513	1419
1399583637316702928	1492	1514	1513	1419
1399583637331697519	1498	1513	1513	1419
1399583637346973264	1499	1522	1513	1418
1399583637377140044	1506	1513	1513	1457
1399583637391928938	1495	1527	1513	1419
1399583637406912193	1495	1520	1513	1419
1399583637421850276	1498	1516	1513	1419
1399583637436887547	1499	1529	1512	1418
1399583637452049729	1498	1531	1512	1416
1399583637476966603	1496	1533	1511	1417
1399583637486920074	1498	1528	1511	1419
1399583637501723872	1501	1523	1511	1418
1399583637526722328	1498	1536	1510	1417
1399583637546708680	1505	1511	1510	1417
1399583637561702394	1509	1510	1509	1417
1399583637596710704	1512	1527	1508	1415
1399583637611672446	1511	1526	1508	1415
1399583637631737182	1518	1529	1507	1414
1399583637646699975	1520	1529	1507	1413
1399583637661684431	1518	1536	1507	1413
1399583637681716617	1525	1526	1506	1413
1399583637706660066	1524	1527	1506	1413
1399583637721677250	1522	1534	1506	1413
1399583637736679619	1527	1519	1505	1412
1399583637756660968	1530	1521	1505	1413
1399583637776699913	1531	1525	1505	1433
1399583637796668578	1529	1524	1505	1412
1399583637811656789	1533	1528	1505	1410
1399583637826893168	1531	1540	1505	1410
1399583637846957668	1535	1532	1504	1409
1399583637861903379	1539	1530	1505	1410
1399583637881936197	1541	1528	1505	1410
1399583637896948175	1540	1535	1505	1408
1399583637911836347	1543	1538	1505	1406
1399583637931823730	1544	1540	1505	1406
1399583637946847569	1553	1535	1505	1405
1399583637976646457	1553	1528	1505	1408
1399583637991652993	1557	1514	1505	1407
1399583638016677647	1548	1528	1505	1404
1399583638041620505	1555	1531	1505	1402
1399583638061635785	1559	1531	1505	1401
1399583638081606201	1567	1525	1505	1401
1399583638096587331	1553	1516	1506	1401
1399583638111595318	1558	1517	1506	1400
1399583638131623042	1553	1506	1506	1401
1399583638146595197	1563	1509	1506	1399
1399583638161704725	1551	1528	1506	1397
1399583638181625083	1548	1517	1507	1398
1399583638196592750	1552	1518	1507	1396
1399583638211634574	1544	1510	1507	1398
1399583638226588995	1554	1513	1508	1395
1399583638246639147	1547	1521	1508	1395
1399583638261617546	1549	1519	1508	1395
1399583638281611298	1555	1509	1509	1394
1399583638296566574	1541	1506	1510	1394
1399583638311683987	1547	1512	1510	1392
1399583638331697835	1531	1521	1510	1395
1399583638346630955	1554	1517	1511	1396
1399583638376774372	1561	1503	1512	1360
1399583638391632708	1556	1502	1512	1395
1399583638406656690	1546	1500	1513	1395
1399583638421650159	1557	1500	1513	1395
1399583638436643145	1550	1504	1514	1395
1399583638461669555	1535	1505	1515	1396
1399583638481631439	1531	1508	1515	1394
1399583638496642959	1538	1513	1516	1394
1399583638511601871	1530	1522	1516	1395
1399583638541625951	1530	1488	1517	1399
1399583638556630412	1523	1500	1517	1397
1399583638576620661	1529	1490	1518	1347
1399583638591620509	1534	1521	1518	1396
1399583638606627738	1526	1522	1518	1396
1399583638626585874	1531	1512	1518	1396
1399583638641651112	1520	1516	1518	1397
1399583638651576575	1530	1505	1518	1399
1399583638671645386	1524	1483	1519	1347
1399583638696613499	1521	1514	1519	1397
1399583638711692369	1517	1510	1519	1397
1399583638731638432	1522	1507	1519	1398
1399583638746607918	1527	1512	1519	1398
1399583638766549266	1509	1502	1519	1347
1399583638781612834	1525	1505	1519	1398
1399583638796606688	1515	1502	1519	1399
1399583638811621385	1519	1494	1519	1400
1399583638841651322	1516	1520	1519	1397
1399583638856689783	1513	1517	1519	1399
1399583638876628267	1498	1496	1519	1347
1399583638891570137	1509	1498	1519	1401
1399583638906596479	1507	1501	1519	1402
1399583638921676794	1511	1501	1519	1401
1399583638936689377	1513	1514	1519	1401
1399583638956662642	1508	1513	1519	1401
1399583638976666554	1508	1515	1519	1347
1399583639001667896	1515	1520	1519	1402
1399583639011603009	1513	1521	1519	1402
1399583639031690163	1512	1518	1519	1404
1399583639046642067	1510	1515	1519	1405
1399583639076632863	1484	1526	1519	1347
1399583639091608127	1506	1517	1519	1403
1399583639106633015	1507	1521	1519	1404
1399583639121588800	1507	1525	1519	1404
1399583639141642884	1504	1527	1519	1405
1399583639156610599	1502	1527	1519	1405
1399583639171626394	1482	1533	1519	1347
1399583639186607441	1511	1525	1519	1405
1399583639206659121	1511	1520	1519	1406
1399583639221618727	1512	1527	1519	1405
1399583639241599548	1512	1535	1518	1405
1399583639256590706	1515	1532	1518	1405
1399583639276681198	1489	1547	1518	1347
1399583639296636072	1513	1536	1517	1406
1399583639311593625	1520	1534	1517	1407
1399583639331662136	1512	1536	1517	1408
1399583639356616403	1526	1544	1516	1408
1399583639376648738	1490	1575	1516	1347
1399583639391669295	1506	1533	1516	1409
1399583639401580227	1512	1524	1515	1409
1399583639421574642	1512	1533	1515	1409
1399583639436643964	1517	1543	1515	1408
1399583639451605140	1514	1540	1514	1408
1399583639481615014	1505	1540	1514	1407
1399583639496614583	1516	1541	1513	1408
1399583639511618753	1522	1538	1513	1408
1399583639541628998	1512	1538	1512	1408
1399583639556619577	1521	1538	1512	1408
1399583639576586848	1514	1576	1512	1347
1399583639591598167	1531	1547	1511	1406
1399583639606581401	1525	1547	1511	1407
1399583639621717628	1524	1549	1511	1407
1399583639636672294	1522	1547	1510	1405
1399583639651672222	1523	1555	1510	1406
1399583639671637300	1515	1608	1510	1347
1399583639686650783	1521	1541	1510	1404
1399583639706660628	1520	1543	1509	1404
1399583639726596353	1514	1540	1509	1405
1399583639741657906	1509	1527	1509	1405
1399583639756605756	1510	1526	1509	1405
1399583639776654524	1506	1538	1508	1347
1399583639796613769	1511	1525	1508	1405
1399583639811640376	1516	1522	1508	1405
1399583639831635099	1513	1520	1508	1405
1399583639846640191	1522	1531	1508	1403
1399583639861574195	1518	1530	1508	1405
1399583639876597011	1514	1530	1508	1403
1399583639896621016	1513	1525	1508	1405
1399583639911605680	1516	1523	1508	1405
1399583639931594953	1521	1515	1508	1405
1399583639946682188	1516	1531	1508	1405
1399583639961548769	1523	1533	1508	1404
1399583639981603624	1514	1536	1508	1403
1399583639996631745	1517	1536	1508	1404
1399583640011611056	1517	1531	1508	1405
1399583640031599527	1512	1529	1508	1405
1399583640056641023	1512	1525	1508	1406
1399583640076606146	1506	1539	1508	1347
1399583640091673189	1517	1524	1508	1405
1399583640111593633	1518	1521	1508	1406
1399583640131615902	1507	1523	1508	1406
1399583640146623088	1509	1520	1509	1407
1399583640171670659	1504	1517	1509	1347
1399583640191687516	1509	1510	1509	1409
1399583640206635393	1505	1521	1509	1406
1399583640221632624	1510	1523	1509	1407
1399583640241643371	1521	1515	1509	1408
1399583640256680840	1513	1513	1509	1408
1399583640271620577	1512	1497	1509	1346
1399583640291625710	1516	1503	1509	1411
1399583640306623966	1516	1496	1509	1413
1399583640326647301	1521	1497	1509	1416
1399583640336623019	1511	1495	1509	1417
1399583640361577455	1513	1507	1508	1415
1399583640381644060	1516	1498	1508	1418
1399583640401627691	1519	1511	1508	1416
1399583640426632862	1531	1520	1508	1415
1399583640436720993	1524	1510	1508	1417
1399583640451693834	1511	1507	1508	1418
1399583640476624096	1511	1501	1508	1358
1399583640496665632	1513	1517	1507	1416
1399583640511538348	1510	1515	1507	1418
1399583640541657278	1516	1507	1507	1418
1399583640556633406	1510	1508	1507	1418
1399583640576649118	1511	1507	1507	1366
1399583640596605601	1509	1508	1507	1419
1399583640611690310	1531	1496	1507	1417
1399583640641686281	1525	1502	1507	1417
1399583640656608482	1525	1496	1507	1418
1399583640676656192	1519	1482	1507	1346
1399583640686560390	1523	1499	1506	1415
1399583640706574190	1532	1501	1506	1414
1399583640726657762	1526	1507	1506	1413
1399583640736594606	1534	1499	1506	1414
1399583640756637276	1533	1501	1506	1414
1399583640776555451	1542	1491	1506	1346
1399583640791629118	1526	1505	1506	1411
1399583640811599306	1528	1508	1506	1412
1399583640831657502	1530	1501	1506	1410
1399583640846661738	1517	1513	1506	1409
1399583640891675317	1534	1512	1506	1406
1399583640906652966	1533	1511	1506	1406
1399583640921631101	1527	1506	1506	1407
1399583640941706034	1534	1507	1506	1404
1399583640956602556	1533	1510	1506	1404
1399583640976636517	1528	1524	1506	1370
1399583640991640156	1532	1512	1506	1402
1399583641006668718	1536	1517	1506	1401
1399583641026653482	1543	1514	1507	1401
1399583641046652609	1540	1504	1507	1403
1399583641061689088	1533	1502	1507	1402
1399583641081686350	1531	1504	1507	1401
1399583641096641557	1544	1519	1507	1400
1399583641111611231	1539	1518	1507	1399
1399583641131670710	1543	1512	1507	1399
1399583641146639136	1535	1507	1508	1400
1399583641161677913	1533	1518	1508	1400
1399583641191691047	1541	1503	1508	1402
1399583641206664756	1546	1508	1508	1402
1399583641226684957	1540	1510	1509	1402
1399583641246599267	1530	1509	1509	1403
1399583641261644351	1529	1515	1509	1402
1399583641291704156	1533	1500	1509	1404
1399583641311623593	1535	1497	1510	1405
1399583641331662569	1529	1506	1510	1405
1399583641361634430	1528	1502	1511	1405
1399583641381622940	1528	1491	1511	1408
1399583641401664954	1527	1496	1511	1409
1399583641411668157	1537	1499	1512	1409
1399583641431657233	1527	1499	1512	1409
1399583641446633065	1531	1510	1512	1409
1399583641461595162	1522	1509	1512	1409
1399583641476666262	1527	1509	1513	1410
1399583641496630535	1523	1510	1513	1410
1399583641511592776	1527	1515	1513	1411
1399583641541671673	1523	1506	1513	1412
1399583641556637748	1522	1507	1513	1414
1399583641576720199	1525	1509	1514	1458
1399583641586654716	1519	1526	1514	1412
1399583641601563193	1516	1523	1514	1414
1399583641621624894	1523	1522	1514	1414
1399583641641672913	1514	1497	1514	1416
1399583641656658639	1510	1502	1514	1417
1399583641671604190	1518	1507	1514	1458
1399583641691647248	1504	1496	1514	1419
1399583641706605992	1507	1506	1514	1417
1399583641726627553	1512	1514	1514	1416
1399583641741650618	1508	1504	1514	1417
1399583641756631614	1506	1509	1515	1417
1399583641776656232	1509	1501	1514	1458
1399583641791649239	1504	1507	1514	1420
1399583641806660709	1504	1503	1514	1419
1399583641821645887	1506	1502	1514	1420
1399583641836615269	1501	1512	1514	1419
1399583641851660299	1503	1517	1514	1419
1399583641871650025	1520	1524	1514	1458
1399583641891670690	1511	1526	1514	1420
1399583641901613653	1510	1521	1514	1418
1399583641926620989	1510	1519	1514	1420
1399583641941757653	1494	1507	1513	1420
1399583641956677224	1494	1508	1513	1420
1399583641976680506	1506	1511	1513	1458
1399583641991661793	1500	1525	1513	1420
1399583642006647120	1499	1528	1513	1419
1399583642026595475	1498	1522	1513	1419
1399583642041620157	1496	1523	1513	1420
1399583642056609070	1498	1521	1513	1419
1399583642071630015	1509	1526	1513	1458
1399583642091653823	1504	1532	1513	1419
1399583642106634869	1494	1525	1513	1419
1399583642136658254	1490	1523	1512	1418
1399583642146687006	1491	1532	1512	1418
1399583642161618315	1498	1524	1513	1416
1399583642191649588	1491	1515	1513	1417
1399583642206636262	1494	1525	1513	1418
1399583642226638549	1490	1523	1513	1417
1399583642246649709	1493	1523	1513	1416
1399583642261704649	1491	1529	1513	1414
1399583642281600805	1492	1539	1514	1415
1399583642296554021	1497	1523	1514	1416
1399583642311621650	1493	1511	1514	1417
1399583642336639288	1500	1516	1515	1415
1399583642351651596	1500	1516	1515	1415
1399583642371683279	1512	1502	1515	1458
1399583642391643348	1487	1513	1516	1417
1399583642401600474	1496	1511	1516	1417
1399583642426687730	1494	1519	1517	1415
1399583642446680495	1484	1521	1517	1416
1399583642461631821	1498	1522	1517	1415
1399583642481670611	1495	1528	1518	1416
1399583642496670927	1498	1514	1518	1417
1399583642511663762	1496	1515	1519	1417
1399583642541657980	1498	1514	1519	1417
1399583642571700084	1500	1512	1520	1459
1399583642586676602	1497	1520	1520	1418
1399583642601675730	1504	1518	1520	1418
1399583642626656669	1506	1515	1520	1419
1399583642641632267	1509	1512	1520	1419
1399583642656560058	1510	1512	1520	1418
1399583642676692597	1520	1518	1520	1459
1399583642686524967	1508	1512	1520	1420
1399583642706637134	1509	1509	1521	1421
1399583642726675418	1505	1503	1521	1421
1399583642741650015	1504	1507	1521	1420
1399583642756623780	1512	1521	1521	1417
1399583642776654302	1517	1517	1521	1459
1399583642791650764	1515	1510	1521	1421
1399583642806669739	1512	1503	1521	1421
1399583642821620470	1513	1508	1521	1421
1399583642836613885	1525	1512	1521	1419
1399583642851643291	1525	1511	1521	1419
1399583642876706331	1530	1513	1521	1459
1399583642896670341	1517	1511	1520	1420
1399583642911674134	1527	1504	1520	1421
1399583642931680914	1528	1499	1520	1421
1399583642946660190	1527	1517	1520	1419
1399583642961579825	1530	1526	1520	1419
1399583642981640665	1533	1517	1520	1419
1399583642996817978	1528	1506	1520	1421
1399583643011626811	1534	1516	1520	1419
1399583643031709772	1549	1523	1520	1417
1399583643046671438	1532	1532	1520	1418
1399583643076699123	1535	1525	1519	1459
1399583643086604016	1547	1524	1519	1416
1399583643106720235	1528	1513	1519	1419
1399583643126737700	1537	1520	1519	1418
1399583643146626982	1537	1512	1518	1420
1399583643166707339	1537	1506	1518	1460
1399583643181647894	1541	1530	1518	1417
1399583643196656778	1541	1528	1518	1417
1399583643211563068	1540	1511	1518	1417
1399583643231644079	1543	1496	1518	1419
1399583643246618755	1546	1499	1517	1419
1399583643261596748	1542	1509	1517	1418
1399583643276631084	1544	1511	1517	1417
1399583643296669938	1544	1517	1517	1420
1399583643321645628	1534	1518	1517	1419
1399583643336643150	1536	1523	1517	1419
1399583643356594690	1528	1515	1517	1420
1399583643376606629	1529	1521	1516	1460
1399583643396610042	1537	1520	1517	1421
1399583643411643200	1522	1507	1516	1421
1399583643441640735	1525	1522	1516	1420
1399583643461697555	1518	1521	1516	1420
1399583643481621450	1522	1525	1516	1419
1399583643496634591	1518	1525	1516	1420
1399583643511617757	1523	1528	1516	1418
1399583643531656992	1520	1520	1516	1419
1399583643561642023	1513	1510	1516	1418
1399583643576656586	1513	1513	1516	1418
1399583643596734815	1504	1525	1516	1419
1399583643611636611	1512	1517	1516	1417
1399583643631648742	1508	1517	1515	1418
1399583643646624394	1499	1523	1515	1418
1399583643661648895	1503	1526	1515	1418
1399583643681616642	1499	1536	1515	1418
1399583643706669364	1511	1524	1515	1419
1399583643726708576	1512	1530	1514	1418
1399583643741656071	1502	1510	1514	1420
1399583643756626715	1508	1495	1514	1420
1399583643771666770	1510	1505	1514	1461
1399583643786649655	1500	1516	1513	1418
1399583643801631525	1513	1521	1513	1416
1399583643821650601	1511	1520	1513	1417
1399583643846672699	1499	1531	1512	1417
1399583643876618896	1502	1523	1512	1417
1399583643896664546	1499	1523	1511	1417
1399583643911607089	1505	1526	1511	1417
1399583643941604639	1500	1534	1511	1414
1399583643956651334	1493	1521	1511	1415
1399583643971612884	1494	1531	1511	1461
1399583643991688564	1492	1510	1511	1414
1399583644006684148	1491	1530	1511	1411
1399583644021662085	1484	1546	1510	1411
1399583644036562442	1498	1516	1510	1410
1399583644061628579	1491	1521	1511	1412
1399583644081642478	1487	1525	1511	1412
1399583644096639003	1501	1515	1511	1410
1399583644111682764	1495	1501	1511	1414
1399583644131597079	1496	1497	1511	1415
1399583644146677868	1492	1501	1512	1415
1399583644161910819	1498	1519	1512	1412
1399583644181619539	1502	1522	1512	1412
1399583644196659043	1506	1531	1512	1412
1399583644211667372	1509	1509	1513	1415
1399583644231635372	1502	1504	1513	1416
1399583644246692135	1502	1508	1513	1415
1399583644261705798	1503	1520	1514	1414
1399583644276680420	1505	1525	1514	1414
1399583644296665091	1502	1539	1514	1413
1399583644311633149	1508	1528	1515	1415
1399583644336659235	1508	1520	1515	1416
1399583644346599001	1504	1517	1515	1416
1399583644361598575	1508	1529	1515	1415
1399583644376634932	1520	1527	1516	1415
1399583644396591098	1508	1522	1516	1416
1399583644411613603	1512	1504	1516	1416
1399583644431605222	1513	1511	1516	1416
1399583644456677773	1510	1512	1515	1416
1399583644476655232	1511	1505	1515	1383
1399583644491682806	1512	1509	1515	1415
1399583644506605643	1514	1514	1515	1415
1399583644521654113	1513	1507	1515	1415
1399583644536640230	1514	1504	1514	1416
1399583644551680616	1512	1508	1514	1415
1399583644576675666	1510	1516	1514	1413
1399583644591578451	1519	1528	1514	1412
1399583644606568593	1514	1520	1513	1412
1399583644621676862	1514	1505	1513	1415
1399583644641661804	1518	1503	1513	1415
1399583644656677171	1519	1513	1513	1413
1399583644676683334	1517	1519	1513	1377
1399583644696613603	1517	1523	1512	1412
1399583644711597440	1515	1524	1512	1411
1399583644731622899	1522	1519	1512	1411
1399583644746623829	1515	1520	1512	1410
1399583644761648519	1510	1532	1512	1409
1399583644781680406	1517	1527	1511	1409
1399583644796663785	1520	1528	1511	1408
1399583644826650496	1518	1514	1511	1408
1399583644841652113	1523	1530	1510	1408
1399583644851623890	1524	1524	1510	1409
1399583644876612598	1520	1517	1510	1409
1399583644891616747	1519	1507	1510	1409
1399583644911624872	1517	1509	1510	1410
1399583644931630921	1517	1513	1509	1409
1399583644946626274	1521	1509	1509	1409
1399583644961656725	1517	1515	1509	1408
1399583644991706868	1510	1514	1509	1407
1399583645006635858	1513	1506	1509	1409
1399583645026638431	1515	1513	1508	1408
1399583645046623320	1508	1502	1509	1410
1399583645066598857	1493	1495	1508	1351
1399583645081663385	1505	1508	1508	1407
1399583645096645292	1513	1521	1508	1407
1399583645111605102	1518	1520	1508	1406
1399583645131660573	1514	1517	1508	1408
1399583645146622540	1517	1505	1508	1410
1399583645161671688	1514	1492	1508	1412
1399583645181588828	1514	1494	1508	1410
1399583645196613356	1508	1512	1508	1408
1399583645211590245	1506	1523	1508	1408
1399583645231598841	1510	1524	1508	1408
1399583645246649635	1512	1521	1509	1410
1399583645261605995	1511	1510	1509	1412
1399583645286622474	1508	1495	1509	1412
1399583645296623051	1508	1501	1509	1411
1399583645311614682	1507	1509	1509	1409
1399583645331622549	1505	1515	1509	1409
1399583645346597316	1512	1521	1509	1410
1399583645361599155	1516	1510	1510	1410
1399583645381650135	1514	1507	1510	1411
1399583645396621047	1513	1502	1510	1411
1399583645411640035	1510	1506	1510	1412
1399583645431618279	1510	1515	1510	1411
1399583645446640643	1509	1517	1510	1411
1399583645461584317	1511	1512	1510	1412
1399583645486589586	1512	1521	1510	1410
1399583645501639042	1513	1512	1510	1412
1399583645526650922	1515	1515	1510	1412
1399583645546684204	1516	1511	1510	1413
1399583645566681616	1500	1493	1510	1351
1399583645581618370	1518	1500	1510	1413
1399583645596613310	1510	1507	1510	1412
1399583645611630134	1510	1504	1509	1414
1399583645631668489	1514	1510	1509	1413
1399583645656597816	1506	1512	1509	1414
1399583645676609154	1488	1507	1509	1351
1399583645691610908	1516	1516	1509	1413
1399583645706660107	1510	1515	1509	1413
1399583645726584102	1510	1510	1509	1414
1399583645751651305	1520	1501	1508	1415
1399583645776663797	1499	1473	1508	1351
1399583645786590732	1524	1505	1508	1414
1399583645806648934	1525	1512	1508	1413
1399583645821558878	1524	1515	1508	1413
1399583645841651042	1539	1507	1508	1413
1399583645856628642	1532	1508	1508	1414
1399583645876644014	1528	1466	1508	1351
1399583645891537607	1532	1500	1508	1413
1399583645906710262	1526	1500	1509	1413
1399583645926619693	1535	1512	1509	1412
1399583645946670246	1523	1496	1509	1414
1399583645961646497	1533	1497	1509	1413
1399583645981627850	1529	1510	1509	1412
1399583645996618782	1541	1505	1509	1411
1399583646011612383	1539	1511	1509	1411
1399583646026583339	1535	1508	1510	1411
1399583646046625429	1530	1500	1510	1412
1399583646066696084	1536	1480	1510	1351
1399583646081621901	1531	1508	1510	1409
1399583646096623515	1529	1511	1510	1409
1399583646126631200	1531	1503	1510	1410
1399583646141636810	1540	1513	1510	1410
1399583646156596588	1544	1512	1510	1409
1399583646176708865	1575	1538	1511	1351
1399583646191670136	1540	1514	1511	1410
1399583646206664832	1548	1500	1511	1412
1399583646221605778	1542	1515	1512	1413
1399583646236626914	1536	1509	1512	1415
1399583646251648060	1542	1505	1512	1417
1399583646276647004	1536	1520	1512	1415
1399583646301660866	1533	1509	1513	1418
1399583646311616568	1532	1504	1513	1418
1399583646331659435	1530	1505	1513	1419
1399583646346599168	1540	1506	1513	1420
1399583646361643365	1538	1510	1514	1421
1399583646381663210	1535	1516	1514	1417
1399583646406643522	1529	1508	1514	1419
1399583646426663355	1530	1507	1514	1420
1399583646441648925	1533	1517	1514	1420
1399583646456630971	1537	1522	1514	1420
1399583646476639675	1542	1531	1514	1351
1399583646491696406	1535	1523	1514	1419
1399583646501596038	1534	1523	1514	1419
1399583646521639958	1527	1534	1514	1420
1399583646541631161	1521	1534	1514	1419
1399583646556716118	1524	1532	1514	1420
1399583646581644150	1519	1539	1514	1351
1399583646596651216	1523	1533	1514	1417
1399583646611626599	1525	1525	1514	1418
1399583646641637668	1514	1519	1514	1418
1399583646656642422	1515	1529	1513	1419
1399583646676670795	1505	1526	1513	1351
1399583646691638349	1508	1502	1513	1421
1399583646706636823	1512	1505	1513	1419
1399583646721630471	1496	1518	1513	1418
1399583646736556405	1510	1530	1513	1419
1399583646751624373	1509	1524	1513	1420
1399583646776658969	1509	1524	1513	1419
1399583646796631103	1514	1514	1512	1418
1399583646811607048	1517	1509	1512	1421
1399583646831640062	1517	1502	1513	1421
1399583646846635673	1512	1515	1513	1421
1399583646861618980	1516	1521	1512	1419
1399583646881659548	1513	1524	1512	1417
1399583646896640336	1502	1528	1512	1418
1399583646911616396	1498	1520	1512	1420
1399583646931635101	1493	1506	1512	1420
1399583646946664859	1494	1514	1512	1421
1399583646981579673	1497	1527	1512	1418
1399583647006673449	1505	1513	1512	1419
1399583647026708564	1498	1518	1512	1419
1399583647041700861	1506	1519	1511	1419
1399583647056682417	1507	1515	1511	1420
1399583647076658798	1503	1502	1511	1354
1399583647086662282	1499	1499	1511	1419
1399583647106631690	1507	1522	1511	1417
1399583647126721213	1509	1522	1510	1417
1399583647141644976	1503	1512	1510	1419
1399583647156657892	1506	1510	1510	1420
1399583647181609142	1507	1517	1509	1417
1399583647211614175	1509	1487	1509	1420
1399583647226623365	1512	1492	1509	1419
