#Time	 Roll 	 Pitch 	 Yaw 	 Thrust
1399434200255151592	1509	1505	1506	1378
1399434200290094626	1508	1505	1506	1378
1399434200300019601	1508	1506	1506	1378
1399434200320046549	1508	1505	1506	1378
1399434200335066547	1508	1505	1506	1378
1399434200355130602	1508	1504	1506	1378
1399434200375077263	1508	1504	1506	1378
1399434200395134389	1508	1505	1506	1378
1399434200410114831	1507	1505	1506	1378
1399434200440164415	1508	1505	1506	1378
1399434200455080815	1507	1505	1506	1378
1399434200475113005	1508	1505	1506	1378
1399434200505232318	1508	1505	1506	1379
1399434200520177563	1509	1505	1506	1378
1399434200535093624	1510	1505	1506	1378
1399434200550095065	1508	1505	1506	1378
1399434200570059623	1508	1506	1506	1379
1399434200590095658	1508	1506	1506	1378
1399434200605113314	1508	1506	1506	1378
1399434200625083190	1509	1505	1506	1378
1399434200645023843	1508	1504	1506	1378
1399434200660028366	1508	1505	1506	1378
1399434200690046642	1508	1504	1506	1378
1399434200705283563	1508	1506	1506	1378
1399434200740329740	1508	1504	1506	1378
1399434200755309191	1508	1505	1506	1434
1399434200770361115	1508	1504	1506	1427
1399434200785114384	1507	1503	1506	1427
1399434200800321868	1508	1505	1506	1427
1399434200820176309	1507	1505	1506	1427
1399434200840341129	1507	1505	1506	1427
1399434200860303559	1507	1505	1506	1427
1399434200890357235	1509	1504	1506	1426
1399434200910423358	1507	1504	1506	1428
1399434200940393972	1507	1505	1506	1427
1399434200960042782	1507	1504	1506	1428
1399434200990294489	1503	1504	1506	1428
1399434201010197712	1501	1501	1506	1427
1399434201025188840	1499	1501	1506	1427
1399434201045329290	1498	1502	1506	1427
1399434201060185448	1495	1499	1506	1427
1399434201075285014	1496	1500	1506	1426
1399434201095164258	1496	1500	1506	1425
1399434201110226809	1494	1500	1506	1424
1399434201140262994	1495	1501	1506	1424
1399434201155294500	1494	1501	1506	1423
1399434201175495557	1495	1501	1507	1422
1399434201205439626	1495	1503	1507	1422
1399434201240432532	1498	1505	1508	1419
1399434201250276763	1497	1506	1508	1419
1399434201270118543	1500	1508	1509	1419
1399434201285388655	1502	1508	1510	1417
1399434201300159548	1501	1509	1510	1417
1399434201325110432	1506	1511	1511	1417
1399434201345478418	1505	1512	1511	1416
1399434201375370766	1508	1513	1512	1415
1399434201395110230	1506	1511	1513	1414
1399434201425336547	1500	1508	1514	1413
1399434201460589319	1495	1506	1515	1413
1399434201490322687	1495	1506	1516	1413
1399434201505324609	1496	1504	1516	1412
1399434201520265914	1494	1502	1517	1412
1399434201535308045	1494	1500	1517	1412
1399434201550367911	1497	1503	1517	1412
1399434201575402333	1497	1507	1518	1411
1399434201595293362	1497	1506	1518	1411
1399434201610412262	1505	1514	1518	1410
1399434201640395789	1504	1513	1519	1411
1399434201655404339	1508	1512	1519	1410
1399434201675388671	1504	1511	1519	1411
1399434201705421890	1505	1510	1519	1412
1399434201725353907	1506	1510	1520	1411
1399434201745255088	1507	1510	1520	1411
1399434201760384692	1503	1513	1520	1412
1399434201775316750	1502	1511	1520	1412
1399434201795308549	1503	1511	1520	1411
1399434201810280100	1505	1511	1520	1412
1399434201840316131	1506	1510	1519	1413
1399434201855359567	1507	1508	1519	1412
1399434201875383482	1506	1511	1519	1414
1399434201895387091	1506	1509	1519	1415
1399434201910338565	1506	1509	1519	1415
1399434201940372172	1508	1511	1519	1415
1399434201960399854	1509	1508	1518	1417
1399434201990162611	1509	1507	1518	1418
1399434202010366271	1507	1507	1518	1417
1399434202025362299	1507	1508	1518	1419
1399434202045349101	1508	1508	1517	1419
1399434202060345355	1514	1512	1517	1419
1399434202090101682	1515	1510	1517	1418
1399434202105314799	1515	1511	1516	1419
1399434202125309116	1515	1511	1516	1419
1399434202145360620	1515	1511	1516	1419
1399434202160373252	1513	1510	1516	1419
1399434202190291755	1514	1510	1515	1419
1399434202225384500	1507	1511	1514	1420
1399434202245362892	1507	1511	1514	1421
1399434202260432944	1505	1511	1514	1421
1399434202275241825	1503	1510	1514	1421
1399434202295238604	1504	1510	1513	1422
1399434202310100192	1505	1511	1513	1422
1399434202340292841	1508	1508	1513	1422
1399434202355305281	1507	1508	1513	1422
1399434202375378502	1514	1507	1512	1423
1399434202395319727	1513	1508	1512	1424
1399434202410130452	1516	1505	1512	1424
1399434202440314003	1515	1505	1512	1424
1399434202460239809	1519	1504	1512	1424
1399434202475268790	1518	1506	1512	1425
1399434202495128785	1518	1505	1512	1425
1399434202510189761	1511	1508	1511	1426
1399434202525357825	1510	1508	1511	1427
1399434202545329193	1510	1507	1511	1426
1399434202575236946	1507	1510	1511	1426
1399434202595255217	1508	1510	1511	1426
1399434202625383367	1501	1512	1511	1427
1399434202645279002	1501	1512	1511	1428
1399434202675188852	1497	1515	1511	1428
1399434202695369891	1496	1513	1511	1427
1399434202710110215	1502	1508	1511	1427
1399434202725340917	1502	1510	1511	1428
1399434202745207343	1501	1509	1511	1428
1399434202760278509	1506	1504	1511	1429
1399434202775161311	1504	1504	1511	1429
1399434202795192900	1504	1503	1511	1428
1399434202825333574	1507	1503	1511	1427
1399434202845328777	1507	1504	1511	1426
1399434202875205916	1509	1504	1511	1427
1399434202895249358	1508	1504	1511	1427
1399434202925311934	1503	1508	1511	1427
1399434202955409653	1502	1508	1511	1427
1399434202970362084	1500	1508	1511	1428
1399434202985373868	1501	1507	1511	1427
1399434203000242484	1502	1507	1511	1426
1399434203020267068	1502	1508	1511	1427
1399434203040293734	1503	1507	1511	1427
1399434203055263352	1504	1507	1511	1427
1399434203075349544	1502	1508	1511	1427
1399434203095372647	1502	1508	1511	1426
1399434203110349063	1503	1507	1511	1427
1399434203140387185	1503	1505	1511	1426
1399434203160310473	1505	1504	1511	1426
1399434203190409700	1507	1503	1510	1426
1399434203205247426	1507	1502	1510	1427
1399434203220321207	1510	1503	1510	1427
1399434203235278056	1511	1502	1510	1426
1399434203250318265	1511	1503	1510	1426
1399434203275342185	1512	1499	1510	1426
1399434203295338102	1512	1498	1510	1426
1399434203310214026	1514	1497	1510	1426
1399434203340252647	1517	1495	1510	1427
1399434203355304610	1516	1495	1510	1427
1399434203375301382	1515	1494	1510	1426
1399434203405203173	1516	1495	1510	1428
1399434203425385581	1513	1502	1510	1427
1399434203445278129	1513	1501	1510	1426
1399434203460240247	1513	1501	1510	1426
1399434203475258037	1515	1501	1510	1426
1399434203495355806	1514	1501	1510	1427
1399434203510153329	1512	1501	1511	1427
1399434203540430359	1512	1504	1511	1427
1399434203560268632	1515	1502	1511	1427
1399434203590352369	1519	1499	1511	1426
1399434203610346134	1515	1504	1511	1427
1399434203640333566	1514	1504	1511	1427
1399434203675371819	1517	1501	1511	1428
1399434203695365837	1517	1500	1511	1427
1399434203710341369	1516	1501	1511	1428
1399434203725362837	1517	1501	1511	1428
1399434203745395980	1516	1501	1511	1428
1399434203760354734	1517	1500	1511	1428
1399434203790144976	1518	1499	1511	1428
1399434203805293009	1518	1500	1511	1428
1399434203825469578	1516	1498	1511	1428
1399434203845372717	1516	1500	1511	1429
1399434203860304533	1512	1501	1511	1429
1399434203890296763	1511	1500	1511	1429
1399434203910358015	1510	1501	1511	1428
1399434203925393366	1508	1502	1511	1429
1399434203945448826	1508	1502	1511	1429
1399434203960398249	1506	1503	1511	1429
1399434203975326924	1505	1504	1511	1429
1399434203995426282	1506	1504	1511	1429
1399434204025356776	1506	1505	1511	1429
1399434204045322393	1505	1507	1511	1430
1399434204075215897	1506	1508	1511	1429
1399434204095228199	1505	1507	1511	1429
1399434204125482427	1510	1510	1511	1430
1399434204145310743	1510	1510	1512	1429
1399434204175345647	1511	1512	1512	1430
1399434204195099054	1511	1512	1512	1431
1399434204210345684	1509	1508	1512	1432
1399434204225351376	1510	1508	1512	1431
1399434204245429298	1509	1510	1512	1430
1399434204260296870	1510	1509	1512	1430
1399434204290236986	1509	1506	1512	1431
1399434204305377945	1508	1507	1512	1431
1399434204325374031	1506	1505	1511	1432
1399434204345408992	1507	1503	1512	1432
1399434204360074296	1503	1505	1512	1432
1399434204390427667	1503	1506	1512	1433
1399434204410111758	1502	1505	1512	1433
1399434204425139515	1501	1505	1512	1434
1399434204445089654	1501	1504	1512	1434
1399434204460115699	1499	1505	1512	1433
1399434204475103123	1499	1505	1511	1433
1399434204495017196	1499	1504	1511	1433
1399434204510069472	1499	1506	1511	1433
1399434204540140544	1500	1508	1511	1433
1399434204555296516	1499	1507	1511	1433
1399434204575369150	1499	1510	1511	1433
1399434204595234082	1498	1510	1511	1432
1399434204625447605	1499	1516	1511	1432
1399434204645433452	1500	1517	1511	1432
1399434204660434423	1498	1516	1511	1432
1399434204675302649	1498	1515	1511	1431
1399434204695549885	1497	1515	1511	1431
1399434204710163351	1496	1518	1511	1431
1399434204725097178	1496	1517	1511	1431
1399434204745137821	1495	1518	1511	1431
1399434204775018439	1497	1515	1512	1431
1399434204795076443	1496	1516	1512	1432
1399434204825103151	1498	1510	1512	1432
1399434204845097426	1497	1510	1513	1432
1399434204875308482	1494	1498	1513	1433
1399434204905298437	1494	1498	1514	1434
1399434204920397519	1496	1498	1514	1434
1399434204935300486	1495	1497	1514	1434
1399434204950203361	1495	1496	1515	1433
1399434204975362788	1498	1490	1516	1435
1399434204995391135	1500	1489	1516	1435
1399434205010318504	1502	1490	1517	1435
1399434205040405777	1502	1488	1517	1436
1399434205055401431	1503	1487	1518	1436
1399434205075369284	1505	1492	1518	1436
1399434205105341485	1505	1491	1519	1437
1399434205140283924	1508	1489	1520	1438
1399434205150320082	1508	1488	1520	1439
1399434205170304124	1510	1497	1520	1440
1399434205185158976	1512	1497	1520	1439
1399434205200323149	1513	1496	1520	1439
1399434205225342459	1510	1503	1520	1440
1399434205245266622	1510	1504	1520	1440
1399434205275174984	1502	1510	1520	1440
1399434205295286721	1501	1510	1520	1440
1399434205325295794	1495	1514	1520	1440
1399434205360360035	1488	1516	1520	1442
1399434205390293863	1488	1517	1519	1441
1399434205405365619	1489	1517	1519	1441
1399434205420372742	1489	1510	1519	1441
1399434205435312754	1490	1512	1519	1441
1399434205450302301	1490	1513	1519	1441
1399434205475290956	1492	1509	1519	1441
1399434205495343583	1492	1511	1518	1442
1399434205510337478	1492	1510	1518	1442
1399434205540111987	1491	1509	1518	1442
1399434205555343859	1491	1508	1517	1442
1399434205575387050	1493	1508	1517	1443
1399434205605428395	1493	1508	1517	1444
1399434205625414465	1492	1509	1516	1443
1399434205645371874	1493	1508	1516	1442
1399434205660369816	1499	1505	1516	1443
1399434205675346758	1500	1505	1516	1444
1399434205695404455	1500	1506	1515	1444
1399434205710334901	1500	1505	1515	1443
1399434205740411272	1510	1504	1515	1443
1399434205755146215	1511	1505	1514	1443
1399434205775324678	1515	1498	1514	1444
1399434205795329418	1517	1498	1514	1443
1399434205810353112	1529	1489	1513	1444
1399434205840319658	1528	1488	1513	1444
1399434205860256052	1531	1487	1512	1444
1399434205890337912	1532	1489	1512	1444
1399434205900339856	1533	1487	1512	1444
1399434205920296453	1524	1487	1511	1444
1399434205935318844	1526	1484	1511	1443
1399434205955325424	1525	1486	1511	1443
1399434205975371130	1522	1489	1511	1443
1399434205995300679	1522	1488	1510	1443
1399434206010295137	1516	1496	1510	1443
1399434206040390010	1516	1498	1510	1443
1399434206055279490	1516	1498	1510	1443
1399434206075423438	1511	1508	1510	1442
1399434206105426517	1512	1509	1510	1443
1399434206125352221	1496	1527	1510	1442
1399434206145352784	1498	1527	1510	1440
1399434206160367033	1495	1530	1510	1440
1399434206175352151	1494	1534	1510	1441
1399434206195335241	1496	1535	1509	1440
1399434206210330668	1493	1538	1509	1440
1399434206240477407	1493	1540	1509	1439
1399434206255311363	1492	1540	1509	1440
1399434206275403029	1498	1536	1509	1439
1399434206295340539	1498	1537	1508	1439
1399434206325322610	1510	1528	1508	1438
1399434206355404399	1509	1531	1508	1438
1399434206370398384	1516	1517	1508	1438
1399434206385357379	1514	1521	1508	1439
1399434206400398409	1514	1521	1508	1439
1399434206420383383	1518	1512	1508	1439
1399434206440385095	1519	1511	1508	1439
1399434206455455262	1519	1513	1508	1438
1399434206475349367	1526	1499	1508	1438
1399434206495382074	1525	1495	1508	1438
1399434206510159847	1523	1496	1508	1437
1399434206540266345	1520	1497	1508	1438
1399434206555295528	1521	1496	1508	1438
1399434206590363133	1527	1486	1509	1438
1399434206605344518	1527	1485	1509	1438
1399434206620304013	1522	1484	1509	1439
1399434206635304525	1521	1485	1510	1439
1399434206650350239	1519	1485	1510	1439
1399434206670368038	1515	1486	1510	1439
1399434206690367792	1514	1488	1511	1439
1399434206710405260	1512	1491	1511	1439
1399434206740390765	1511	1491	1512	1440
1399434206760303739	1498	1517	1512	1440
1399434206790312828	1496	1518	1513	1440
1399434206810474076	1497	1519	1514	1440
1399434206840379219	1496	1519	1514	1440
1399434206860294071	1494	1524	1515	1441
1399434206875314832	1493	1524	1515	1442
1399434206895356670	1491	1524	1516	1441
1399434206910245214	1492	1525	1516	1441
1399434206925319610	1492	1526	1516	1440
1399434206945279183	1493	1527	1516	1440
1399434206960223377	1490	1531	1517	1442
1399434206990430984	1488	1533	1517	1441
1399434207005349406	1489	1533	1517	1441
1399434207025333007	1496	1524	1517	1441
1399434207055274666	1494	1525	1517	1442
1399434207075303787	1502	1521	1516	1442
1399434207095377653	1502	1518	1516	1441
1399434207110250326	1501	1515	1516	1440
1399434207125299888	1500	1517	1516	1441
1399434207145314463	1501	1515	1516	1442
1399434207160265915	1506	1509	1515	1442
1399434207190256497	1507	1505	1515	1440
1399434207205409856	1504	1507	1515	1441
1399434207225336898	1506	1500	1514	1440
1399434207245160031	1507	1498	1514	1440
1399434207260429001	1509	1494	1514	1440
1399434207290324712	1508	1492	1513	1439
1399434207310370922	1504	1488	1513	1439
1399434207340425687	1504	1486	1513	1438
1399434207350137971	1503	1486	1513	1437
1399434207370417173	1499	1486	1512	1438
1399434207385317373	1498	1486	1512	1438
1399434207400345004	1497	1487	1512	1438
1399434207425379746	1495	1488	1512	1437
1399434207445347311	1493	1489	1512	1438
1399434207475301345	1489	1498	1512	1437
1399434207495312061	1489	1498	1512	1437
1399434207525417208	1474	1524	1512	1437
1399434207560367510	1478	1525	1512	1437
1399434207590260500	1476	1526	1511	1436
1399434207605339593	1476	1527	1511	1436
1399434207620328732	1482	1531	1511	1437
1399434207635346052	1481	1530	1511	1437
1399434207655364174	1481	1531	1511	1435
1399434207675411929	1484	1531	1511	1436
1399434207695289012	1485	1532	1511	1437
1399434207710404544	1491	1523	1511	1435
1399434207740390971	1493	1522	1511	1434
1399434207755222489	1492	1524	1511	1435
1399434207775126684	1495	1521	1510	1435
1399434207805138044	1497	1520	1510	1433
1399434207840094422	1505	1509	1510	1432
1399434207850000383	1507	1509	1510	1433
1399434207870079619	1514	1497	1510	1433
1399434207885086176	1514	1495	1509	1433
1399434207905079420	1515	1496	1509	1433
1399434207925369426	1519	1479	1509	1432
1399434207945261824	1521	1478	1509	1432
1399434207960268496	1516	1472	1509	1434
1399434207990384914	1518	1467	1509	1433
1399434208005385456	1520	1465	1509	1433
1399434208025405243	1521	1463	1509	1433
1399434208055254630	1522	1461	1510	1434
1399434208070389446	1509	1470	1510	1435
1399434208085479725	1511	1468	1510	1435
1399434208100437787	1512	1467	1510	1435
1399434208120137070	1501	1481	1510	1435
1399434208135317119	1502	1479	1510	1435
1399434208155339449	1502	1480	1510	1436
1399434208175316218	1491	1496	1510	1436
1399434208195326306	1492	1496	1510	1436
1399434208210378859	1486	1504	1510	1436
1399434208240472212	1486	1504	1510	1437
1399434208255325392	1485	1506	1510	1438
1399434208290270496	1478	1521	1510	1438
1399434208310287643	1481	1523	1510	1438
1399434208325219153	1480	1526	1510	1439
1399434208345180627	1480	1526	1510	1439
1399434208360460956	1498	1508	1510	1439
1399434208375387844	1497	1509	1510	1439
1399434208395406922	1497	1512	1510	1440
1399434208410432655	1500	1514	1509	1439
1399434208440346594	1500	1514	1509	1439
1399434208455291817	1500	1515	1509	1440
1399434208475378175	1516	1495	1509	1440
1399434208495289944	1515	1497	1509	1440
1399434208525323368	1516	1495	1509	1441
1399434208545315682	1516	1497	1508	1442
1399434208560324670	1511	1495	1508	1442
1399434208575108771	1509	1495	1508	1442
1399434208595090022	1509	1496	1508	1442
1399434208610070031	1499	1498	1508	1442
1399434208625147295	1499	1500	1508	1442
1399434208645184747	1498	1501	1508	1442
1399434208675148533	1486	1505	1507	1443
1399434208695126784	1486	1505	1507	1443
1399434208725240950	1482	1513	1507	1443
1399434208745289045	1479	1514	1507	1442
1399434208775429695	1478	1515	1507	1443
1399434208805446896	1476	1515	1507	1443
1399434208820422043	1482	1519	1507	1442
1399434208835392724	1482	1519	1507	1443
1399434208850197137	1484	1521	1507	1444
1399434208875395568	1490	1517	1507	1443
1399434208895285213	1490	1518	1506	1443
1399434208910335955	1490	1518	1506	1443
1399434208940399530	1501	1511	1506	1443
1399434208955285912	1502	1513	1506	1442
1399434208975272776	1511	1509	1506	1443
1399434209005385361	1511	1508	1506	1442
1399434209040441752	1506	1509	1507	1442
1399434209050419963	1506	1510	1507	1442
1399434209070253928	1501	1505	1507	1442
1399434209085254878	1501	1503	1507	1442
1399434209100190673	1501	1502	1507	1442
1399434209125306806	1476	1514	1507	1442
1399434209145289537	1475	1513	1508	1442
1399434209175281532	1469	1513	1508	1441
1399434209195333879	1468	1512	1508	1441
1399434209225373086	1482	1515	1509	1441
1399434209260421856	1489	1514	1510	1441
1399434209290351820	1488	1512	1510	1441
1399434209305388005	1489	1512	1511	1441
1399434209320349908	1496	1512	1511	1442
1399434209335406546	1498	1509	1512	1441
1399434209350327203	1497	1508	1513	1442
1399434209375462799	1510	1507	1514	1442
1399434209395344978	1511	1506	1514	1443
1399434209410384271	1518	1503	1515	1442
1399434209440358394	1521	1502	1516	1442
1399434209455312832	1520	1502	1516	1443
1399434209475368570	1523	1499	1517	1442
1399434209505365524	1525	1499	1517	1442
1399434209525423457	1500	1500	1518	1442
1399434209545156370	1502	1498	1518	1442
1399434209560100515	1485	1498	1519	1442
1399434209575127628	1485	1498	1519	1442
1399434209595100051	1486	1497	1519	1443
1399434209610057149	1488	1498	1519	1442
1399434209640127385	1491	1498	1520	1442
1399434209655123229	1492	1498	1520	1442
1399434209675155996	1499	1498	1520	1441
1399434209695335059	1501	1498	1520	1441
1399434209710386833	1496	1499	1520	1441
1399434209740278893	1496	1499	1520	1441
1399434209760429313	1503	1499	1520	1440
1399434209785322336	1503	1500	1520	1440
1399434209800389129	1505	1501	1520	1440
1399434209820336796	1509	1502	1520	1441
1399434209835367820	1510	1501	1519	1440
1399434209860128028	1519	1504	1519	1441
1399434209890104414	1520	1507	1518	1441
1399434209910088718	1524	1508	1517	1440
1399434209940070006	1524	1509	1517	1441
1399434209960069646	1514	1501	1516	1442
1399434209990141671	1515	1502	1515	1442
1399434210005142627	1516	1503	1515	1442
1399434210040095885	1510	1505	1513	1443
1399434210050087750	1510	1506	1513	1443
1399434210070047158	1508	1508	1512	1443
1399434210085108569	1507	1508	1512	1444
1399434210105142078	1508	1507	1511	1444
1399434210125244649	1502	1510	1510	1445
1399434210145066127	1503	1510	1510	1444
1399434210160061169	1502	1505	1509	1446
1399434210190113496	1500	1508	1508	1445
1399434210205114665	1501	1506	1508	1446
1399434210225146113	1503	1505	1507	1446
1399434210255112978	1500	1506	1506	1446
1399434210270125570	1512	1507	1506	1445
1399434210285140578	1510	1509	1506	1445
1399434210300122002	1511	1511	1505	1446
1399434210320122369	1515	1508	1505	1446
1399434210345391423	1515	1509	1505	1444
1399434210375260703	1525	1514	1504	1445
1399434210395233461	1526	1515	1504	1445
1399434210425245217	1523	1518	1504	1443
1399434210445292328	1523	1517	1504	1443
1399434210475347855	1519	1517	1504	1442
1399434210505360951	1521	1517	1504	1441
1399434210520356015	1517	1512	1504	1442
1399434210535305956	1519	1511	1504	1441
1399434210550283622	1519	1511	1505	1441
1399434210570370622	1509	1508	1505	1442
1399434210590314661	1513	1507	1505	1440
1399434210605345110	1512	1508	1505	1441
1399434210625448441	1511	1509	1506	1441
1399434210645312713	1511	1508	1506	1441
1399434210660394522	1511	1509	1507	1440
1399434210690337690	1504	1507	1507	1441
1399434210705175026	1505	1505	1507	1440
1399434210740439857	1509	1510	1508	1441
1399434210755332407	1508	1509	1508	1441
1399434210770419386	1508	1511	1509	1441
1399434210785333045	1509	1510	1509	1441
1399434210800332307	1508	1507	1510	1441
1399434210825300795	1517	1515	1510	1441
1399434210845355592	1517	1514	1511	1441
1399434210860095222	1516	1513	1511	1441
1399434210890399372	1514	1517	1511	1442
1399434210905346003	1514	1514	1512	1442
1399434210925366742	1511	1516	1512	1442
1399434210955403947	1510	1514	1512	1442
1399434210990417093	1509	1512	1512	1442
1399434211005321831	1509	1511	1513	1443
1399434211020382228	1507	1504	1513	1443
1399434211035375463	1507	1503	1513	1443
1399434211050426269	1506	1504	1513	1443
1399434211075325330	1511	1500	1513	1443
1399434211095089153	1510	1499	1513	1443
1399434211110235169	1517	1500	1512	1443
1399434211140372424	1517	1499	1512	1444
1399434211155409883	1516	1498	1512	1443
1399434211175390384	1520	1497	1512	1443
1399434211205345141	1519	1495	1512	1443
1399434211225337031	1518	1499	1511	1443
1399434211245332145	1518	1497	1511	1443
1399434211260385349	1519	1496	1511	1444
1399434211275154202	1509	1498	1510	1444
1399434211295352040	1510	1496	1510	1443
1399434211310314529	1509	1495	1510	1443
1399434211340407143	1508	1498	1509	1444
1399434211355420240	1508	1496	1509	1444
1399434211375378200	1503	1496	1508	1444
1399434211395369629	1502	1496	1508	1444
1399434211410227254	1503	1502	1508	1444
1399434211440232761	1503	1501	1508	1444
1399434211460216296	1501	1503	1507	1444
1399434211490346124	1501	1502	1507	1443
1399434211500016304	1502	1503	1507	1443
1399434211520324039	1501	1506	1507	1442
1399434211535217254	1501	1507	1506	1442
1399434211555401047	1502	1508	1506	1443
1399434211575309755	1509	1502	1506	1443
1399434211595154869	1509	1504	1506	1442
1399434211610407359	1513	1497	1506	1443
1399434211640366301	1512	1498	1505	1441
1399434211655351053	1512	1500	1505	1442
1399434211675158627	1514	1498	1505	1442
1399434211705349169	1514	1499	1505	1441
1399434211725356137	1516	1500	1505	1441
1399434211745115759	1515	1502	1505	1441
1399434211760296811	1511	1498	1505	1441
1399434211775217706	1511	1499	1505	1442
1399434211795087339	1510	1501	1505	1441
1399434211825368215	1500	1503	1504	1441
1399434211845145108	1500	1503	1504	1441
1399434211875356915	1488	1508	1504	1441
1399434211895205033	1489	1508	1504	1441
1399434211925409399	1484	1506	1503	1442
1399434211945295489	1485	1507	1503	1442
1399434211975147343	1485	1508	1503	1443
1399434211995359008	1483	1508	1503	1443
1399434212010494431	1484	1509	1503	1443
1399434212025319597	1496	1511	1503	1444
1399434212045344723	1492	1512	1503	1444
1399434212060244381	1497	1509	1503	1445
1399434212090219019	1493	1509	1503	1444
1399434212105350476	1495	1508	1502	1444
1399434212125411359	1504	1505	1502	1445
1399434212145223425	1505	1504	1502	1445
1399434212175276747	1506	1503	1502	1445
1399434212205413391	1506	1502	1502	1445
1399434212220274844	1500	1506	1502	1446
1399434212235352048	1498	1505	1501	1445
1399434212250192042	1497	1504	1501	1445
1399434212270337146	1494	1507	1501	1445
1399434212290347842	1495	1504	1501	1444
1399434212305306118	1492	1507	1501	1445
1399434212325308606	1486	1503	1501	1445
1399434212345300829	1486	1504	1501	1444
1399434212360277402	1479	1501	1502	1445
1399434212390329129	1478	1501	1502	1445
1399434212405220938	1478	1499	1502	1444
1399434212440477498	1471	1499	1503	1445
1399434212455415629	1470	1498	1503	1445
1399434212470368440	1470	1499	1504	1446
1399434212485365200	1470	1496	1504	1444
1399434212500271491	1470	1497	1505	1445
1399434212520332735	1478	1502	1506	1446
1399434212540246601	1479	1498	1506	1444
1399434212555356047	1478	1500	1507	1446
1399434212575415294	1486	1500	1508	1446
1399434212595291671	1486	1500	1509	1446
1399434212610230848	1496	1503	1510	1446
1399434212640306647	1496	1501	1511	1446
1399434212655367957	1495	1501	1511	1447
1399434212690431839	1500	1504	1513	1447
1399434212705253481	1500	1503	1513	1448
1399434212720243581	1498	1502	1514	1447
1399434212735243166	1496	1501	1515	1448
1399434212750308755	1496	1499	1515	1447
1399434212775321050	1485	1497	1516	1448
1399434212795338936	1485	1496	1516	1448
1399434212810385055	1483	1495	1516	1447
1399434212840281443	1484	1496	1517	1450
1399434212855369931	1485	1495	1517	1449
1399434212875387114	1481	1492	1517	1449
1399434212905405471	1484	1491	1517	1449
1399434212925361386	1483	1494	1517	1449
1399434212945322586	1484	1495	1517	1449
1399434212960351248	1492	1494	1517	1450
1399434212975300273	1492	1494	1517	1450
1399434212995344411	1494	1492	1517	1450
1399434213010420107	1498	1493	1517	1451
1399434213040170122	1500	1494	1516	1451
1399434213060413867	1504	1490	1516	1451
1399434213090443769	1505	1490	1515	1450
1399434213110421386	1508	1492	1515	1451
1399434213140289856	1509	1493	1514	1452
1399434213160445411	1513	1492	1514	1452
1399434213185474528	1513	1491	1514	1452
1399434213200286071	1514	1492	1513	1452
1399434213220449272	1512	1493	1513	1452
1399434213235353569	1514	1495	1513	1452
1399434213250387166	1516	1495	1513	1453
1399434213275355311	1513	1498	1512	1453
1399434213295249980	1514	1499	1512	1452
1399434213325379241	1503	1495	1512	1453
1399434213345283624	1504	1495	1512	1454
1399434213375296594	1501	1503	1512	1453
1399434213395215792	1502	1504	1512	1453
1399434213425457627	1506	1510	1512	1453
1399434213445338141	1506	1511	1513	1454
1399434213460421487	1506	1512	1513	1453
1399434213475373599	1509	1513	1513	1453
1399434213495305915	1508	1515	1513	1453
1399434213510421427	1515	1512	1513	1454
1399434213540353777	1516	1512	1513	1453
1399434213555318375	1517	1515	1513	1453
1399434213575475482	1521	1512	1513	1454
1399434213595319141	1522	1514	1514	1453
1399434213610430273	1521	1513	1514	1454
1399434213640412868	1522	1514	1514	1454
1399434213675393922	1523	1512	1514	1455
1399434213695324523	1523	1515	1514	1455
1399434213710401049	1520	1513	1514	1453
1399434213725272030	1519	1515	1514	1454
1399434213745437482	1519	1516	1514	1454
1399434213760096620	1517	1513	1514	1455
1399434213790286118	1519	1515	1514	1454
1399434213805342497	1521	1516	1514	1454
1399434213825431867	1521	1516	1513	1454
1399434213845250388	1522	1517	1513	1454
1399434213860294919	1522	1517	1513	1454
1399434213890291310	1526	1516	1513	1454
1399434213910324420	1536	1523	1513	1454
1399434213935123843	1535	1525	1512	1454
1399434213950311438	1534	1523	1512	1455
1399434213970146342	1531	1521	1512	1456
1399434213985374795	1532	1520	1511	1455
1399434214005327632	1531	1521	1511	1455
1399434214025357536	1525	1516	1511	1454
1399434214045466385	1526	1517	1511	1455
1399434214060431703	1515	1514	1510	1453
1399434214090416232	1516	1514	1510	1454
1399434214105373984	1515	1513	1510	1454
1399434214140339849	1507	1510	1509	1453
1399434214170385177	1506	1514	1508	1453
1399434214185270033	1504	1514	1508	1453
1399434214200230260	1503	1514	1508	1452
1399434214220315071	1505	1513	1508	1452
1399434214240445004	1504	1513	1508	1452
1399434214260485661	1514	1516	1507	1452
1399434214290409334	1513	1515	1507	1451
1399434214310252994	1518	1514	1507	1450
1399434214340303430	1518	1514	1507	1450
1399434214355451811	1517	1512	1508	1450
1399434214390286809	1527	1514	1508	1449
1399434214405398723	1526	1511	1508	1448
1399434214420355410	1530	1511	1508	1448
1399434214435296403	1529	1511	1508	1448
1399434214450225614	1529	1510	1508	1448
1399434214470351698	1521	1502	1509	1448
1399434214490270920	1521	1502	1509	1448
1399434214510363662	1512	1498	1509	1447
1399434214540319829	1513	1497	1510	1447
1399434214560272388	1499	1496	1510	1447
1399434214590112382	1498	1492	1510	1446
1399434214610277394	1494	1494	1510	1447
1399434214640332030	1494	1492	1510	1446
1399434214650107094	1492	1489	1511	1446
1399434214670459582	1493	1491	1511	1446
1399434214685113705	1492	1491	1511	1446
1399434214700347206	1490	1491	1511	1446
1399434214720415071	1497	1489	1511	1445
1399434214740354800	1496	1489	1511	1446
1399434214760283411	1508	1488	1511	1446
1399434214790323315	1507	1489	1510	1446
1399434214810422225	1520	1493	1510	1446
1399434214840389735	1520	1492	1510	1445
1399434214860324592	1530	1498	1509	1446
1399434214890368022	1530	1498	1509	1446
1399434214905310804	1530	1499	1509	1445
1399434214920393501	1526	1502	1508	1446
1399434214935365045	1526	1501	1508	1446
1399434214950242611	1527	1503	1508	1446
1399434214975343474	1517	1498	1507	1445
1399434214995294230	1517	1500	1507	1446
1399434215010302260	1503	1488	1506	1446
1399434215040351909	1502	1487	1506	1446
1399434215055221314	1503	1487	1506	1445
1399434215075259867	1500	1480	1505	1446
1399434215105298248	1501	1481	1505	1446
1399434215125370822	1497	1479	1504	1445
1399434215145311149	1498	1476	1504	1445
1399434215160191335	1494	1468	1503	1445
1399434215175266589	1495	1467	1503	1445
1399434215195389881	1494	1470	1503	1445
1399434215210124018	1494	1468	1503	1445
1399434215240509743	1510	1469	1503	1445
1399434215255383482	1509	1470	1503	1446
1399434215275272331	1511	1473	1503	1446
1399434215295239369	1510	1472	1503	1445
1399434215309995216	1509	1474	1503	1446
1399434215340287751	1513	1494	1503	1446
1399434215375410445	1512	1500	1503	1446
1399434215395296201	1511	1501	1503	1446
1399434215410294989	1512	1501	1503	1446
1399434215425165844	1509	1505	1503	1445
1399434215455472854	1509	1506	1503	1446
1399434215470393608	1506	1506	1503	1445
1399434215490362400	1506	1507	1503	1445
1399434215505323327	1505	1506	1503	1446
1399434215525373404	1500	1492	1504	1445
1399434215545301166	1501	1493	1504	1446
1399434215560287295	1498	1480	1504	1446
1399434215595371268	1497	1481	1504	1445
1399434215605350324	1497	1482	1504	1446
1399434215640374249	1496	1471	1505	1446
1399434215650337292	1495	1472	1505	1445
1399434215670220415	1499	1467	1506	1445
1399434215685319936	1498	1467	1506	1446
1399434215715357940	1502	1471	1506	1446
1399434215750376128	1502	1474	1507	1446
1399434215775281384	1507	1498	1508	1446
1399434215795277331	1508	1500	1508	1447
1399434215810332267	1507	1503	1508	1447
1399434215840369119	1514	1523	1509	1446
1399434215875504545	1516	1535	1510	1447
1399434215895323958	1518	1540	1511	1447
1399434215910327105	1522	1541	1511	1447
1399434215925334423	1522	1542	1511	1447
1399434215945357714	1523	1544	1512	1447
1399434215960100174	1524	1523	1512	1447
1399434215990169691	1525	1528	1513	1447
1399434216005199633	1526	1529	1513	1447
1399434216025125674	1531	1522	1514	1447
1399434216045109980	1532	1527	1514	1447
1399434216075135732	1524	1503	1515	1447
1399434216105156679	1526	1507	1515	1447
1399434216135304313	1521	1499	1516	1446
1399434216150369568	1523	1502	1515	1447
1399434216170241640	1510	1502	1516	1447
1399434216190371446	1510	1505	1516	1448
1399434216205183936	1509	1504	1516	1447
1399434216225356375	1506	1514	1516	1448
1399434216245305301	1506	1514	1516	1447
1399434216259962874	1509	1525	1516	1447
1399434216290283067	1511	1527	1516	1448
1399434216305162918	1510	1526	1516	1447
1399434216340330847	1520	1534	1516	1447
1399434216350400107	1519	1537	1516	1446
1399434216370383198	1532	1540	1517	1446
1399434216385371366	1532	1539	1517	1447
1399434216400338678	1533	1540	1517	1448
1399434216420412962	1547	1541	1517	1448
1399434216440357397	1548	1540	1517	1447
1399434216460200299	1546	1538	1518	1447
1399434216490366309	1546	1539	1518	1447
1399434216510358590	1541	1533	1518	1446
1399434216540360077	1541	1533	1518	1446
1399434216560383632	1531	1518	1519	1446
1399434216590328479	1531	1515	1519	1445
1399434216600326674	1532	1515	1519	1444
1399434216620392298	1520	1510	1519	1445
1399434216635381268	1519	1510	1519	1445
1399434216650275459	1520	1509	1520	1445
1399434216670331795	1510	1499	1520	1446
1399434216690320076	1511	1497	1520	1445
1399434216710296856	1513	1507	1520	1445
1399434216740152300	1511	1504	1520	1444
1399434216760329220	1508	1503	1521	1445
1399434216790120962	1506	1501	1521	1446
1399434216810437087	1523	1525	1522	1445
1399434216840117757	1523	1522	1522	1445
1399434216855397686	1521	1520	1522	1445
1399434216870310252	1528	1533	1523	1445
1399434216885340743	1528	1530	1523	1445
1399434216900264904	1528	1528	1523	1445
1399434216925444001	1539	1535	1523	1445
1399434216945322864	1539	1535	1523	1445
1399434216975429066	1542	1535	1523	1445
1399434216995349561	1543	1534	1523	1445
1399434217025226989	1543	1528	1523	1445
1399434217055282641	1542	1527	1523	1446
1399434217075225591	1535	1514	1522	1446
1399434217095164437	1534	1511	1522	1446
1399434217125213599	1513	1497	1522	1446
1399434217145126254	1513	1497	1521	1446
1399434217160146702	1501	1490	1521	1447
1399434217190172957	1500	1489	1520	1447
1399434217205140378	1501	1488	1520	1447
1399434217225132700	1495	1485	1520	1447
1399434217245393408	1494	1485	1519	1448
1399434217260278438	1492	1483	1519	1448
1399434217290453562	1489	1481	1518	1448
1399434217325362612	1495	1487	1517	1449
1399434217345340664	1496	1487	1517	1449
1399434217360275499	1518	1500	1517	1450
1399434217375362305	1518	1498	1516	1449
1399434217395395505	1516	1501	1516	1450
1399434217425423280	1528	1506	1515	1450
1399434217445352321	1529	1508	1515	1450
1399434217475391178	1545	1512	1514	1450
1399434217495193763	1546	1515	1514	1450
1399434217525269290	1555	1520	1514	1450
1399434217545269917	1557	1519	1513	1449
1399434217575427058	1545	1512	1513	1450
1399434217595324394	1547	1514	1513	1450
1399434217610427438	1543	1516	1512	1450
1399434217625164673	1543	1516	1512	1450
1399434217645320438	1543	1516	1512	1449
1399434217660293741	1524	1509	1512	1450
1399434217690473550	1525	1509	1511	1450
1399434217705443326	1525	1510	1511	1450
1399434217725227137	1515	1507	1511	1450
1399434217745277942	1514	1508	1511	1451
1399434217760159575	1491	1496	1510	1450
1399434217790447104	1491	1498	1510	1450
1399434217825178735	1487	1492	1509	1450
1399434217845350477	1485	1492	1509	1451
1399434217860408655	1489	1489	1509	1450
1399434217875414350	1488	1488	1509	1450
1399434217895387991	1486	1490	1509	1450
1399434217910350784	1483	1490	1508	1449
1399434217940344574	1482	1488	1508	1450
1399434217955146752	1480	1489	1508	1449
1399434217975226637	1501	1493	1508	1449
1399434217995402761	1501	1493	1507	1449
1399434218025471235	1509	1497	1507	1449
1399434218055368991	1508	1498	1507	1450
1399434218085262192	1519	1506	1507	1450
1399434218100250496	1518	1507	1507	1450
1399434218120395194	1526	1513	1507	1450
1399434218140427796	1525	1513	1507	1450
1399434218155374039	1523	1514	1507	1450
1399434218175380004	1522	1518	1507	1450
1399434218195379492	1520	1519	1507	1450
1399434218210393417	1513	1524	1507	1450
1399434218240303553	1512	1524	1507	1450
1399434218255311103	1511	1524	1508	1450
1399434218290291772	1493	1522	1508	1450
1399434218300278009	1492	1522	1508	1451
1399434218320346277	1485	1521	1508	1451
1399434218335358936	1485	1520	1508	1450
1399434218350309952	1482	1519	1508	1451
1399434218370380905	1484	1518	1508	1450
1399434218390361345	1481	1518	1508	1450
1399434218410416103	1475	1501	1508	1451
1399434218440391441	1476	1502	1509	1452
1399434218460364831	1480	1494	1509	1452
1399434218490311781	1478	1492	1509	1452
1399434218510239659	1499	1495	1509	1452
1399434218540320373	1500	1494	1509	1452
1399434218550289964	1500	1495	1509	1452
1399434218570347438	1510	1496	1509	1452
1399434218585342836	1509	1495	1509	1452
1399434218600298780	1509	1496	1508	1452
1399434218620228229	1518	1505	1508	1451
1399434218640256628	1518	1504	1508	1450
1399434218660289604	1521	1516	1508	1451
1399434218690357070	1521	1516	1507	1452
1399434218710273261	1521	1517	1507	1452
1399434218740294875	1508	1533	1507	1451
1399434218760546785	1497	1537	1506	1451
1399434218790439075	1497	1538	1506	1452
1399434218805188298	1498	1540	1506	1452
1399434218820255451	1485	1534	1505	1451
1399434218835245910	1484	1537	1505	1452
1399434218850209285	1486	1537	1504	1451
1399434218875323136	1469	1530	1504	1452
1399434218895245670	1469	1531	1504	1452
1399434218910130749	1458	1521	1503	1452
1399434218940262177	1457	1520	1503	1452
1399434218955242632	1457	1518	1503	1452
1399434218975283627	1451	1498	1502	1452
1399434219005332210	1451	1496	1502	1453
1399434219025358407	1455	1487	1502	1453
1399434219045121711	1457	1486	1502	1453
1399434219060403034	1469	1476	1501	1453
1399434219075316891	1470	1475	1501	1453
1399434219095340907	1470	1474	1501	1453
1399434219110363275	1510	1477	1501	1453
1399434219140348024	1512	1474	1501	1453
1399434219155287991	1513	1472	1502	1453
1399434219175317696	1534	1490	1502	1452
1399434219195359353	1537	1488	1502	1453
1399434219210301308	1546	1494	1503	1452
1399434219240605677	1548	1493	1503	1452
1399434219260427881	1551	1494	1504	1452
1399434219290363053	1554	1496	1505	1451
1399434219300152959	1556	1496	1505	1452
1399434219320390393	1545	1505	1506	1452
1399434219335315594	1546	1506	1506	1451
1399434219355369970	1550	1506	1507	1451
1399434219375416285	1504	1533	1507	1450
1399434219395396259	1505	1535	1508	1450
1399434219410281674	1491	1539	1508	1450
1399434219440274652	1489	1541	1509	1450
1399434219455254471	1489	1538	1509	1450
1399434219475247781	1464	1533	1510	1450
1399434219505394151	1464	1535	1510	1450
1399434219525308485	1452	1520	1510	1450
1399434219545378702	1452	1520	1510	1450
1399434219560301992	1453	1502	1510	1451
1399434219575259268	1453	1500	1511	1451
1399434219595328366	1452	1501	1511	1451
1399434219610432249	1477	1480	1511	1450
1399434219640423900	1478	1478	1511	1450
1399434219655266554	1477	1478	1512	1450
1399434219675310239	1503	1464	1512	1451
1399434219695302267	1503	1464	1512	1452
1399434219710283497	1528	1460	1512	1451
1399434219740421180	1529	1459	1512	1452
1399434219760300797	1537	1462	1511	1451
1399434219775231624	1537	1463	1511	1452
1399434219795034395	1539	1462	1511	1452
1399434219810152269	1564	1474	1511	1453
1399434219825266806	1567	1473	1511	1453
1399434219845343076	1567	1471	1510	1452
1399434219860284804	1563	1489	1510	1452
1399434219890303086	1563	1490	1510	1451
1399434219905320901	1563	1490	1509	1452
1399434219925456199	1536	1520	1509	1452
1399434219945374350	1537	1521	1508	1452
1399434219975468343	1524	1528	1508	1451
1399434219995388908	1526	1530	1508	1452
1399434220010381697	1499	1540	1507	1451
1399434220025373045	1498	1538	1507	1451
1399434220045362743	1496	1540	1507	1451
1399434220060382889	1492	1539	1507	1451
1399434220075290180	1489	1542	1506	1450
1399434220095318309	1489	1541	1506	1450
1399434220125217414	1473	1526	1506	1450
1399434220145324029	1473	1524	1506	1449
1399434220175090890	1478	1502	1506	1450
1399434220195302593	1479	1502	1506	1450
1399434220225336428	1490	1481	1506	1449
1399434220255407116	1491	1480	1507	1450
1399434220270402419	1515	1458	1507	1450
1399434220285323838	1516	1457	1508	1450
1399434220300262236	1518	1455	1508	1449
1399434220320205029	1538	1446	1508	1448
1399434220340290090	1538	1448	1509	1449
1399434220355327609	1541	1446	1509	1449
1399434220375328744	1563	1448	1509	1449
1399434220395193372	1566	1448	1510	1448
1399434220410522899	1572	1461	1510	1448
1399434220440343589	1572	1462	1511	1448
1399434220455262783	1575	1463	1511	1448
1399434220490377281	1572	1480	1512	1448
1399434220505263357	1574	1483	1513	1448
1399434220520280152	1569	1501	1513	1448
1399434220535214397	1569	1502	1514	1448
1399434220550345979	1569	1503	1514	1448
1399434220575318727	1556	1525	1515	1447
1399434220595305410	1557	1528	1515	1448
1399434220610274881	1531	1558	1516	1447
1399434220640293554	1529	1560	1516	1445
1399434220655304527	1529	1565	1517	1447
1399434220675426382	1495	1579	1517	1445
1399434220705436339	1492	1584	1517	1446
1399434220725356901	1481	1578	1517	1446
1399434220745272974	1479	1580	1518	1446
1399434220760083110	1475	1580	1518	1447
1399434220775346160	1466	1554	1518	1446
1399434220795334089	1464	1554	1518	1446
1399434220810262860	1465	1539	1518	1446
1399434220840333381	1461	1542	1518	1446
1399434220860232257	1467	1500	1518	1446
1399434220890352358	1467	1499	1518	1446
1399434220910320765	1485	1474	1518	1446
1399434220940382476	1483	1471	1518	1446
1399434220975368651	1537	1440	1518	1446
1399434220995314563	1533	1436	1518	1447
1399434221010351718	1544	1435	1518	1446
1399434221025384486	1546	1433	1518	1446
1399434221045336329	1548	1429	1518	1446
1399434221060277869	1572	1434	1518	1446
1399434221090445118	1571	1434	1518	1446
1399434221105371586	1573	1433	1518	1446
1399434221140375373	1574	1450	1517	1446
1399434221155413674	1576	1449	1517	1445
1399434221175387788	1565	1487	1517	1445
1399434221205394661	1565	1487	1517	1446
1399434221240450476	1550	1521	1517	1446
1399434221255377595	1549	1524	1517	1445
1399434221270289674	1529	1552	1516	1445
1399434221285287606	1527	1552	1516	1445
1399434221305345884	1527	1554	1516	1445
1399434221325332045	1501	1572	1516	1445
1399434221345293652	1498	1575	1516	1445
1399434221360297883	1496	1577	1516	1445
1399434221390279630	1493	1581	1515	1446
1399434221405283297	1456	1551	1515	1445
1399434221425412590	1453	1548	1515	1444
1399434221455073320	1448	1552	1515	1445
1399434221470311757	1443	1544	1515	1445
1399434221485324133	1442	1541	1515	1445
1399434221500105034	1440	1542	1514	1446
1399434221520288474	1471	1477	1514	1445
1399434221535152389	1472	1477	1514	1444
1399434221560386373	1481	1466	1514	1444
1399434221590120106	1480	1464	1514	1445
1399434221610139827	1518	1464	1515	1445
1399434221640130462	1519	1459	1515	1443
1399434221660164231	1539	1454	1515	1445
1399434221690109926	1541	1451	1515	1444
1399434221705063481	1540	1451	1515	1445
1399434221720091280	1559	1478	1515	1444
1399434221735271206	1559	1478	1515	1444
1399434221750438562	1560	1477	1515	1444
1399434221770346797	1559	1490	1515	1444
1399434221785285719	1559	1489	1515	1444
1399434221810418071	1505	1528	1515	1444
1399434221840330915	1506	1526	1515	1444
1399434221860358683	1487	1539	1515	1444
1399434221890339097	1487	1539	1516	1445
1399434221910343920	1445	1548	1516	1445
1399434221940156736	1445	1548	1516	1445
1399434221960396686	1445	1510	1516	1446
1399434221975286400	1444	1511	1515	1446
1399434221995079637	1443	1511	1515	1446
1399434222010338271	1443	1512	1515	1447
1399434222025188435	1478	1481	1515	1447
1399434222045183269	1478	1480	1515	1448
1399434222060266428	1491	1470	1515	1448
1399434222090336545	1492	1468	1515	1449
1399434222105406477	1490	1467	1515	1449
1399434222125333541	1533	1460	1514	1449
1399434222145332945	1533	1460	1514	1450
1399434222175508926	1534	1482	1514	1451
1399434222195197146	1535	1483	1514	1451
1399434222210249762	1509	1510	1513	1451
1399434222225269099	1510	1512	1514	1452
1399434222245370440	1511	1513	1514	1453
1399434222260327653	1485	1528	1513	1454
1399434222275261696	1488	1527	1513	1454
1399434222295271522	1489	1527	1513	1454
1399434222310259542	1484	1542	1513	1454
1399434222340223370	1486	1543	1513	1456
1399434222355315808	1485	1544	1513	1456
1399434222375442871	1498	1514	1513	1456
1399434222395342054	1498	1517	1513	1456
1399434222425343503	1492	1518	1513	1456
1399434222445258181	1494	1520	1513	1457
1399434222460341022	1497	1502	1513	1457
1399434222475357930	1498	1503	1513	1456
1399434222495337529	1500	1506	1513	1456
1399434222510367407	1506	1492	1513	1456
1399434222540141362	1507	1492	1512	1457
1399434222555088675	1509	1496	1513	1457
1399434222575167305	1528	1501	1512	1457
1399434222595090927	1530	1501	1512	1457
1399434222610124143	1540	1502	1512	1457
1399434222640093756	1540	1504	1512	1457
1399434222660071371	1527	1529	1512	1457
1399434222690093474	1530	1530	1512	1459
1399434222700112739	1530	1527	1512	1458
1399434222720042624	1523	1534	1512	1458
1399434222735070635	1524	1537	1512	1459
1399434222750027687	1526	1535	1511	1459
1399434222775176185	1522	1525	1511	1459
1399434222795052116	1524	1525	1511	1459
1399434222810104255	1520	1521	1511	1460
1399434222840046480	1521	1522	1511	1458
1399434222855024583	1522	1523	1511	1459
1399434222875086650	1525	1522	1511	1459
1399434222905142874	1525	1522	1511	1459
1399434222925113731	1528	1522	1511	1460
1399434222945141220	1526	1522	1511	1460
1399434222960149347	1525	1516	1511	1460
1399434222975114614	1525	1515	1511	1459
1399434222995120303	1525	1515	1511	1460
1399434223010067352	1530	1512	1511	1460
1399434223040123743	1529	1511	1510	1459
1399434223060064451	1525	1507	1510	1459
1399434223090078855	1522	1505	1510	1459
1399434223110161557	1514	1516	1510	1458
1399434223140078657	1513	1517	1510	1458
1399434223155081961	1511	1516	1510	1459
1399434223190070614	1506	1522	1510	1458
1399434223205106902	1504	1521	1509	1458
1399434223220166540	1508	1523	1509	1458
1399434223235193170	1505	1522	1509	1457
1399434223255214921	1502	1521	1509	1457
1399434223275160673	1497	1524	1509	1457
1399434223295087780	1495	1524	1509	1457
1399434223310127505	1500	1513	1508	1456
1399434223340131655	1495	1513	1508	1457
1399434223355148027	1495	1513	1508	1456
1399434223375203288	1499	1511	1508	1456
1399434223405092613	1494	1509	1507	1455
1399434223440048187	1495	1507	1507	1454
1399434223450099637	1493	1510	1506	1455
1399434223470094908	1495	1505	1506	1454
1399434223485091966	1491	1506	1506	1454
1399434223505095026	1491	1504	1506	1453
1399434223525133258	1485	1504	1506	1453
1399434223545116448	1483	1503	1506	1453
1399434223560072156	1484	1501	1506	1452
1399434223590123997	1484	1500	1505	1453
1399434223605112649	1480	1500	1505	1452
1399434223625128547	1479	1503	1505	1452
1399434223655396828	1479	1500	1505	1452
1399434223690242758	1484	1500	1506	1453
1399434223700320076	1483	1499	1506	1452
1399434223720391990	1487	1501	1506	1453
1399434223735249438	1488	1497	1506	1451
1399434223755428428	1487	1497	1506	1452
1399434223775378435	1489	1500	1507	1452
1399434223795295990	1490	1497	1507	1452
1399434223810462862	1487	1497	1507	1452
1399434223840369400	1486	1497	1508	1452
1399434223855373753	1487	1498	1508	1453
1399434223890133036	1486	1499	1509	1452
1399434223910358228	1481	1500	1509	1452
1399434223925082945	1483	1501	1510	1452
1399434223945341851	1483	1501	1510	1452
1399434223960165342	1484	1503	1510	1453
1399434223975368946	1479	1503	1510	1453
1399434223995351238	1481	1503	1511	1453
1399434224010379600	1482	1501	1511	1453
1399434224040276428	1483	1504	1511	1453
1399434224055353904	1484	1502	1511	1454
1399434224075360769	1488	1497	1512	1452
1399434224095297146	1490	1497	1512	1453
1399434224125366578	1490	1494	1512	1452
1399434224145073477	1492	1494	1512	1452
1399434224160114266	1495	1495	1512	1452
1399434224175118517	1496	1496	1512	1452
1399434224195075520	1498	1495	1512	1453
1399434224210091455	1500	1494	1512	1453
1399434224225166812	1502	1495	1512	1453
1399434224245123542	1503	1495	1512	1453
1399434224260128172	1506	1498	1512	1453
1399434224290119630	1509	1498	1512	1453
1399434224305444412	1512	1498	1512	1453
1399434224325396031	1515	1503	1512	1453
1399434224355442344	1518	1503	1512	1454
1399434224406690036	1528	1505	1511	1454
1399434224420373432	1527	1508	1511	1453
1399434224435321140	1529	1510	1511	1454
1399434224450289784	1530	1510	1511	1454
1399434224475123404	1520	1508	1511	1454
1399434224495377063	1520	1510	1511	1454
1399434224510335132	1518	1507	1511	1455
1399434224540397578	1521	1506	1510	1454
1399434224555445751	1519	1507	1510	1454
1399434224575375421	1511	1505	1510	1455
1399434224605412694	1513	1506	1510	1455
1399434224625340325	1526	1506	1510	1456
1399434224645336618	1527	1506	1510	1455
1399434224660185076	1529	1508	1509	1455
1399434224675327459	1530	1508	1509	1455
1399434224695307684	1528	1509	1509	1456
1399434224710370653	1538	1514	1509	1456
1399434224740364967	1535	1512	1509	1455
1399434224760339054	1536	1514	1509	1455
1399434224790355559	1535	1516	1509	1455
1399434224810429816	1530	1518	1508	1456
1399434224840360769	1528	1517	1508	1455
1399434224875402592	1530	1517	1508	1456
1399434224895347185	1527	1516	1507	1455
1399434224910405612	1525	1512	1507	1455
1399434224925237191	1522	1514	1507	1455
1399434224945162689	1521	1515	1507	1455
1399434224960099521	1518	1510	1507	1455
1399434224990090887	1516	1511	1506	1455
1399434225005043155	1516	1511	1506	1455
1399434225025106401	1516	1515	1506	1455
1399434225045154595	1515	1516	1506	1454
1399434225060079817	1520	1519	1506	1455
1399434225090101621	1520	1518	1506	1454
1399434225125176695	1523	1520	1507	1454
1399434225145207894	1522	1518	1507	1453
1399434225160083579	1525	1519	1507	1452
1399434225175142045	1523	1521	1507	1452
1399434225195062576	1522	1520	1507	1453
1399434225225123457	1517	1517	1508	1452
1399434225245124725	1518	1518	1508	1452
1399434225275137803	1516	1512	1508	1451
1399434225295044728	1515	1512	1508	1451
1399434225325088977	1508	1514	1509	1451
1399434225345109153	1508	1513	1509	1451
1399434225375127076	1502	1514	1509	1452
1399434225395118664	1502	1514	1509	1452
1399434225410137292	1507	1507	1509	1451
1399434225425078404	1507	1506	1510	1451
1399434225445069976	1507	1506	1510	1451
1399434225460068258	1511	1505	1510	1451
1399434225490126930	1512	1503	1510	1451
1399434225505115979	1512	1501	1510	1451
1399434225525126430	1515	1500	1510	1451
1399434225545107603	1516	1499	1510	1451
1399434225560091216	1510	1503	1510	1451
1399434225590124920	1510	1501	1510	1450
1399434225610086961	1510	1503	1511	1450
1399434225625066442	1511	1501	1511	1450
1399434225645086826	1511	1501	1511	1449
1399434225660118173	1508	1506	1511	1449
1399434225675112060	1509	1506	1511	1450
1399434225695095346	1509	1504	1512	1449
1399434225710092507	1508	1506	1512	1450
1399434225740315860	1508	1505	1512	1449
1399434225755344019	1509	1504	1513	1449
1399434225775424612	1507	1500	1513	1449
1399434225795295662	1507	1499	1514	1449
1399434225825387073	1508	1496	1515	1448
1399434225845321630	1510	1495	1515	1448
1399434225860356934	1511	1496	1516	1448
1399434225875366346	1511	1494	1517	1447
1399434225895399818	1511	1494	1517	1447
1399434225910195253	1513	1496	1518	1448
1399434225925375023	1513	1494	1518	1448
1399434225945357732	1514	1493	1519	1448
1399434225975312270	1513	1490	1520	1447
1399434225995329866	1513	1489	1520	1448
1399434226025135185	1513	1484	1521	1448
1399434226045367822	1513	1486	1521	1448
1399434226075098540	1514	1488	1522	1449
1399434226105113142	1515	1487	1523	1449
1399434226120128699	1514	1497	1523	1450
1399434226135099844	1514	1496	1523	1450
1399434226150053643	1514	1497	1524	1450
1399434226170087854	1512	1504	1524	1449
1399434226190044284	1512	1505	1524	1451
1399434226205149453	1512	1506	1524	1452
1399434226225387104	1511	1508	1524	1451
1399434226245383691	1512	1510	1524	1452
1399434226260324260	1512	1510	1524	1453
1399434226290351917	1512	1512	1524	1453
1399434226325389612	1511	1516	1523	1453
1399434226345314340	1512	1516	1523	1454
1399434226360402711	1513	1514	1522	1454
1399434226375384547	1513	1515	1522	1454
1399434226395190275	1514	1516	1521	1454
1399434226410297993	1521	1502	1521	1455
1399434226440238410	1522	1503	1520	1455
1399434226460457739	1523	1500	1519	1455
1399434226490262428	1524	1500	1519	1455
1399434226510281061	1524	1492	1518	1455
1399434226540396876	1525	1495	1517	1456
1399434226560440971	1522	1490	1516	1455
1399434226590357129	1522	1492	1515	1456
1399434226605312446	1523	1491	1514	1456
1399434226620341067	1518	1496	1514	1456
1399434226635357007	1519	1497	1514	1456
1399434226650366155	1518	1497	1513	1456
1399434226675424287	1513	1504	1512	1456
1399434226695214336	1512	1502	1512	1456
1399434226725382934	1510	1513	1511	1456
1399434226745380250	1508	1513	1510	1456
1399434226760367300	1508	1514	1510	1457
1399434226790261977	1506	1514	1510	1455
1399434226810341338	1509	1515	1509	1456
1399434226840315066	1509	1512	1508	1457
1399434226850313624	1509	1512	1508	1456
1399434226870337015	1515	1503	1508	1455
1399434226885317191	1514	1503	1507	1454
1399434226900380577	1514	1503	1507	1455
1399434226925336936	1518	1494	1507	1455
1399434226945385979	1518	1493	1507	1454
1399434226960335405	1524	1490	1507	1454
1399434226990279486	1524	1488	1506	1454
1399434227005392951	1525	1487	1506	1454
1399434227025411260	1528	1484	1506	1454
1399434227055248043	1527	1485	1506	1454
1399434227075095953	1528	1484	1506	1454
1399434227095362031	1528	1484	1506	1454
1399434227110123780	1526	1487	1506	1453
1399434227125333352	1526	1487	1506	1453
1399434227145355921	1525	1485	1506	1453
1399434227175441445	1514	1505	1506	1453
1399434227195358520	1514	1504	1506	1453
1399434227225351088	1511	1507	1506	1453
1399434227245327794	1511	1507	1507	1453
1399434227275376756	1504	1513	1507	1452
1399434227295307548	1502	1512	1508	1452
1399434227325410550	1500	1515	1508	1452
1399434227345456717	1499	1516	1508	1452
1399434227360340803	1507	1506	1509	1453
1399434227375182696	1507	1504	1509	1453
1399434227395343660	1507	1504	1509	1452
1399434227410395268	1509	1503	1509	1452
1399434227440311635	1507	1504	1509	1453
1399434227455400186	1506	1503	1510	1452
1399434227475392933	1508	1496	1510	1452
1399434227495239173	1507	1497	1510	1453
1399434227510136983	1506	1494	1510	1452
1399434227540357330	1506	1493	1510	1452
1399434227575375617	1507	1483	1510	1453
1399434227595314912	1507	1485	1510	1454
1399434227610353289	1507	1480	1510	1453
1399434227625298017	1505	1479	1510	1453
1399434227645348140	1504	1477	1510	1453
1399434227660350469	1505	1482	1510	1453
1399434227690309410	1503	1482	1510	1454
1399434227705290476	1503	1480	1510	1453
1399434227725172311	1502	1489	1510	1453
1399434227745395003	1501	1488	1510	1454
1399434227775314094	1503	1491	1510	1453
1399434227805330898	1505	1492	1510	1453
1399434227820335549	1505	1502	1509	1453
1399434227835070839	1505	1502	1509	1452
1399434227850103894	1505	1505	1509	1452
1399434227870120945	1504	1505	1509	1452
1399434227890073244	1502	1505	1508	1451
1399434227905081994	1502	1505	1508	1451
1399434227925171566	1501	1503	1508	1451
1399434227945074197	1500	1502	1508	1451
1399434227960109674	1500	1501	1508	1450
1399434227990112888	1501	1504	1507	1451
1399434228005053519	1502	1502	1507	1450
1399434228040165420	1499	1489	1506	1450
1399434228055077699	1499	1489	1506	1450
1399434228070078221	1500	1484	1506	1450
1399434228085176671	1502	1483	1506	1451
1399434228100100671	1501	1483	1506	1451
1399434228120133114	1500	1476	1506	1451
1399434228140193641	1500	1475	1506	1451
1399434228155094966	1500	1475	1505	1451
1399434228175077476	1503	1467	1505	1451
1399434228195078728	1502	1466	1505	1452
1399434228210106478	1499	1466	1505	1452
1399434228240129403	1500	1466	1505	1453
1399434228260126046	1495	1472	1506	1453
1399434228290077023	1495	1469	1506	1453
1399434228305316490	1495	1469	1506	1454
1399434228320077828	1490	1480	1506	1454
1399434228335329863	1489	1478	1507	1454
1399434228350370776	1491	1480	1507	1455
1399434228375237817	1491	1491	1508	1455
1399434228395363223	1493	1492	1508	1455
1399434228410195801	1492	1491	1508	1456
1399434228440290955	1496	1502	1509	1455
1399434228455415976	1495	1505	1509	1456
1399434228475368386	1497	1503	1510	1456
1399434228505352117	1498	1506	1510	1456
1399434228525367524	1505	1500	1510	1457
1399434228545321866	1507	1499	1511	1456
1399434228560291130	1508	1500	1511	1457
1399434228575360542	1508	1502	1511	1456
1399434228595264893	1509	1501	1511	1456
1399434228610379654	1509	1503	1511	1457
1399434228640113712	1517	1497	1512	1457
1399434228655151225	1517	1498	1512	1457
1399434228675141647	1522	1479	1512	1457
1399434228695140217	1524	1479	1512	1458
1399434228710145568	1525	1481	1511	1458
1399434228740033612	1530	1479	1511	1457
1399434228760193989	1526	1478	1511	1457
1399434228790299769	1528	1479	1511	1457
1399434228800302938	1529	1479	1511	1456
1399434228820324492	1528	1484	1511	1456
1399434228835409719	1527	1484	1511	1455
1399434228850145466	1529	1485	1510	1455
1399434228875386101	1514	1497	1510	1455
1399434228895385076	1517	1500	1510	1455
1399434228910375071	1519	1499	1510	1454
1399434228940341522	1512	1506	1510	1454
1399434228955076386	1517	1508	1510	1454
1399434228975084920	1511	1514	1510	1454
1399434229005160391	1513	1514	1510	1453
1399434229025167083	1512	1514	1510	1453
1399434229045119519	1516	1517	1510	1452
1399434229060109364	1517	1511	1510	1453
1399434229075076743	1519	1513	1511	1453
1399434229095114089	1520	1510	1511	1452
1399434229125138409	1530	1506	1511	1451
1399434229145379680	1530	1507	1512	1453
1399434229175288301	1540	1499	1512	1452
1399434229195262774	1542	1498	1512	1450
1399434229225384315	1552	1489	1512	1452
1399434229245359184	1551	1488	1513	1452
1399434229275133754	1553	1486	1513	1452
1399434229295054703	1555	1486	1513	1452
1399434229310185092	1550	1494	1513	1452
1399434229325079952	1552	1493	1513	1453
1399434229345167929	1552	1492	1513	1454
1399434229360113354	1543	1496	1513	1453
1399434229390096518	1542	1495	1513	1453
1399434229405205838	1540	1496	1513	1455
1399434229425335417	1526	1508	1513	1454
1399434229445380379	1524	1507	1513	1453
1399434229475376658	1518	1512	1513	1455
1399434229505421903	1515	1513	1513	1455
1399434229520400410	1512	1518	1513	1455
1399434229535142344	1510	1516	1513	1454
1399434229550349401	1510	1517	1513	1454
1399434229570340305	1506	1517	1513	1455
1399434229590341653	1509	1517	1513	1454
1399434229605354215	1505	1516	1513	1455
1399434229625339815	1518	1513	1513	1455
1399434229645326299	1518	1511	1513	1454
1399434229660183192	1526	1505	1513	1455
1399434229690297567	1526	1503	1513	1455
1399434229705350507	1524	1504	1513	1455
1399434229740375532	1528	1501	1513	1456
1399434229755085770	1526	1502	1513	1456
1399434229770149593	1537	1500	1513	1456
1399434229785118356	1536	1501	1513	1457
1399434229800090482	1534	1500	1512	1457
1399434229820099872	1540	1498	1512	1458
1399434229840058841	1540	1496	1512	1458
1399434229865197458	1533	1498	1512	1458
1399434229890083056	1531	1498	1512	1457
1399434229925340829	1515	1505	1512	1457
1399434229945388376	1511	1506	1511	1458
1399434229975315917	1502	1507	1511	1458
1399434230005282168	1498	1508	1511	1458
1399434230020308956	1487	1515	1511	1458
1399434230035391590	1483	1514	1511	1458
1399434230050351594	1481	1515	1512	1460
1399434230070250559	1473	1518	1512	1460
1399434230090445030	1471	1518	1512	1460
1399434230105216140	1467	1518	1513	1460
1399434230125366418	1471	1520	1513	1460
1399434230145264231	1469	1518	1513	1461
1399434230160074339	1479	1517	1514	1461
1399434230190380346	1479	1518	1514	1461
1399434230225348457	1484	1518	1515	1462
1399434230255132263	1482	1519	1516	1462
1399434230270143597	1503	1510	1516	1462
1399434230285110287	1502	1513	1516	1462
1399434230300117428	1504	1511	1516	1463
1399434230325096171	1514	1507	1517	1463
1399434230345042235	1513	1506	1517	1462
1399434230360085602	1531	1494	1518	1463
1399434230390362533	1532	1492	1518	1463
1399434230405361501	1535	1492	1518	1463
1399434230425332682	1537	1482	1519	1463
1399434230455364240	1541	1482	1519	1463
1399434230485334886	1541	1474	1519	1463
1399434230500145680	1543	1473	1519	1462
1399434230520422833	1537	1475	1519	1463
1399434230535277365	1537	1472	1519	1463
1399434230550380734	1540	1471	1519	1463
1399434230575304003	1503	1482	1519	1463
1399434230595368978	1504	1481	1518	1462
1399434230625164393	1496	1486	1518	1462
1399434230645368317	1496	1489	1518	1463
1399434230675401224	1478	1500	1518	1462
1399434230710521781	1470	1510	1517	1462
1399434230735468628	1469	1510	1517	1461
1399434230750187015	1470	1512	1516	1461
1399434230770316957	1468	1520	1516	1460
1399434230785299432	1468	1521	1516	1461
1399434230800334335	1468	1520	1516	1461
1399434230825349994	1470	1528	1515	1460
1399434230845275099	1471	1530	1515	1460
1399434230875146014	1492	1524	1514	1459
1399434230895116025	1494	1523	1514	1458
1399434230925157432	1504	1519	1513	1458
1399434230945083961	1506	1519	1513	1457
1399434230975100118	1539	1506	1513	1457
1399434230995110933	1542	1505	1512	1457
1399434231010082026	1551	1488	1512	1457
1399434231025110244	1552	1487	1512	1457
1399434231045112469	1553	1486	1511	1457
1399434231060093750	1551	1483	1511	1457
1399434231090112408	1555	1482	1510	1457
1399434231105051462	1558	1480	1510	1457
1399434231125161495	1541	1478	1510	1457
1399434231145117143	1545	1476	1509	1458
1399434231160108063	1542	1473	1509	1458
1399434231190093142	1542	1472	1508	1457
1399434231210078021	1518	1479	1508	1456
1399434231225118056	1519	1482	1508	1457
1399434231245252548	1518	1480	1508	1456
1399434231260130693	1506	1491	1507	1455
1399434231275089146	1504	1492	1507	1456
