#Time	 Roll 	 Pitch 	 Yaw 	 Thrust
1400051976870514512	1523	1524	1506	1379
1400051976895494721	1520	1520	1506	1379
1400051976930401862	1518	1521	1506	1381
1400051976945373969	1523	1524	1506	1381
1400051976980159101	1520	1521	1506	1383
1400051977010191217	1518	1520	1506	1384
1400051977040214398	1519	1521	1506	1385
1400051977055361992	1524	1523	1506	1386
1400051977080284807	1518	1521	1506	1387
1400051977095152404	1521	1519	1506	1387
1400051977120166675	1519	1517	1506	1389
1400051977145182999	1520	1523	1506	1390
1400051977170111462	1519	1521	1506	1391
1400051977195176220	1518	1521	1506	1392
1400051977220192952	1521	1521	1506	1393
1400051977235135336	1522	1522	1506	1393
1400051977255147685	1519	1521	1506	1394
1400051977275129253	1516	1524	1506	1395
1400051977285591642	1515	1522	1506	1395
1400051977310532193	1519	1521	1506	1396
1400051977335317130	1516	1522	1506	1397
1400051977360460720	1523	1520	1506	1397
1400051977395543201	1517	1520	1506	1398
1400051977410421663	1520	1521	1506	1399
1400051977445408587	1519	1520	1506	1401
1400051977460500358	1522	1518	1506	1402
1400051977480378838	1517	1521	1506	1403
1400051977495301248	1516	1519	1506	1403
1400051977525474105	1514	1522	1506	1404
1400051977535138872	1516	1523	1506	1404
1400051977555408352	1519	1521	1506	1405
1400051977570449259	1517	1524	1506	1406
1400051977595367955	1513	1518	1506	1407
1400051977620268709	1515	1517	1506	1408
1400051977635467629	1516	1520	1506	1409
1400051977660388912	1520	1522	1506	1411
1400051977695425883	1517	1520	1506	1411
1400051977730458438	1517	1520	1506	1412
1400051977755347028	1514	1522	1506	1413
1400051977780458042	1513	1523	1506	1415
1400051977795320212	1519	1515	1506	1415
1400051977820430634	1516	1521	1506	1417
1400051977845450918	1516	1521	1506	1417
1400051977870429642	1518	1524	1507	1416
1400051977895412642	1510	1523	1507	1418
1400051977920498931	1507	1525	1507	1420
1400051977945461496	1509	1519	1507	1420
1400051977980578279	1501	1519	1507	1420
1400051977995453755	1505	1522	1507	1420
1400051978015425945	1511	1515	1507	1421
1400051978030336596	1497	1512	1507	1421
1400051978045082750	1492	1519	1507	1420
1400051978060380508	1489	1517	1507	1422
1400051978080553028	1498	1522	1507	1420
1400051978095372328	1504	1517	1508	1420
1400051978130425854	1492	1528	1509	1422
1400051978160442270	1496	1519	1510	1422
1400051978195453121	1500	1523	1511	1422
1400051978215463453	1511	1529	1511	1423
1400051978230397115	1507	1535	1512	1423
1400051978245410683	1514	1517	1513	1424
1400051978265455295	1512	1516	1514	1425
1400051978280433265	1496	1523	1514	1425
1400051978305399750	1508	1522	1515	1425
1400051978320358984	1499	1526	1516	1426
1400051978335407221	1501	1522	1517	1428
1400051978360491674	1499	1518	1517	1429
1400051978385420259	1500	1522	1518	1430
1400051978410400157	1509	1527	1519	1430
1400051978430354739	1490	1520	1520	1432
1400051978450512817	1496	1516	1520	1431
1400051978460465721	1501	1526	1521	1434
1400051978480488062	1499	1534	1521	1431
1400051978495434942	1495	1533	1522	1430
1400051978510439933	1503	1533	1522	1431
1400051978530361747	1490	1531	1522	1432
1400051978545367817	1493	1530	1523	1431
1400051978560355019	1493	1526	1523	1433
1400051978585316589	1509	1532	1523	1433
1400051978605363442	1494	1532	1523	1430
1400051978620416663	1497	1535	1523	1433
1400051978645363213	1500	1543	1523	1433
1400051978670387419	1498	1540	1523	1432
1400051978685371132	1512	1531	1523	1435
1400051978705384643	1515	1526	1523	1434
1400051978730454525	1503	1536	1523	1435
1400051978760485260	1510	1533	1522	1435
1400051978780566171	1517	1520	1522	1436
1400051978795496443	1521	1531	1521	1436
1400051978820523136	1526	1529	1521	1435
1400051978845503640	1513	1536	1520	1437
1400051978865528093	1522	1521	1520	1437
1400051978895373697	1514	1536	1518	1432
1400051978915411400	1509	1543	1518	1437
1400051978945444720	1508	1533	1517	1432
1400051978970416092	1506	1540	1516	1430
1400051978995352661	1504	1522	1515	1429
1400051979010331056	1516	1532	1515	1428
1400051979030422337	1518	1530	1515	1426
1400051979045444705	1511	1517	1514	1426
1400051979060503950	1521	1529	1513	1426
1400051979085397339	1525	1530	1513	1426
1400051979110198072	1520	1524	1512	1424
1400051979130402836	1518	1532	1512	1420
1400051979145325237	1507	1524	1512	1422
1400051979180398331	1517	1516	1512	1422
1400051979205497663	1512	1520	1511	1421
1400051979230377067	1517	1509	1511	1423
1400051979245403765	1524	1517	1511	1421
1400051979265358497	1517	1513	1511	1423
1400051979280579057	1522	1518	1511	1418
1400051979295448243	1521	1518	1511	1421
1400051979310403502	1517	1523	1510	1422
1400051979335424086	1514	1517	1511	1425
1400051979360432125	1516	1510	1511	1424
1400051979380511516	1514	1504	1511	1426
1400051979405449218	1517	1511	1511	1425
1400051979420498340	1518	1510	1511	1425
1400051979435472936	1511	1510	1511	1426
1400051979460467758	1514	1504	1511	1425
1400051979470374384	1511	1498	1511	1427
1400051979485433154	1507	1503	1511	1428
1400051979505469928	1507	1507	1511	1427
1400051979520428602	1508	1510	1511	1426
1400051979535552171	1508	1511	1511	1428
1400051979555401911	1507	1507	1511	1427
1400051979580592004	1512	1504	1512	1428
1400051979605381597	1510	1505	1512	1428
1400051979630396484	1510	1499	1512	1428
1400051979660421809	1512	1505	1512	1428
1400051979685411460	1507	1511	1512	1429
1400051979710382840	1513	1508	1512	1430
1400051979730337127	1506	1507	1512	1429
1400051979745159996	1512	1506	1512	1429
1400051979765434011	1504	1514	1512	1428
1400051979780413264	1515	1511	1512	1427
1400051979800428813	1514	1508	1513	1430
1400051979830522255	1507	1511	1513	1430
1400051979850393503	1512	1508	1513	1431
1400051979880515555	1510	1511	1513	1430
1400051979910363039	1508	1508	1513	1431
1400051979945355542	1514	1513	1513	1433
1400051979960295986	1512	1510	1513	1434
1400051979980453577	1508	1516	1513	1435
1400051979995332626	1512	1512	1513	1435
1400051980010558709	1511	1514	1513	1434
1400051980030497645	1506	1517	1513	1434
1400051980045375726	1516	1521	1513	1434
1400051980065401365	1514	1521	1514	1436
1400051980095615316	1507	1524	1514	1437
1400051980110406924	1504	1520	1514	1438
1400051980130588703	1511	1519	1514	1437
1400051980145447528	1511	1527	1514	1437
1400051980165423658	1517	1527	1514	1437
1400051980180471486	1508	1535	1514	1437
1400051980195419626	1513	1524	1514	1439
1400051980210435125	1514	1529	1514	1437
1400051980230506614	1510	1525	1514	1438
1400051980245455358	1515	1523	1514	1437
1400051980265455301	1512	1531	1514	1436
1400051980280504734	1525	1532	1514	1437
1400051980295417199	1508	1539	1514	1436
1400051980315438508	1511	1536	1513	1436
1400051980345478132	1509	1528	1513	1437
1400051980380483502	1512	1534	1513	1435
1400051980395491343	1511	1530	1513	1435
1400051980415467633	1512	1536	1513	1434
1400051980430316241	1523	1523	1513	1434
1400051980445487985	1516	1523	1512	1436
1400051980460458802	1514	1525	1512	1437
1400051980480522343	1515	1519	1512	1437
1400051980505475758	1520	1518	1512	1436
1400051980520427074	1520	1514	1512	1437
1400051980535368129	1514	1528	1512	1435
1400051980560444648	1520	1520	1511	1437
1400051980580470668	1519	1524	1511	1437
1400051980595479070	1521	1532	1511	1436
1400051980630198873	1514	1533	1511	1438
1400051980660452714	1517	1532	1511	1438
1400051980680449834	1521	1531	1510	1436
1400051980700376870	1519	1537	1510	1436
1400051980715368620	1517	1533	1510	1437
1400051980730388863	1516	1524	1510	1437
1400051980745352928	1518	1519	1510	1437
1400051980760398380	1517	1516	1510	1438
1400051980795465108	1515	1515	1510	1438
1400051980815512065	1516	1512	1510	1438
1400051980845417344	1517	1515	1510	1439
1400051980870481762	1517	1511	1510	1438
1400051980885430479	1510	1508	1510	1438
1400051980910445450	1510	1506	1510	1438
1400051980935440749	1519	1512	1510	1437
1400051980955406178	1521	1503	1510	1438
1400051980970453616	1521	1507	1510	1439
1400051980985350040	1512	1512	1510	1439
1400051981005333398	1507	1512	1510	1439
1400051981030494481	1514	1508	1510	1437
1400051981050472194	1511	1506	1510	1439
1400051981080517056	1506	1517	1510	1439
1400051981110491026	1506	1515	1511	1438
1400051981145159904	1508	1505	1511	1436
1400051981160359498	1506	1511	1511	1438
1400051981180294560	1510	1496	1512	1436
1400051981195432197	1502	1498	1512	1438
1400051981210465039	1499	1500	1512	1439
1400051981230422569	1506	1504	1512	1438
1400051981245397711	1511	1508	1512	1439
1400051981265172369	1510	1498	1512	1437
1400051981280429057	1495	1505	1512	1439
1400051981315534724	1504	1498	1512	1439
1400051981335387891	1506	1492	1513	1440
1400051981355528710	1505	1499	1513	1440
1400051981370430188	1502	1499	1512	1441
1400051981400429721	1507	1498	1513	1443
1400051981415311038	1499	1511	1513	1442
1400051981430495050	1509	1508	1513	1441
1400051981445161444	1508	1510	1513	1442
1400051981460449671	1502	1513	1513	1443
1400051981480472844	1505	1510	1513	1444
1400051981495372386	1508	1508	1513	1443
1400051981520431916	1504	1511	1513	1445
1400051981545413505	1508	1512	1513	1444
1400051981560354117	1511	1517	1514	1444
1400051981580457184	1505	1512	1514	1444
1400051981610447038	1507	1512	1514	1444
1400051981645404703	1498	1511	1514	1445
1400051981665378545	1500	1516	1514	1445
1400051981705434974	1499	1516	1513	1445
1400051981730457266	1506	1517	1513	1445
1400051981745551055	1506	1519	1513	1445
1400051981780543920	1508	1519	1513	1445
1400051981805425111	1512	1515	1513	1444
1400051981830510256	1504	1514	1513	1444
1400051981855377013	1498	1505	1513	1445
1400051981870480675	1500	1512	1513	1444
1400051981895540996	1498	1520	1512	1444
1400051981920388511	1503	1523	1512	1442
1400051981935328135	1506	1525	1512	1443
1400051981955353306	1503	1523	1512	1442
1400051981970382005	1506	1519	1512	1442
1400051981995416393	1503	1523	1512	1442
1400051982020374026	1500	1527	1512	1442
1400051982035538410	1505	1523	1512	1442
1400051982060262072	1508	1528	1511	1441
1400051982085263245	1503	1521	1511	1441
1400051982105367927	1505	1523	1511	1441
1400051982120152751	1509	1525	1511	1442
1400051982140474649	1511	1524	1510	1441
1400051982155183494	1507	1516	1510	1440
1400051982170309933	1514	1518	1510	1439
1400051982185362031	1511	1526	1510	1440
1400051982205332156	1509	1525	1510	1439
1400051982220336732	1503	1526	1509	1439
1400051982235422002	1510	1519	1509	1439
1400051982260408195	1506	1523	1509	1439
1400051982280431832	1504	1528	1508	1438
1400051982310351788	1507	1522	1508	1438
1400051982345504008	1512	1521	1508	1438
1400051982370386665	1511	1520	1507	1438
1400051982385199332	1509	1515	1507	1439
1400051982405397492	1510	1513	1507	1439
1400051982420313690	1511	1516	1507	1439
1400051982435459857	1515	1516	1507	1439
1400051982460499413	1515	1513	1507	1440
1400051982495444460	1514	1511	1507	1440
1400051982515389360	1521	1513	1507	1440
1400051982545459803	1515	1502	1507	1441
1400051982580490764	1514	1496	1508	1442
1400051982610535563	1516	1506	1508	1442
1400051982640439109	1511	1509	1509	1442
1400051982655462642	1513	1512	1509	1442
1400051982670477900	1515	1514	1509	1442
1400051982695395765	1517	1497	1509	1443
1400051982710502627	1517	1512	1510	1444
1400051982735137897	1509	1501	1510	1444
1400051982760152603	1516	1503	1510	1443
1400051982785134044	1521	1496	1510	1443
1400051982810109125	1517	1505	1511	1444
1400051982835191577	1521	1501	1511	1442
1400051982855121170	1522	1495	1511	1443
1400051982880181318	1515	1500	1511	1443
1400051982905465679	1520	1503	1511	1442
1400051982920479521	1516	1499	1511	1442
1400051982935516852	1510	1493	1511	1442
1400051982955463174	1513	1496	1511	1441
1400051982970556446	1517	1496	1511	1441
1400051982995463317	1522	1499	1511	1439
1400051983020426610	1516	1497	1511	1440
1400051983045449893	1520	1502	1511	1440
1400051983070511132	1519	1505	1511	1439
1400051983085418864	1518	1500	1511	1439
1400051983105515374	1519	1502	1511	1440
1400051983120489004	1517	1500	1511	1441
1400051983135451201	1527	1500	1510	1441
1400051983155421435	1526	1503	1510	1440
1400051983170543569	1527	1512	1510	1440
1400051983185200213	1526	1502	1510	1440
1400051983205320375	1526	1503	1510	1442
1400051983220145797	1524	1500	1510	1443
1400051983245532018	1527	1501	1510	1442
1400051983280658286	1528	1503	1510	1442
1400051983305389357	1524	1512	1510	1444
1400051983320398000	1525	1500	1510	1445
1400051983355499314	1529	1510	1510	1444
1400051983370376536	1527	1510	1510	1446
1400051983390514229	1521	1513	1510	1446
1400051983405444157	1519	1512	1510	1447
1400051983420453208	1513	1517	1511	1447
1400051983435435390	1520	1516	1511	1448
1400051983460527511	1522	1516	1511	1447
1400051983485443688	1507	1522	1512	1448
1400051983510427087	1514	1525	1512	1449
1400051983535472020	1510	1520	1512	1451
1400051983560578079	1512	1522	1513	1450
1400051983585467199	1515	1526	1513	1450
1400051983605437337	1511	1528	1514	1450
1400051983625459955	1508	1521	1514	1450
1400051983645486720	1505	1520	1514	1450
1400051983660458112	1505	1526	1514	1450
1400051983685410509	1511	1515	1514	1449
1400051983710474260	1508	1515	1514	1450
1400051983735504605	1505	1520	1515	1450
1400051983760639286	1502	1522	1515	1450
1400051983780580888	1507	1524	1515	1449
1400051983810472448	1501	1528	1515	1451
1400051983830501247	1493	1528	1514	1449
1400051983845482037	1498	1523	1514	1449
1400051983880543598	1490	1524	1514	1450
1400051983895229949	1497	1517	1514	1451
1400051983920479206	1487	1518	1514	1451
1400051983935331592	1492	1519	1513	1451
1400051983955345838	1490	1519	1513	1451
1400051983980493888	1495	1519	1513	1451
1400051984005269241	1494	1522	1512	1451
1400051984030158340	1501	1516	1512	1454
1400051984060156610	1501	1520	1512	1451
1400051984090179884	1489	1512	1511	1454
1400051984115154941	1494	1525	1511	1453
1400051984130163166	1497	1511	1511	1455
1400051984145098924	1487	1507	1511	1455
1400051984165184186	1491	1512	1510	1455
1400051984180139391	1494	1512	1510	1455
1400051984195423936	1489	1518	1510	1455
1400051984215360993	1495	1517	1510	1455
1400051984235430455	1496	1520	1510	1455
1400051984265302482	1496	1519	1510	1455
1400051984280292166	1493	1513	1510	1455
1400051984305478934	1490	1510	1510	1456
1400051984330379177	1501	1518	1509	1454
1400051984345494537	1497	1516	1509	1456
1400051984365500329	1498	1517	1509	1454
1400051984380556321	1500	1515	1509	1453
1400051984395181248	1501	1519	1509	1452
1400051984410148398	1504	1517	1509	1451
1400051984435374116	1501	1523	1509	1451
1400051984460240904	1498	1517	1509	1450
1400051984480497553	1505	1509	1509	1449
1400051984510182591	1512	1515	1509	1446
1400051984545228768	1511	1510	1509	1445
1400051984570157440	1517	1521	1509	1444
1400051984585174838	1520	1512	1509	1442
1400051984605200092	1518	1505	1509	1442
1400051984620157390	1516	1503	1509	1441
1400051984635219894	1511	1506	1509	1441
1400051984655150543	1514	1512	1509	1439
1400051984680145011	1515	1513	1509	1439
1400051984710181845	1513	1510	1509	1438
1400051984735199794	1509	1506	1510	1439
1400051984760244125	1509	1508	1510	1438
1400051984795173387	1524	1512	1510	1436
1400051984815185279	1519	1511	1510	1436
1400051984830217950	1524	1516	1510	1437
1400051984860235082	1524	1518	1510	1437
1400051984885263841	1524	1517	1510	1437
1400051984910155827	1530	1519	1510	1437
1400051984935226725	1536	1511	1510	1438
1400051984960171416	1535	1503	1509	1438
1400051984980200013	1526	1504	1509	1440
1400051985010160592	1531	1504	1510	1440
1400051985035133051	1531	1504	1509	1442
1400051985055175494	1531	1505	1509	1442
1400051985070140532	1539	1504	1509	1443
1400051985090159301	1532	1512	1509	1442
1400051985105133442	1528	1515	1509	1443
1400051985120146605	1527	1513	1510	1445
1400051985145109121	1537	1507	1510	1446
1400051985160400278	1530	1505	1510	1447
1400051985195439190	1531	1508	1510	1449
1400051985215137268	1525	1510	1510	1451
1400051985245468748	1528	1511	1511	1452
1400051985280502049	1528	1511	1511	1452
1400051985305181833	1532	1514	1511	1453
1400051985330137242	1525	1506	1512	1454
1400051985345174844	1523	1502	1512	1455
1400051985360185798	1517	1509	1512	1456
1400051985380140192	1517	1506	1512	1455
1400051985395159201	1518	1504	1512	1456
1400051985430172006	1517	1504	1513	1455
1400051985450192004	1517	1504	1513	1455
1400051985480380175	1516	1508	1513	1455
1400051985495432740	1512	1513	1513	1454
1400051985530447915	1510	1511	1514	1454
1400051985560515536	1509	1510	1514	1454
1400051985570402377	1506	1509	1515	1453
1400051985585193737	1524	1509	1515	1452
1400051985605445649	1511	1514	1515	1452
1400051985620433836	1514	1511	1515	1452
1400051985635098838	1509	1505	1516	1453
1400051985665209321	1513	1511	1516	1452
1400051985685178893	1495	1508	1516	1452
1400051985710151858	1497	1505	1517	1449
1400051985735101803	1484	1512	1517	1451
1400051985755100914	1488	1497	1517	1447
1400051985770112072	1493	1505	1517	1449
1400051985790157300	1486	1518	1517	1447
1400051985805154364	1488	1504	1517	1448
1400051985820101868	1482	1510	1517	1449
1400051985835187689	1477	1525	1517	1447
1400051985855062833	1488	1520	1517	1447
1400051985870162000	1483	1522	1517	1448
1400051985885149886	1482	1512	1518	1446
1400051985905129442	1491	1512	1518	1445
1400051985930115565	1485	1519	1518	1447
1400051985960195766	1485	1519	1517	1446
1400051985980115466	1493	1523	1517	1448
1400051985995142577	1500	1526	1517	1446
1400051986025239653	1490	1526	1517	1448
1400051986035077103	1505	1531	1517	1446
1400051986055153986	1507	1520	1517	1449
1400051986075202076	1490	1519	1516	1449
1400051986085134570	1496	1525	1516	1450
1400051986105139448	1493	1525	1516	1449
1400051986120189936	1495	1524	1515	1452
1400051986135177691	1491	1526	1515	1452
1400051986155133355	1495	1531	1515	1453
1400051986180185166	1479	1533	1514	1453
1400051986205188540	1492	1541	1514	1454
1400051986230150422	1496	1538	1513	1456
1400051986260218657	1490	1545	1513	1458
1400051986280171531	1497	1533	1512	1458
1400051986295106538	1505	1533	1512	1459
1400051986310093442	1491	1533	1511	1461
1400051986330171513	1492	1528	1511	1460
1400051986345191317	1495	1533	1511	1461
1400051986360162508	1502	1534	1510	1461
1400051986385182571	1504	1536	1510	1460
1400051986410203455	1506	1542	1510	1461
1400051986435131361	1502	1543	1509	1461
1400051986460206160	1512	1537	1509	1461
1400051986480228671	1501	1541	1508	1462
1400051986505139680	1506	1542	1508	1462
1400051986530143968	1492	1536	1508	1462
1400051986560125668	1501	1536	1507	1459
1400051986580166797	1489	1532	1507	1458
1400051986620203886	1496	1533	1507	1456
1400051986645187344	1511	1531	1507	1455
1400051986660140819	1500	1533	1507	1454
1400051986680165208	1516	1538	1507	1451
1400051986710178523	1516	1537	1507	1450
1400051986730119994	1512	1538	1508	1447
1400051986745248493	1516	1536	1508	1448
1400051986760192005	1519	1530	1508	1446
1400051986780234520	1521	1528	1508	1446
1400051986800219175	1522	1531	1508	1445
1400051986815193962	1524	1527	1508	1444
1400051986830177170	1531	1522	1508	1443
1400051986855172446	1526	1528	1508	1444
1400051986880163020	1518	1521	1509	1443
1400051986910209173	1520	1514	1509	1443
1400051986945225029	1520	1508	1509	1443
1400051986960112266	1524	1500	1510	1444
1400051986980192234	1519	1506	1510	1446
1400051986995173610	1524	1507	1510	1444
1400051987020147003	1518	1509	1510	1445
1400051987035151838	1533	1500	1511	1443
1400051987055166588	1524	1506	1511	1445
1400051987070141899	1524	1512	1511	1444
1400051987095131630	1526	1508	1512	1444
1400051987120103946	1532	1500	1512	1447
1400051987135182892	1540	1489	1512	1444
1400051987160189720	1536	1498	1513	1447
1400051987195184857	1539	1496	1513	1447
1400051987230185490	1532	1494	1513	1448
1400051987255214538	1544	1498	1513	1448
1400051987270120074	1534	1492	1513	1449
1400051987285095102	1537	1507	1513	1450
1400051987305186853	1533	1505	1513	1451
1400051987320157395	1524	1505	1513	1452
1400051987335172429	1537	1502	1513	1452
1400051987355098501	1528	1510	1512	1451
1400051987370122378	1531	1499	1512	1452
1400051987395164303	1536	1515	1512	1453
1400051987420153900	1541	1504	1512	1453
1400051987445132745	1532	1501	1511	1455
1400051987480264415	1540	1494	1511	1453
1400051987505165514	1535	1495	1510	1455
1400051987520160953	1530	1500	1510	1455
1400051987535146080	1532	1503	1510	1455
1400051987555420448	1534	1505	1510	1454
1400051987570450119	1527	1503	1510	1455
1400051987585521848	1531	1514	1509	1455
1400051987610494871	1527	1511	1509	1455
1400051987645436941	1523	1515	1509	1455
1400051987665378426	1520	1519	1509	1456
1400051987695415139	1527	1519	1508	1455
1400051987715441449	1522	1522	1508	1456
1400051987730409764	1521	1525	1508	1455
1400051987745307646	1519	1520	1508	1454
1400051987765373235	1523	1526	1508	1453
1400051987780244643	1521	1527	1508	1454
1400051987795400542	1515	1524	1508	1454
1400051987815405253	1517	1519	1508	1455
1400051987830178580	1513	1517	1508	1454
1400051987850545422	1514	1524	1508	1452
1400051987870258269	1505	1525	1509	1454
1400051987895458479	1507	1520	1509	1453
1400051987930230153	1509	1533	1509	1453
1400051987945160462	1504	1522	1509	1454
1400051987960334845	1499	1533	1510	1453
1400051987985596892	1501	1527	1510	1454
1400051988005315175	1490	1535	1510	1454
1400051988025387528	1496	1546	1510	1456
1400051988035359923	1502	1531	1510	1453
1400051988055158198	1494	1540	1510	1455
1400051988070116998	1497	1539	1511	1455
1400051988095082454	1495	1535	1511	1456
1400051988110158385	1489	1542	1511	1457
1400051988145179208	1496	1534	1512	1458
1400051988170121097	1496	1534	1512	1456
1400051988185089693	1485	1534	1512	1456
1400051988210305805	1493	1522	1512	1458
1400051988235385135	1495	1524	1512	1456
1400051988260462472	1494	1519	1513	1458
1400051988280532836	1494	1528	1513	1457
1400051988295436958	1486	1523	1513	1459
1400051988310398591	1485	1523	1513	1456
1400051988330532980	1484	1517	1513	1457
1400051988355413938	1491	1515	1514	1457
1400051988380535788	1486	1510	1514	1457
1400051988405506705	1482	1519	1514	1457
1400051988430294786	1487	1512	1514	1458
1400051988460417371	1494	1514	1513	1457
1400051988485472263	1500	1513	1513	1458
1400051988505341117	1500	1513	1513	1457
1400051988520503943	1503	1509	1513	1458
1400051988535421312	1517	1519	1513	1456
1400051988555365954	1513	1510	1513	1457
1400051988570296891	1520	1511	1513	1459
1400051988595413108	1529	1515	1513	1458
1400051988620447965	1529	1511	1513	1458
1400051988645371749	1517	1500	1513	1457
1400051988670392107	1519	1496	1513	1458
1400051988685425051	1507	1496	1512	1454
1400051988705506734	1516	1491	1512	1456
1400051988720494951	1527	1481	1512	1455
1400051988740402882	1513	1492	1512	1455
1400051988755339065	1522	1482	1512	1456
1400051988780509352	1511	1487	1512	1455
1400051988795390415	1527	1477	1512	1452
1400051988820419038	1512	1486	1512	1455
1400051988845458044	1536	1485	1511	1453
1400051988865535029	1524	1482	1511	1455
1400051988895436934	1527	1495	1512	1455
1400051988930464292	1538	1482	1511	1454
1400051988955450593	1550	1489	1512	1451
1400051988980428968	1552	1486	1511	1455
1400051988995376025	1550	1490	1512	1454
1400051989010285959	1547	1489	1511	1453
1400051989030479207	1543	1489	1511	1454
1400051989050485835	1547	1479	1511	1453
1400051989080529362	1543	1487	1512	1453
1400051989116475697	1543	1493	1512	1452
1400051989145501222	1555	1489	1511	1451
1400051989180418667	1555	1495	1511	1448
1400051989200476633	1548	1504	1511	1449
1400051989220326121	1542	1497	1511	1448
1400051989235409244	1557	1511	1511	1448
1400051989255346872	1545	1515	1511	1447
1400051989270407440	1554	1514	1510	1446
1400051989295355419	1562	1508	1510	1445
1400051989320481102	1549	1517	1510	1447
1400051989345533740	1557	1517	1510	1446
1400051989370449220	1564	1525	1509	1445
1400051989395431528	1547	1528	1509	1447
1400051989430452854	1545	1518	1509	1448
1400051989455297938	1549	1516	1509	1449
1400051989470380284	1531	1526	1508	1449
1400051989490392893	1537	1519	1508	1450
1400051989505427278	1526	1520	1508	1449
1400051989530452527	1534	1534	1507	1451
1400051989545424229	1539	1535	1507	1454
1400051989580516382	1538	1530	1507	1455
1400051989605480475	1544	1532	1506	1453
1400051989620485022	1530	1538	1506	1456
1400051989635436812	1534	1542	1505	1454
1400051989660490603	1535	1535	1505	1457
1400051989680361204	1530	1544	1505	1457
1400051989695406326	1521	1538	1505	1457
1400051989710388760	1523	1543	1504	1457
1400051989730444256	1520	1538	1504	1459
1400051989745430398	1516	1541	1504	1457
1400051989765489065	1519	1544	1504	1460
1400051989780582607	1516	1531	1504	1460
1400051989800570344	1510	1523	1504	1460
1400051989815376471	1508	1529	1504	1463
1400051989830306583	1501	1527	1504	1461
1400051989850372186	1508	1532	1504	1461
1400051989865380262	1509	1537	1504	1460
1400051989880386559	1503	1526	1504	1462
1400051989910430467	1496	1523	1504	1462
1400051989920096177	1491	1528	1504	1464
1400051989935130853	1492	1530	1504	1464
1400051989955304548	1494	1531	1505	1462
1400051989970186028	1491	1532	1505	1462
1400051989990215195	1503	1541	1505	1463
1400051990010141272	1488	1532	1506	1464
1400051990035176825	1493	1529	1507	1463
1400051990060172636	1480	1528	1507	1465
1400051990080222115	1483	1519	1508	1465
1400051990110245490	1476	1517	1509	1464
1400051990135133461	1473	1519	1510	1462
1400051990155181190	1486	1517	1511	1465
1400051990170187173	1473	1522	1511	1467
1400051990185175294	1487	1501	1512	1466
1400051990205156007	1493	1493	1512	1465
1400051990220095359	1482	1506	1513	1468
1400051990235087978	1495	1498	1513	1465
1400051990255158019	1493	1498	1513	1465
1400051990270166575	1492	1492	1514	1467
1400051990285121330	1479	1497	1514	1466
1400051990305163976	1475	1505	1514	1465
1400051990330173226	1485	1499	1514	1464
1400051990360217725	1488	1502	1515	1463
1400051990395148351	1485	1502	1515	1462
1400051990430212105	1495	1516	1515	1460
1400051990455140043	1503	1516	1515	1459
1400051990470167183	1501	1515	1515	1458
1400051990485135250	1504	1489	1515	1459
1400051990510108187	1503	1500	1515	1456
1400051990530115054	1504	1497	1515	1456
1400051990560186122	1513	1505	1516	1453
1400051990595183894	1512	1499	1516	1454
1400051990630465381	1512	1502	1516	1451
1400051990655206767	1523	1509	1516	1451
1400051990670246941	1516	1507	1516	1449
1400051990690387436	1511	1512	1516	1450
1400051990705398164	1517	1514	1516	1450
1400051990720248635	1518	1520	1516	1448
1400051990735390491	1522	1523	1516	1449
1400051990755471508	1516	1527	1516	1448
1400051990770113889	1527	1516	1516	1449
1400051990795353128	1535	1526	1516	1450
1400051990830531506	1531	1525	1517	1450
1400051990845422377	1531	1532	1517	1450
1400051990880535201	1535	1524	1516	1451
1400051990905463618	1537	1525	1516	1453
1400051990930407902	1537	1540	1516	1451
1400051990945401040	1531	1531	1516	1451
1400051990970426997	1539	1536	1516	1452
1400051990985386446	1522	1532	1516	1453
1400051991005387726	1533	1536	1516	1454
1400051991030334652	1523	1530	1515	1455
1400051991055380834	1521	1530	1515	1454
1400051991080539920	1535	1546	1515	1454
1400051991110482940	1527	1542	1515	1454
1400051991135382437	1519	1532	1515	1456
1400051991165327205	1529	1540	1515	1454
1400051991190161917	1525	1537	1515	1456
1400051991205408969	1523	1536	1515	1454
1400051991220372199	1527	1524	1515	1455
1400051991235401890	1521	1534	1515	1457
1400051991255649265	1513	1530	1515	1456
1400051991280388043	1523	1531	1515	1455
1400051991295336362	1523	1527	1514	1455
1400051991315447558	1520	1528	1514	1454
1400051991345363506	1512	1528	1514	1453
1400051991380415011	1514	1519	1514	1453
1400051991410444555	1511	1518	1514	1453
1400051991430493737	1507	1520	1514	1452
1400051991445329435	1509	1523	1514	1452
1400051991465378694	1509	1520	1514	1454
1400051991485341787	1510	1516	1514	1454
1400051991510459596	1513	1512	1514	1454
1400051991535353248	1510	1509	1514	1454
1400051991560243916	1506	1510	1514	1456
1400051991585329693	1516	1504	1513	1457
1400051991605413704	1510	1506	1514	1456
1400051991625358747	1514	1498	1513	1458
1400051991635516925	1508	1504	1513	1458
1400051991655271063	1509	1504	1513	1459
1400051991675490212	1511	1501	1513	1457
1400051991685465152	1505	1509	1513	1460
1400051991705422473	1521	1503	1513	1460
1400051991720507035	1509	1504	1513	1461
1400051991735404366	1508	1508	1512	1462
1400051991755297703	1521	1509	1512	1461
1400051991770398491	1519	1514	1512	1460
1400051991795438905	1518	1502	1512	1461
1400051991830496271	1520	1495	1512	1461
1400051991855362660	1517	1497	1512	1461
1400051991870457229	1525	1494	1512	1461
1400051991885536093	1521	1495	1512	1461
1400051991905453709	1519	1485	1512	1462
1400051991920537399	1524	1492	1512	1462
1400051991935276097	1521	1487	1512	1461
1400051991960499248	1522	1481	1512	1460
1400051991995677529	1517	1490	1512	1459
1400051992015409886	1521	1490	1512	1458
1400051992035374971	1522	1496	1512	1460
1400051992055179348	1521	1498	1512	1458
1400051992080416625	1518	1498	1512	1457
1400051992095180582	1524	1499	1512	1456
1400051992115273498	1517	1501	1512	1457
1400051992130212948	1512	1498	1512	1457
1400051992145169588	1517	1495	1512	1456
1400051992165171525	1519	1499	1512	1456
1400051992180565286	1523	1494	1512	1454
1400051992195467855	1518	1505	1512	1453
1400051992215126878	1521	1506	1512	1452
1400051992230124341	1517	1509	1512	1451
1400051992250213894	1516	1499	1512	1452
1400051992280252149	1519	1500	1512	1451
1400051992295199632	1519	1502	1512	1451
1400051992330164432	1514	1508	1511	1450
1400051992350162274	1509	1511	1511	1450
1400051992360195357	1510	1509	1511	1451
1400051992390125878	1516	1506	1510	1450
1400051992405160318	1516	1510	1510	1450
1400051992420138839	1512	1509	1510	1451
1400051992435120667	1517	1504	1510	1452
1400051992455158601	1511	1503	1509	1452
1400051992470174539	1509	1506	1509	1450
1400051992495121070	1507	1511	1509	1452
1400051992515190572	1511	1508	1508	1453
1400051992545190923	1506	1520	1508	1451
1400051992580194923	1502	1520	1508	1451
1400051992610143715	1498	1519	1508	1451
1400051992635100275	1499	1528	1508	1449
1400051992655138895	1504	1528	1508	1450
1400051992670202529	1503	1525	1508	1450
1400051992685123360	1507	1519	1508	1450
1400051992705161415	1501	1520	1508	1451
1400051992720190711	1506	1519	1508	1451
1400051992745195484	1504	1518	1508	1451
1400051992765146954	1495	1515	1508	1453
1400051992795119515	1508	1521	1508	1451
1400051992830138225	1499	1514	1507	1453
1400051992855108192	1503	1516	1507	1452
1400051992870094459	1504	1521	1507	1453
1400051992885085358	1499	1525	1507	1452
1400051992905157950	1500	1524	1507	1454
1400051992920145492	1492	1519	1507	1454
1400051992935152425	1499	1518	1507	1454
1400051992960177521	1498	1521	1507	1454
1400051992985185344	1496	1514	1507	1456
1400051993010227735	1496	1513	1507	1455
1400051993030158583	1496	1512	1507	1456
1400051993060176399	1500	1510	1507	1455
1400051993085166478	1501	1510	1507	1456
1400051993105168796	1507	1507	1507	1456
1400051993120101265	1496	1505	1507	1457
1400051993145153309	1491	1514	1507	1456
1400051993160121047	1499	1508	1508	1456
1400051993180170750	1500	1500	1508	1457
1400051993195143090	1496	1506	1508	1457
1400051993220170019	1501	1507	1508	1457
1400051993245124314	1497	1509	1508	1456
1400051993265154701	1495	1509	1509	1457
1400051993295143385	1503	1505	1509	1457
1400051993315118157	1502	1507	1509	1458
1400051993330148952	1501	1503	1510	1457
1400051993345147783	1501	1503	1510	1458
1400051993375160632	1504	1499	1510	1458
1400051993385181072	1505	1498	1511	1457
1400051993405119250	1505	1500	1511	1457
1400051993420124444	1504	1502	1511	1455
1400051993435111294	1508	1501	1511	1455
1400051993455121882	1509	1504	1512	1454
1400051993480194325	1509	1510	1512	1455
1400051993500187004	1514	1511	1512	1455
1400051993530275494	1511	1507	1513	1456
1400051993545107978	1511	1503	1513	1456
1400051993565185976	1514	1507	1513	1456
1400051993580112353	1511	1512	1514	1456
1400051993595093347	1516	1514	1514	1455
1400051993625226732	1515	1512	1514	1456
1400051993635125880	1513	1505	1514	1456
1400051993655096840	1511	1509	1514	1455
1400051993670282922	1510	1507	1514	1455
1400051993685142436	1506	1509	1514	1455
1400051993715147897	1506	1506	1514	1455
1400051993730195947	1516	1513	1514	1455
1400051993760188646	1512	1508	1514	1456
1400051993780166062	1515	1499	1514	1455
1400051993810206187	1514	1503	1514	1456
1400051993835129034	1523	1506	1514	1456
1400051993855272424	1522	1509	1514	1456
1400051993870201963	1518	1512	1514	1457
1400051993890192546	1518	1511	1514	1457
1400051993905165804	1519	1506	1514	1456
1400051993920169863	1514	1510	1514	1458
1400051993945121576	1522	1512	1515	1455
1400051993980135741	1521	1514	1515	1456
1400051994005199190	1528	1507	1514	1454
1400051994030158619	1532	1519	1514	1454
1400051994060263074	1535	1524	1514	1452
1400051994080140099	1530	1513	1514	1450
1400051994095169841	1530	1516	1514	1451
1400051994115139383	1530	1517	1514	1450
1400051994130165140	1527	1520	1514	1453
1400051994155160449	1534	1517	1514	1448
1400051994180167590	1534	1514	1514	1447
1400051994200201179	1545	1514	1514	1447
1400051994230229544	1527	1516	1513	1447
1400051994245150852	1530	1508	1513	1445
1400051994280126237	1531	1511	1512	1445
1400051994305557835	1537	1513	1512	1444
1400051994320345094	1531	1520	1512	1446
1400051994345446973	1526	1519	1512	1446
1400051994370411325	1522	1516	1512	1447
1400051994385387699	1531	1512	1512	1447
1400051994410408563	1522	1520	1512	1447
1400051994430421353	1534	1518	1512	1448
1400051994445550998	1526	1512	1511	1449
1400051994470254081	1534	1519	1511	1448
1400051994495315331	1524	1521	1511	1449
1400051994530165288	1529	1514	1511	1451
1400051994550154363	1527	1513	1511	1452
1400051994565281190	1527	1515	1512	1452
1400051994580126556	1520	1515	1512	1452
1400051994595088892	1525	1515	1511	1452
1400051994610180465	1519	1513	1511	1453
1400051994635209077	1516	1510	1511	1455
1400051994655174226	1515	1509	1511	1456
1400051994670119233	1516	1511	1511	1455
1400051994695141519	1515	1511	1511	1456
1400051994715166620	1513	1515	1511	1457
1400051994745119175	1514	1515	1511	1459
1400051994780140341	1516	1520	1511	1459
1400051994805126034	1515	1514	1510	1461
1400051994830106236	1515	1514	1510	1460
1400051994845204178	1512	1515	1510	1460
1400051994860095065	1515	1513	1510	1461
1400051994880131847	1513	1515	1510	1460
1400051994895167035	1514	1520	1510	1460
1400051994930185681	1513	1518	1510	1461
1400051994950129091	1510	1516	1510	1460
1400051994980194040	1515	1516	1510	1460
1400051995010151805	1514	1515	1510	1460
1400051995035080367	1518	1520	1510	1459
1400051995070124153	1516	1516	1510	1461
1400051995085161942	1517	1512	1510	1461
1400051995110146472	1520	1514	1511	1461
1400051995145147057	1514	1510	1511	1460
1400051995170172746	1522	1510	1511	1459
1400051995195087727	1522	1514	1511	1459
1400051995230160456	1524	1518	1511	1459
1400051995245207672	1531	1520	1512	1457
1400051995260383574	1528	1517	1512	1459
1400051995290422448	1531	1511	1512	1460
1400051995305391359	1532	1510	1512	1458
1400051995330462133	1525	1513	1513	1458
1400051995345352511	1533	1515	1513	1459
1400051995360455884	1530	1514	1513	1459
1400051995380191444	1529	1512	1513	1460
1400051995395503846	1527	1513	1513	1459
1400051995415348966	1531	1511	1514	1459
1400051995445481102	1533	1512	1514	1459
1400051995480221647	1530	1512	1514	1460
1400051995510445523	1532	1506	1514	1460
1400051995530434282	1528	1507	1514	1460
1400051995545390561	1530	1510	1514	1459
1400051995560398075	1530	1516	1514	1461
1400051995590449334	1533	1512	1514	1460
1400051995605454148	1532	1519	1514	1460
1400051995620420647	1527	1509	1514	1460
1400051995635542169	1531	1510	1513	1460
1400051995655466566	1527	1513	1513	1460
1400051995680494362	1528	1511	1513	1460
1400051995710477772	1526	1517	1512	1460
1400051995745221853	1526	1517	1512	1460
1400051995770403640	1527	1518	1511	1459
1400051995795444628	1526	1512	1511	1459
1400051995815404749	1525	1512	1511	1459
1400051995830428794	1523	1516	1510	1459
1400051995845486877	1526	1516	1510	1460
1400051995865437943	1522	1513	1510	1461
1400051995885460488	1513	1510	1510	1462
1400051995910495868	1518	1516	1510	1461
1400051995935488803	1515	1510	1510	1462
1400051995960436997	1516	1513	1509	1462
1400051995995457100	1522	1513	1509	1463
1400051996020446800	1523	1509	1509	1463
1400051996045351949	1521	1510	1509	1464
1400051996065375690	1519	1506	1509	1464
1400051996080473165	1514	1511	1509	1463
1400051996095354308	1518	1516	1509	1464
1400051996120424386	1517	1515	1509	1465
1400051996145456529	1517	1513	1508	1465
1400051996170395848	1511	1511	1508	1466
1400051996195564421	1507	1515	1508	1466
1400051996220406182	1512	1518	1508	1464
1400051996235366608	1504	1514	1507	1466
1400051996260396609	1504	1512	1507	1467
1400051996280357016	1514	1512	1507	1468
1400051996295414532	1510	1511	1507	1468
1400051996330423550	1508	1513	1506	1469
1400051996355471674	1509	1508	1506	1469
1400051996380243300	1505	1514	1506	1471
1400051996410443059	1506	1512	1506	1471
1400051996445523522	1504	1513	1506	1471
1400051996460373062	1508	1523	1507	1472
1400051996480433876	1502	1506	1507	1471
1400051996510440188	1502	1518	1507	1472
1400051996520350589	1497	1519	1507	1473
1400051996540141143	1498	1521	1507	1473
1400051996555451385	1487	1516	1507	1472
1400051996570400450	1494	1524	1507	1474
1400051996585384978	1499	1508	1507	1473
1400051996610173366	1498	1513	1508	1474
1400051996630491288	1492	1513	1508	1474
1400051996645421571	1503	1502	1508	1473
1400051996680428955	1494	1514	1508	1473
1400051996695324013	1494	1518	1508	1471
1400051996730452935	1492	1514	1509	1471
1400051996755463711	1496	1509	1509	1471
1400051996770361576	1481	1508	1509	1471
1400051996785457962	1488	1504	1509	1468
1400051996805441368	1485	1505	1509	1468
1400051996820446935	1488	1506	1510	1467
1400051996835349638	1486	1498	1510	1467
1400051996855284428	1476	1499	1510	1466
1400051996870330366	1472	1501	1510	1466
1400051996895421032	1481	1500	1510	1463
1400051996920484005	1483	1504	1510	1461
1400051996945408238	1486	1512	1510	1460
1400051996980457380	1487	1506	1511	1458
1400051997005333784	1486	1511	1511	1457
1400051997020385388	1494	1504	1510	1457
1400051997035264108	1495	1501	1511	1455
1400051997055091111	1499	1506	1510	1455
1400051997070181354	1501	1507	1511	1453
1400051997085108231	1503	1503	1511	1454
1400051997105162275	1506	1503	1511	1455
1400051997120152571	1508	1498	1511	1455
1400051997145143880	1513	1496	1511	1455
1400051997165154902	1512	1495	1511	1456
1400051997195407101	1515	1491	1511	1456
1400051997230417383	1517	1489	1511	1456
1400051997245384064	1504	1485	1511	1457
1400051997265521606	1506	1485	1511	1457
1400051997280583185	1512	1499	1511	1458
1400051997310392364	1511	1495	1512	1458
1400051997330483905	1523	1499	1512	1457
1400051997345451569	1526	1501	1512	1459
1400051997360149338	1522	1506	1512	1458
1400051997385161735	1526	1507	1512	1460
1400051997410144848	1524	1509	1512	1460
1400051997445186894	1533	1510	1513	1459
1400051997470163754	1533	1511	1513	1460
1400051997485179672	1538	1509	1513	1460
1400051997505099241	1542	1521	1513	1459
1400051997520140526	1539	1517	1513	1459
1400051997540160260	1540	1510	1513	1460
1400051997555153274	1533	1514	1513	1462
1400051997570177933	1544	1516	1513	1459
1400051997595168219	1529	1517	1513	1461
1400051997610132054	1526	1516	1513	1461
1400051997630148944	1538	1503	1512	1459
1400051997660205030	1530	1505	1512	1462
1400051997695172685	1532	1514	1511	1461
1400051997715119136	1525	1517	1510	1462
1400051997735173554	1529	1512	1510	1462
1400051997755145340	1533	1515	1509	1461
1400051997770091598	1529	1517	1508	1461
1400051997785137678	1516	1517	1508	1462
1400051997805135805	1520	1520	1507	1462
1400051997830444586	1513	1514	1507	1462
1400051997845413400	1514	1522	1506	1461
1400051997865360561	1509	1520	1506	1461
1400051997895448712	1508	1520	1505	1461
1400051997930320234	1518	1517	1504	1460
1400051997960531867	1507	1521	1503	1460
1400051997980458726	1511	1527	1503	1459
1400051997995407801	1519	1525	1503	1457
1400051998010307465	1510	1526	1502	1459
1400051998030429177	1507	1522	1502	1458
1400051998045385108	1510	1519	1502	1460
1400051998060410375	1498	1519	1501	1459
1400051998080476897	1496	1520	1501	1459
1400051998100433640	1500	1528	1501	1458
1400051998130527082	1495	1524	1501	1457
1400051998160169095	1497	1516	1500	1458
1400051998180435857	1494	1526	1500	1458
1400051998200506548	1490	1523	1500	1458
1400051998215416778	1489	1523	1500	1460
1400051998230372832	1499	1518	1500	1459
1400051998245401149	1488	1526	1500	1458
1400051998265459716	1497	1522	1500	1456
1400051998280374678	1509	1526	1500	1457
1400051998295418302	1503	1532	1501	1458
1400051998315154156	1500	1525	1501	1459
1400051998335151664	1495	1522	1501	1458
1400051998360207444	1505	1522	1502	1459
1400051998380181048	1492	1519	1503	1459
1400051998405224137	1500	1521	1504	1460
1400051998430203671	1493	1517	1504	1460
1400051998455200320	1496	1511	1505	1461
1400051998480200657	1498	1515	1507	1460
1400051998495179325	1500	1512	1507	1460
1400051998510238411	1500	1510	1508	1461
1400051998530178854	1498	1513	1508	1461
1400051998545211703	1501	1516	1509	1460
1400051998570213803	1504	1519	1510	1459
1400051998595156609	1513	1522	1511	1460
1400051998610182487	1516	1525	1512	1459
1400051998645188337	1518	1520	1513	1460
1400051998680156454	1515	1517	1514	1460
1400051998695169283	1518	1521	1515	1460
1400051998725164750	1511	1508	1516	1461
1400051998735115680	1510	1512	1516	1461
1400051998755150930	1513	1516	1516	1461
1400051998770151270	1509	1514	1517	1461
1400051998785416996	1502	1499	1517	1462
1400051998805372246	1507	1495	1517	1463
1400051998830398041	1514	1502	1517	1464
1400051998860399973	1513	1500	1517	1463
1400051998880383506	1515	1499	1518	1465
1400051998910188543	1519	1493	1518	1465
1400051998945461528	1533	1502	1518	1466
1400051998970505374	1530	1504	1517	1465
1400051998985373736	1522	1513	1517	1463
1400051999005161885	1531	1507	1517	1464
1400051999020543607	1529	1503	1517	1465
1400051999035425793	1521	1502	1517	1466
1400051999055289917	1516	1505	1517	1464
1400051999080460195	1520	1506	1517	1464
1400051999105177761	1529	1501	1517	1464
1400051999120425347	1527	1503	1517	1464
1400051999145434075	1517	1515	1516	1464
1400051999170321637	1520	1518	1516	1463
1400051999185374682	1527	1506	1516	1463
1400051999205624235	1524	1503	1516	1464
1400051999225446779	1521	1506	1516	1464
1400051999235388206	1522	1504	1516	1463
1400051999255409883	1522	1506	1516	1463
1400051999270335929	1520	1512	1515	1462
1400051999285139706	1527	1513	1515	1462
1400051999305472696	1528	1513	1515	1462
1400051999330504894	1525	1507	1514	1462
1400051999350474021	1519	1510	1514	1462
1400051999380489439	1520	1507	1513	1462
1400051999405482678	1514	1516	1511	1463
1400051999420344021	1518	1518	1511	1462
1400051999435153700	1523	1510	1510	1463
1400051999455103952	1516	1507	1510	1464
1400051999470104082	1512	1506	1509	1464
1400051999485120981	1512	1512	1508	1464
1400051999505147637	1514	1518	1508	1464
1400051999520171148	1513	1516	1507	1463
1400051999545175831	1511	1519	1506	1465
1400051999570232549	1511	1513	1505	1466
1400051999585231571	1503	1518	1505	1466
1400051999610199524	1503	1521	1505	1464
1400051999635177014	1502	1522	1504	1465
1400051999655159228	1490	1523	1503	1464
1400051999670184774	1496	1528	1503	1463
1400051999695174023	1498	1517	1503	1463
1400051999715199771	1497	1518	1502	1463
1400051999730151079	1501	1519	1502	1462
1400051999745141560	1501	1507	1502	1463
1400051999760431295	1494	1515	1501	1463
1400051999780441596	1505	1520	1501	1462
1400051999805477528	1497	1520	1501	1464
1400051999830376599	1502	1510	1501	1463
1400051999860455787	1500	1510	1502	1463
1400051999895472409	1495	1515	1502	1464
1400051999930175744	1495	1513	1502	1465
1400051999945117534	1499	1517	1503	1463
1400051999965288063	1491	1512	1503	1464
1400051999980144764	1500	1504	1503	1466
1400051999995151759	1492	1502	1504	1467
1400052000015128845	1492	1502	1504	1467
1400052000030165617	1496	1508	1505	1467
1400052000050136592	1486	1512	1505	1468
1400052000080175163	1494	1514	1506	1468
1400052000110222880	1495	1519	1507	1470
1400052000145161350	1506	1506	1508	1470
1400052000160126381	1500	1503	1509	1471
1400052000180193173	1511	1499	1509	1472
1400052000195151454	1508	1496	1510	1473
1400052000210129762	1517	1500	1510	1472
1400052000230426768	1512	1499	1511	1471
1400052000245401908	1515	1500	1511	1472
1400052000265433885	1514	1496	1512	1474
1400052000280506356	1505	1493	1512	1474
1400052000315461293	1512	1503	1513	1473
1400052000335546608	1510	1497	1513	1474
1400052000365502212	1509	1501	1514	1472
1400052000385438283	1523	1507	1515	1471
1400052000405165084	1519	1503	1515	1472
1400052000420237534	1523	1503	1515	1471
1400052000435104985	1523	1508	1516	1470
1400052000455171366	1527	1516	1516	1469
1400052000470110252	1533	1520	1517	1468
1400052000485150030	1517	1524	1517	1467
1400052000505132227	1519	1520	1517	1467
1400052000520193416	1524	1521	1517	1467
1400052000545110319	1509	1524	1518	1466
1400052000560141994	1516	1526	1518	1463
1400052000580120139	1513	1513	1518	1464
1400052000610171475	1516	1512	1518	1463
1400052000635202927	1509	1510	1518	1464
1400052000665090751	1512	1511	1518	1463
1400052000685150081	1528	1522	1518	1462
1400052000710155696	1519	1523	1518	1463
1400052000730088678	1525	1511	1518	1463
1400052000745159112	1522	1516	1518	1463
1400052000765161832	1519	1523	1518	1463
1400052000795213066	1517	1522	1518	1464
1400052000815155767	1520	1521	1518	1462
1400052000835165671	1515	1525	1518	1464
1400052000855160679	1513	1533	1518	1464
1400052000870149120	1511	1533	1518	1463
1400052000885221582	1518	1534	1518	1464
1400052000905092626	1508	1536	1518	1464
1400052000920127001	1509	1535	1518	1464
1400052000940277328	1513	1533	1518	1465
1400052000955204304	1507	1531	1518	1465
1400052000970230747	1506	1532	1518	1465
1400052000985104070	1512	1538	1518	1465
1400052001005230788	1514	1539	1518	1466
1400052001030252633	1508	1536	1518	1465
1400052001050201998	1514	1534	1518	1465
1400052001080201040	1505	1535	1519	1465
1400052001095209056	1506	1526	1519	1467
1400052001130202431	1510	1535	1519	1466
1400052001145170002	1512	1534	1519	1467
1400052001160227724	1506	1534	1519	1467
1400052001180197777	1506	1533	1519	1468
1400052001195305447	1506	1530	1519	1467
1400052001215124778	1508	1538	1519	1467
1400052001230213144	1514	1541	1519	1467
1400052001245101600	1505	1535	1519	1467
1400052001270124850	1505	1542	1519	1470
1400052001295182985	1509	1533	1519	1469
1400052001330218488	1511	1531	1518	1470
1400052001360272190	1509	1537	1518	1471
1400052001380520306	1512	1528	1517	1472
1400052001395486146	1520	1528	1517	1472
1400052001410426335	1515	1528	1517	1473
1400052001430425180	1514	1530	1516	1473
1400052001445407891	1510	1530	1516	1474
1400052001470437053	1511	1532	1515	1474
1400052001485415398	1506	1529	1515	1475
1400052001505469849	1511	1529	1514	1474
1400052001530245597	1507	1532	1514	1476
1400052001545400181	1510	1531	1513	1475
1400052001580427130	1506	1529	1512	1476
1400052001610456752	1511	1526	1512	1476
1400052001640475706	1514	1525	1512	1476
1400052001660507799	1514	1525	1511	1475
1400052001680252643	1513	1526	1511	1476
1400052001705473392	1511	1526	1511	1475
1400052001720521445	1514	1527	1510	1475
1400052001735413483	1510	1524	1510	1476
1400052001760465032	1511	1521	1510	1475
1400052001795389464	1512	1520	1509	1476
1400052001830383769	1510	1520	1509	1476
1400052001860148399	1511	1519	1509	1476
1400052001885148047	1511	1520	1508	1476
1400052001905137132	1514	1520	1508	1475
1400052001920161151	1516	1521	1508	1475
1400052001940188120	1511	1522	1508	1476
1400052001955164181	1504	1517	1508	1476
1400052001970130690	1502	1515	1508	1478
1400052001995183828	1509	1517	1508	1475
1400052002010121187	1502	1517	1508	1475
1400052002030172057	1505	1512	1508	1474
1400052002060150407	1503	1519	1508	1472
1400052002095241990	1503	1519	1508	1472
1400052002120166353	1511	1524	1508	1469
1400052002135182857	1520	1518	1508	1468
1400052002155160593	1518	1516	1508	1468
1400052002170117799	1513	1512	1508	1469
1400052002185137336	1517	1510	1508	1469
1400052002205197796	1523	1507	1508	1468
1400052002220169072	1525	1511	1509	1467
1400052002235139536	1531	1506	1509	1467
1400052002260135876	1528	1504	1509	1467
1400052002285195493	1515	1505	1509	1467
1400052002310181671	1514	1503	1509	1467
1400052002335240143	1508	1516	1509	1465
1400052002355159528	1508	1516	1510	1466
1400052002370162943	1508	1514	1510	1466
1400052002385242348	1509	1505	1509	1466
1400052002405239999	1511	1513	1509	1464
1400052002420245071	1517	1512	1509	1462
1400052002435218305	1515	1523	1509	1462
1400052002460243832	1514	1519	1509	1462
1400052002495532133	1511	1515	1509	1462
1400052002520482624	1511	1512	1509	1462
1400052002545497936	1509	1513	1508	1461
1400052002580238161	1507	1516	1508	1461
1400052002595496581	1510	1516	1507	1459
1400052002615130933	1504	1516	1507	1460
1400052002630335574	1496	1506	1506	1462
1400052002650230224	1499	1507	1506	1461
1400052002665060525	1506	1509	1506	1460
1400052002685148368	1499	1514	1505	1460
1400052002705124970	1502	1512	1505	1461
1400052002720139426	1501	1509	1505	1461
1400052002745153242	1506	1514	1504	1461
1400052002780137979	1506	1509	1504	1461
1400052002805195322	1512	1521	1504	1459
1400052002820168956	1509	1519	1504	1459
1400052002835184467	1504	1515	1504	1461
1400052002860156966	1504	1515	1504	1462
1400052002885162070	1504	1520	1504	1461
1400052002905201529	1505	1522	1504	1461
1400052002920138317	1503	1512	1504	1462
1400052002935172470	1501	1509	1504	1463
1400052002955205941	1504	1510	1505	1463
1400052002970363924	1505	1512	1505	1462
1400052002995215721	1505	1509	1506	1462
1400052003030270288	1506	1504	1506	1461
1400052003045197363	1501	1510	1507	1463
1400052003080184024	1503	1504	1508	1462
1400052003095214486	1502	1509	1508	1461
1400052003115178865	1508	1506	1509	1461
1400052003130161781	1506	1512	1509	1463
1400052003145122865	1502	1510	1510	1463
1400052003160241760	1502	1502	1510	1463
1400052003180169078	1501	1502	1511	1465
1400052003195155015	1507	1505	1511	1464
1400052003210138615	1505	1501	1512	1466
1400052003245157193	1514	1499	1512	1465
1400052003270187509	1513	1499	1513	1465
1400052003295166017	1512	1502	1514	1465
1400052003320152366	1514	1507	1514	1464
1400052003345141562	1514	1504	1515	1465
1400052003365202366	1511	1508	1515	1464
1400052003380154224	1516	1518	1515	1463
1400052003395126494	1519	1519	1515	1465
1400052003410181180	1517	1517	1516	1464
1400052003435227136	1513	1510	1516	1464
1400052003460305867	1513	1507	1516	1466
1400052003495196471	1511	1512	1517	1465
1400052003530235249	1509	1511	1517	1465
1400052003560225327	1509	1514	1517	1466
1400052003580183565	1509	1519	1516	1466
1400052003595185085	1504	1516	1516	1465
1400052003610173570	1505	1514	1516	1466
1400052003655207102	1509	1527	1515	1465
1400052003680196453	1512	1525	1515	1463
1400052003700218009	1522	1523	1514	1463
1400052003730226567	1521	1525	1514	1463
1400052003745154399	1522	1520	1513	1463
1400052003780203723	1522	1518	1512	1461
1400052003805149263	1529	1509	1512	1461
1400052003820200906	1529	1512	1511	1460
1400052003845126052	1525	1525	1511	1461
1400052003870126493	1526	1518	1510	1461
1400052003890108656	1522	1519	1510	1462
1400052003905140372	1524	1522	1510	1462
1400052003920156117	1527	1527	1510	1462
1400052003935190236	1525	1519	1510	1461
1400052003960200237	1520	1516	1510	1463
1400052003980146264	1514	1514	1510	1463
1400052004010190351	1510	1514	1509	1464
1400052004035134353	1517	1510	1509	1466
1400052004055176504	1514	1507	1509	1467
1400052004070106149	1516	1507	1509	1467
1400052004090171854	1520	1511	1510	1467
1400052004105120842	1519	1510	1510	1467
1400052004130165052	1519	1505	1510	1468
1400052004145156913	1523	1501	1510	1470
1400052004160170990	1519	1502	1511	1470
1400052004180225034	1522	1509	1511	1469
1400052004205147992	1516	1506	1512	1472
1400052004230171161	1519	1507	1513	1470
1400052004260208167	1523	1503	1514	1470
1400052004285191075	1516	1510	1514	1470
1400052004315131857	1520	1515	1515	1469
1400052004330195796	1517	1511	1516	1469
1400052004355267567	1510	1505	1516	1470
1400052004370170953	1514	1510	1517	1469
1400052004385139926	1507	1514	1517	1470
1400052004410426401	1505	1510	1518	1470
1400052004445407710	1505	1508	1518	1469
1400052004465499011	1502	1504	1518	1470
1400052004485347923	1507	1510	1519	1469
1400052004510337866	1502	1508	1519	1469
1400052004535556298	1504	1505	1519	1470
1400052004555419963	1497	1501	1519	1470
1400052004570388592	1493	1508	1519	1469
1400052004590470015	1499	1514	1520	1470
1400052004605399308	1500	1510	1520	1470
1400052004620197745	1497	1507	1520	1470
1400052004635395942	1497	1508	1520	1469
1400052004655489441	1496	1513	1520	1469
1400052004680498084	1492	1510	1520	1469
1400052004700424952	1498	1516	1520	1469
1400052004730491614	1490	1518	1520	1468
1400052004745524827	1492	1518	1520	1468
1400052004775404732	1491	1523	1519	1468
1400052004785456817	1492	1520	1519	1465
1400052004805473296	1491	1527	1519	1466
1400052004820378097	1487	1524	1519	1467
1400052004835478420	1494	1514	1519	1466
1400052004855371705	1493	1516	1519	1467
1400052004870392409	1495	1520	1518	1467
1400052004885184764	1488	1526	1518	1465
1400052004905134641	1489	1520	1517	1466
1400052004920264247	1491	1523	1517	1468
1400052004935175443	1494	1517	1517	1467
1400052004955270040	1494	1520	1516	1465
1400052004970166701	1496	1516	1516	1466
1400052004995176220	1495	1524	1516	1466
1400052005020171864	1493	1515	1515	1467
1400052005035139499	1496	1521	1515	1467
1400052005055459463	1497	1532	1515	1465
1400052005070421270	1496	1532	1515	1465
1400052005085289613	1493	1532	1514	1465
1400052005105355009	1495	1531	1514	1466
1400052005120454027	1496	1527	1514	1467
1400052005135333941	1494	1527	1514	1467
1400052005155326854	1492	1528	1514	1466
1400052005180525136	1496	1525	1513	1468
1400052005205464221	1495	1537	1513	1467
1400052005230420774	1504	1531	1513	1468
1400052005269419817	1506	1530	1512	1469
1400052005280414858	1508	1539	1512	1469
1400052005300452721	1509	1532	1512	1469
1400052005315531978	1509	1531	1512	1470
1400052005330557554	1503	1536	1512	1469
1400052005345377790	1513	1535	1512	1469
1400052005360410914	1508	1536	1511	1470
1400052005380507125	1519	1546	1511	1470
1400052005400372753	1522	1550	1511	1471
1400052005430353576	1517	1530	1511	1473
1400052005445589098	1524	1533	1511	1475
1400052005470132807	1515	1534	1511	1475
1400052005495377988	1524	1534	1510	1476
1400052005520328242	1521	1533	1510	1475
1400052005535497165	1530	1535	1510	1476
1400052005555508322	1532	1539	1509	1478
1400052005570215344	1536	1542	1509	1479
1400052005595555903	1525	1538	1509	1479
1400052005610416825	1532	1539	1508	1481
1400052005635420998	1521	1533	1508	1478
1400052005660514889	1529	1532	1507	1480
1400052005680438186	1526	1532	1507	1480
1400052005715568208	1531	1535	1506	1479
1400052005745414884	1534	1537	1506	1479
1400052005765294464	1533	1538	1506	1478
1400052005780359312	1529	1529	1505	1479
1400052005800586781	1529	1531	1505	1477
1400052005815439676	1521	1534	1505	1478
1400052005830401550	1535	1531	1505	1474
1400052005845384659	1521	1535	1505	1474
1400052005870262297	1522	1541	1505	1474
1400052005895521480	1535	1533	1505	1473
1400052005910427363	1530	1534	1505	1471
1400052005935473191	1529	1535	1505	1469
1400052005960419344	1530	1526	1505	1470
1400052005995192373	1529	1526	1506	1468
1400052006015497499	1529	1528	1506	1466
1400052006030524209	1520	1524	1506	1467
1400052006045529869	1516	1516	1505	1467
1400052006060479101	1517	1515	1505	1467
1400052006080503708	1518	1515	1506	1466
1400052006105501339	1517	1512	1506	1465
1400052006120464196	1512	1508	1506	1464
1400052006135271543	1510	1508	1506	1464
1400052006165277156	1511	1508	1506	1463
1400052006180141996	1506	1511	1506	1462
1400052006210251524	1504	1505	1507	1463
1400052006230214877	1500	1504	1507	1462
1400052006245164911	1501	1504	1507	1463
1400052006265228162	1499	1507	1508	1460
1400052006280191832	1502	1505	1508	1460
1400052006295174305	1498	1506	1508	1461
1400052006315155228	1490	1503	1508	1460
1400052006335202701	1498	1494	1509	1461
1400052006355171165	1492	1495	1510	1463
1400052006370202809	1499	1494	1510	1461
1400052006395190045	1491	1504	1511	1463
1400052006415178035	1492	1491	1511	1465
1400052006445203548	1499	1500	1512	1468
1400052006480191847	1493	1494	1513	1468
1400052006505176108	1500	1497	1514	1469
1400052006520124756	1506	1500	1514	1469
1400052006535184880	1506	1507	1515	1472
1400052006555172541	1512	1507	1515	1473
1400052006570144378	1515	1506	1515	1472
1400052006585209103	1511	1509	1515	1473
1400052006605127195	1509	1506	1516	1474
1400052006630193115	1500	1500	1516	1476
1400052006655126672	1500	1498	1516	1475
1400052006680220124	1504	1501	1516	1476
1400052006710144343	1507	1505	1516	1478
1400052006735204249	1509	1502	1517	1476
1400052006755209058	1506	1503	1517	1477
1400052006770127216	1512	1505	1517	1477
1400052006785147577	1508	1506	1516	1478
1400052006805150061	1504	1508	1516	1476
1400052006820144477	1506	1508	1516	1476
1400052006835115665	1505	1505	1516	1476
1400052006860171687	1503	1509	1516	1476
1400052006885202042	1515	1519	1515	1475
1400052006910184667	1514	1519	1515	1473
1400052006945203704	1514	1523	1514	1472
1400052006980143838	1521	1527	1514	1472
1400052007000179101	1521	1533	1514	1471
1400052007015158701	1517	1528	1513	1470
1400052007030203491	1518	1520	1513	1470
1400052007045133349	1518	1529	1513	1469
1400052007060156824	1522	1524	1513	1469
1400052007085154611	1515	1525	1512	1468
1400052007105163706	1513	1523	1512	1467
1400052007120370015	1509	1522	1512	1468
1400052007145440395	1512	1520	1512	1467
1400052007180519049	1515	1530	1511	1467
1400052007205424625	1514	1525	1511	1466
1400052007220442325	1507	1528	1511	1467
1400052007235436537	1506	1520	1511	1466
1400052007255435033	1501	1524	1510	1466
1400052007275162080	1505	1528	1510	1464
1400052007285477815	1506	1530	1510	1466
1400052007305415187	1506	1524	1510	1465
1400052007330525454	1502	1528	1510	1463
1400052007350490158	1513	1529	1510	1465
1400052007380522175	1511	1532	1510	1466
1400052007400394012	1509	1532	1509	1465
1400052007430609844	1506	1531	1509	1465
1400052007460517437	1500	1534	1509	1465
1400052007480527502	1513	1526	1509	1464
1400052007495468833	1500	1533	1509	1466
1400052007510384208	1506	1531	1509	1466
1400052007530612370	1493	1530	1509	1467
1400052007545446815	1497	1537	1509	1467
1400052007565481611	1498	1526	1509	1468
1400052007585459248	1496	1522	1508	1468
1400052007610390706	1501	1524	1508	1468
1400052007645407683	1500	1532	1508	1467
1400052007660381300	1499	1528	1508	1467
1400052007680438110	1498	1521	1508	1468
1400052007700221223	1501	1524	1508	1468
1400052007715381805	1499	1518	1508	1470
1400052007730454834	1495	1515	1507	1468
1400052007745530288	1506	1520	1507	1468
1400052007760429565	1507	1529	1507	1466
1400052007795440448	1503	1518	1507	1468
1400052007820473442	1501	1514	1507	1467
1400052007845548831	1496	1517	1506	1466
1400052007865408771	1493	1514	1506	1468
1400052007895248200	1498	1515	1506	1466
1400052007930266823	1499	1512	1505	1467
1400052007955191752	1498	1504	1505	1467
1400052007980182438	1495	1512	1505	1468
1400052007995160576	1499	1513	1505	1466
1400052008010154036	1508	1512	1505	1467
1400052008030149260	1510	1511	1505	1467
1400052008055200542	1508	1511	1505	1467
1400052008080134338	1511	1510	1505	1468
1400052008095142248	1511	1510	1506	1467
1400052008130207639	1500	1501	1506	1466
1400052008145148530	1498	1501	1506	1468
1400052008180242819	1502	1503	1506	1467
1400052008210138651	1497	1501	1506	1467
1400052008240258391	1500	1503	1507	1467
1400052008255160757	1504	1494	1506	1468
1400052008270190142	1503	1498	1506	1467
1400052008295187368	1510	1492	1506	1469
1400052008320159206	1517	1505	1506	1465
1400052008345234149	1520	1501	1505	1467
1400052008380172811	1514	1505	1505	1467
1400052008395142437	1516	1507	1504	1466
1400052008430184824	1520	1509	1504	1467
1400052008455172262	1519	1508	1504	1468
1400052008470132701	1528	1511	1504	1468
1400052008490274393	1520	1506	1504	1467
1400052008505146246	1523	1507	1504	1466
1400052008530192499	1525	1506	1503	1466
1400052008545205228	1519	1506	1503	1469
1400052008560212371	1519	1502	1503	1468
1400052008595190936	1525	1505	1503	1467
1400052008620149192	1519	1506	1503	1466
1400052008645163800	1521	1506	1504	1466
1400052008670086599	1512	1503	1503	1467
1400052008685212160	1522	1509	1504	1467
1400052008705154288	1517	1517	1504	1466
1400052008725218864	1517	1505	1504	1467
1400052008735171801	1511	1509	1504	1465
1400052008760237854	1513	1506	1505	1464
1400052008780158114	1512	1520	1506	1462
1400052008795202982	1520	1525	1506	1461
1400052008810119947	1518	1522	1507	1460
