#Time	 Roll 	 Pitch 	 Yaw 	 Thrust
1399435198073112278	1508	1501	1523	1378
1399435198088081482	1507	1501	1523	1378
1399435198108025066	1507	1501	1523	1378
1399435198123046057	1508	1500	1523	1378
1399435198138056899	1508	1501	1523	1378
1399435198158086731	1508	1501	1523	1378
1399435198173136298	1508	1501	1523	1378
1399435198188132393	1508	1501	1523	1378
1399435198203081117	1508	1501	1523	1378
1399435198208075242	1508	1501	1523	1378
1399435198213043902	1508	1501	1523	1378
1399435198223047074	1508	1501	1523	1378
1399435198233134732	1508	1500	1523	1378
1399435198238166247	1508	1501	1523	1378
1399435198248071622	1508	1501	1523	1378
1399435198258093493	1507	1501	1524	1378
1399435198263003855	1508	1501	1523	1378
1399435198273014864	1507	1501	1523	1378
1399435198288115155	1508	1501	1523	1378
1399435198303126603	1508	1501	1523	1378
1399435198308101069	1507	1501	1523	1378
1399435198318083582	1508	1500	1523	1378
1399435198323002098	1507	1501	1523	1378
1399435198338050958	1508	1500	1523	1378
1399435198353082814	1507	1500	1523	1378
1399435198357988235	1508	1501	1523	1378
1399435198368059673	1507	1500	1523	1378
1399435198373029472	1508	1500	1523	1378
1399435198388077749	1508	1501	1523	1378
1399435198403060992	1507	1501	1523	1378
1399435198418075360	1508	1500	1523	1378
1399435198423075725	1508	1501	1523	1378
1399435198433108300	1509	1500	1523	1378
1399435198438047696	1508	1500	1523	1378
1399435198448227571	1507	1500	1524	1378
1399435198458131880	1508	1500	1524	1377
1399435198463078438	1509	1499	1524	1377
1399435198473184918	1508	1500	1523	1378
1399435198483057131	1509	1499	1523	1378
1399435198488056684	1510	1499	1523	1377
1399435198498048858	1509	1499	1523	1377
1399435198508093312	1510	1499	1523	1378
1399435198523041187	1509	1500	1523	1377
1399435198538063023	1508	1499	1523	1377
1399435198558063974	1509	1499	1523	1377
1399435198573240921	1509	1499	1523	1434
1399435198588283068	1510	1497	1523	1426
1399435198608291130	1510	1498	1523	1426
1399435198623336849	1509	1498	1523	1426
1399435198638355114	1510	1500	1523	1426
1399435198653293933	1509	1499	1523	1426
1399435198668277443	1510	1500	1523	1427
1399435198673312958	1509	1500	1523	1426
1399435198688319708	1509	1501	1523	1426
1399435198698173484	1509	1502	1523	1426
1399435198708367471	1509	1503	1523	1426
1399435198713282961	1508	1502	1523	1426
1399435198723376255	1508	1503	1523	1425
1399435198733023213	1506	1503	1523	1424
1399435198738040237	1503	1503	1523	1424
1399435198748033108	1505	1503	1523	1423
1399435198758045795	1502	1504	1523	1422
1399435198773067550	1502	1503	1523	1421
1399435198788095506	1499	1506	1523	1418
1399435198803058755	1499	1506	1522	1418
1399435198808072938	1498	1503	1522	1415
1399435198823133133	1497	1505	1522	1414
1399435198838118107	1499	1498	1522	1412
1399435198853098954	1498	1497	1521	1409
1399435198858089446	1496	1498	1521	1408
1399435198873127023	1496	1499	1521	1407
1399435198888277344	1495	1493	1520	1405
1399435198923431577	1493	1493	1519	1400
1399435198933371172	1494	1496	1519	1397
1399435198938213212	1491	1494	1519	1397
1399435198948268493	1494	1494	1518	1394
1399435198958286698	1493	1496	1518	1394
1399435198963267559	1493	1492	1518	1392
1399435198973289458	1492	1495	1518	1391
1399435198983151607	1492	1497	1517	1391
1399435198988241946	1490	1501	1517	1390
1399435198998032157	1492	1498	1517	1388
1399435199008273085	1488	1500	1516	1388
1399435199018404441	1493	1498	1516	1386
1399435199023307699	1488	1498	1516	1386
1399435199038247253	1493	1506	1516	1383
1399435199053174579	1493	1506	1515	1382
1399435199058051342	1493	1506	1515	1382
1399435199068105923	1492	1503	1515	1380
1399435199073088836	1491	1505	1515	1379
1399435199088129429	1496	1514	1514	1377
1399435199103235687	1495	1514	1514	1376
1399435199108073797	1493	1514	1514	1377
1399435199118185662	1495	1516	1514	1374
1399435199123165023	1493	1515	1513	1375
1399435199138075528	1492	1511	1513	1375
1399435199153088069	1495	1513	1513	1373
1399435199158067355	1493	1511	1512	1372
1399435199168058028	1496	1512	1512	1371
1399435199173044163	1493	1515	1512	1371
1399435199183076295	1496	1512	1512	1370
1399435199188049003	1498	1513	1512	1369
1399435199198026550	1498	1513	1512	1371
1399435199208134438	1497	1512	1512	1368
1399435199213330030	1496	1512	1512	1368
1399435199233322277	1498	1512	1511	1368
1399435199238437941	1498	1511	1511	1367
1399435199248363495	1496	1515	1511	1369
1399435199258272515	1496	1514	1511	1366
1399435199273291152	1496	1513	1511	1367
1399435199288235974	1498	1506	1511	1365
1399435199303228665	1498	1506	1511	1367
1399435199308198121	1498	1506	1511	1366
1399435199323303289	1499	1506	1511	1365
1399435199338243711	1495	1501	1511	1365
1399435199353350303	1495	1499	1511	1364
1399435199358286567	1496	1500	1511	1365
1399435199373114571	1495	1500	1511	1365
1399435199388060302	1494	1497	1510	1365
1399435199403045950	1495	1494	1510	1365
1399435199408014767	1496	1498	1510	1365
1399435199413075763	1495	1495	1510	1366
1399435199423102128	1496	1496	1510	1365
1399435199433056415	1494	1492	1510	1365
1399435199438037203	1495	1489	1510	1365
1399435199448056409	1495	1490	1510	1365
1399435199458127895	1497	1491	1510	1365
1399435199463051614	1494	1492	1510	1366
1399435199473053856	1498	1488	1510	1365
1399435199483076817	1495	1492	1510	1366
1399435199488007469	1496	1492	1510	1365
1399435199503081041	1495	1490	1510	1366
1399435199508063294	1498	1490	1510	1365
1399435199523027711	1497	1490	1510	1366
1399435199538349878	1495	1495	1511	1366
1399435199553403428	1497	1490	1511	1364
1399435199558260906	1497	1495	1511	1367
1399435199573390527	1497	1493	1511	1366
1399435199588408785	1501	1494	1511	1366
1399435199603349608	1503	1495	1511	1366
1399435199608239831	1502	1494	1511	1367
1399435199623336260	1502	1494	1511	1367
1399435199638318511	1500	1502	1511	1368
1399435199653353845	1501	1499	1511	1367
1399435199658274978	1501	1505	1511	1369
1399435199663290450	1502	1498	1511	1367
1399435199673241786	1501	1505	1511	1369
1399435199683189527	1500	1506	1511	1368
1399435199688238004	1498	1510	1511	1369
1399435199698141161	1501	1508	1511	1369
1399435199708045771	1499	1507	1512	1369
1399435199713235168	1501	1509	1512	1369
1399435199723305934	1501	1509	1512	1370
1399435199733280514	1503	1510	1512	1369
1399435199738189172	1502	1510	1512	1371
1399435199753332015	1505	1509	1512	1370
1399435199758298515	1504	1509	1512	1370
1399435199773362173	1505	1510	1512	1371
1399435199788385739	1505	1507	1512	1371
1399435199803350313	1504	1507	1512	1372
1399435199808266688	1508	1508	1512	1371
1399435199823323450	1506	1507	1512	1372
1399435199838335739	1506	1502	1512	1373
1399435199853423310	1507	1503	1512	1373
1399435199858237673	1505	1501	1512	1373
1399435199873380249	1508	1502	1512	1373
1399435199888391833	1505	1499	1512	1374
1399435199898309516	1507	1498	1512	1373
1399435199908379850	1506	1496	1512	1374
1399435199913275520	1508	1499	1512	1375
1399435199923265102	1505	1498	1512	1374
1399435199933266568	1502	1493	1512	1375
1399435199938325706	1506	1493	1512	1374
1399435199948317304	1504	1492	1512	1376
1399435199958323206	1505	1495	1512	1375
1399435199963262564	1503	1494	1512	1375
1399435199973403104	1504	1494	1512	1375
1399435199988091089	1506	1491	1512	1376
1399435200008392310	1506	1491	1512	1376
1399435200023159770	1507	1491	1512	1376
1399435200038135857	1506	1490	1512	1376
1399435200058012948	1506	1490	1512	1377
1399435200073229819	1507	1491	1511	1377
1399435200088313496	1509	1489	1511	1377
1399435200108368910	1508	1489	1511	1377
1399435200123349453	1510	1490	1511	1378
1399435200133338361	1511	1491	1511	1377
1399435200138295919	1510	1493	1511	1379
1399435200148382789	1511	1491	1511	1378
1399435200158309524	1511	1493	1511	1378
1399435200163239461	1512	1491	1511	1378
1399435200173379001	1511	1492	1511	1379
1399435200183259819	1515	1495	1511	1378
1399435200188307773	1514	1497	1511	1379
1399435200198292417	1514	1496	1511	1378
1399435200208435244	1516	1496	1511	1378
1399435200213359001	1514	1497	1511	1379
1399435200223267006	1515	1496	1510	1379
1399435200238665249	1514	1499	1510	1379
1399435200258437245	1514	1499	1510	1379
1399435200273309884	1514	1501	1510	1379
1399435200288345591	1516	1506	1510	1379
1399435200308341724	1517	1505	1510	1379
1399435200323073692	1517	1506	1510	1379
1399435200338260602	1515	1507	1509	1380
1399435200358298537	1516	1509	1509	1379
1399435200373359669	1516	1509	1509	1379
1399435200383357949	1517	1508	1509	1379
1399435200388235795	1517	1507	1509	1380
1399435200398211942	1517	1509	1509	1380
1399435200408322080	1517	1507	1509	1379
1399435200413334012	1515	1508	1509	1381
1399435200423351634	1517	1508	1509	1379
1399435200433347461	1515	1506	1509	1380
1399435200438315534	1515	1508	1509	1380
1399435200448251838	1515	1507	1509	1380
1399435200458182621	1515	1507	1509	1380
1399435200463288401	1515	1507	1509	1379
1399435200473260275	1513	1507	1509	1381
1399435200488288955	1514	1504	1508	1380
1399435200508334778	1513	1503	1508	1380
1399435200523310925	1514	1504	1508	1380
1399435200538316960	1510	1500	1508	1381
1399435200558287515	1509	1499	1508	1381
1399435200573450415	1509	1499	1508	1381
1399435200588033894	1510	1494	1508	1381
1399435200603250031	1509	1495	1508	1380
1399435200618500758	1510	1496	1508	1382
1399435200623369101	1510	1496	1508	1381
1399435200638383043	1508	1492	1508	1381
1399435200648365545	1507	1493	1508	1382
1399435200658329945	1507	1489	1507	1380
1399435200663494432	1506	1491	1507	1382
1399435200673373167	1506	1490	1507	1380
1399435200683273446	1508	1488	1507	1382
1399435200688229438	1508	1489	1507	1381
1399435200698081532	1507	1487	1507	1382
1399435200708227553	1506	1489	1507	1382
1399435200723298515	1507	1488	1507	1382
1399435200738400599	1508	1492	1507	1382
1399435200753368751	1508	1492	1507	1381
1399435200758197220	1507	1492	1507	1383
1399435200773324473	1508	1491	1507	1382
1399435200788207942	1511	1493	1507	1382
1399435200803324751	1509	1493	1507	1383
1399435200808181625	1510	1494	1507	1382
1399435200823351553	1509	1494	1507	1383
1399435200838323455	1511	1498	1507	1383
1399435200853354078	1511	1497	1507	1382
1399435200858310059	1511	1497	1507	1383
1399435200868343030	1512	1498	1507	1382
1399435200873299327	1510	1498	1507	1383
1399435200883288730	1514	1501	1507	1383
1399435200888240902	1512	1500	1507	1383
1399435200898229665	1513	1502	1507	1384
1399435200908016268	1512	1501	1507	1383
1399435200913190397	1513	1502	1507	1384
1399435200923278668	1513	1502	1507	1382
1399435200933247946	1512	1501	1507	1384
1399435200938295708	1515	1509	1507	1383
1399435200948332190	1514	1507	1507	1383
1399435200958369601	1515	1510	1507	1384
1399435200973475388	1514	1509	1507	1383
1399435200988238662	1515	1509	1507	1383
1399435201003315918	1516	1511	1507	1383
1399435201008204443	1515	1509	1507	1383
1399435201023186482	1514	1510	1507	1383
1399435201038261603	1514	1516	1507	1383
1399435201053270756	1514	1518	1507	1384
1399435201058209047	1513	1517	1507	1383
1399435201073315468	1514	1517	1507	1384
1399435201088399764	1512	1516	1507	1384
1399435201103334901	1511	1516	1507	1383
1399435201108315177	1511	1519	1507	1384
1399435201113200035	1511	1518	1507	1382
1399435201123267534	1511	1519	1507	1384
1399435201133306027	1510	1518	1506	1382
1399435201138025518	1510	1518	1506	1384
1399435201148197327	1509	1519	1506	1383
1399435201158018951	1510	1518	1506	1383
1399435201163219290	1509	1520	1506	1384
1399435201173112865	1509	1519	1506	1383
1399435201183295633	1506	1516	1506	1384
1399435201188287743	1507	1516	1506	1382
1399435201198194254	1507	1517	1506	1384
1399435201208400013	1506	1517	1506	1383
1399435201223334993	1506	1517	1506	1384
1399435201239304935	1506	1514	1506	1384
1399435201258358021	1505	1512	1506	1384
1399435201273349105	1504	1513	1506	1384
1399435201288338678	1505	1510	1506	1384
1399435201308294915	1503	1510	1506	1384
1399435201323251725	1503	1510	1506	1384
1399435201338341212	1500	1500	1506	1384
1399435201353366819	1500	1501	1506	1384
1399435201358118923	1500	1501	1506	1385
1399435201368168783	1500	1501	1506	1384
1399435201373289928	1499	1500	1506	1384
1399435201383260867	1502	1498	1506	1384
1399435201388227713	1500	1495	1506	1384
1399435201398353742	1501	1497	1506	1385
1399435201408445018	1499	1495	1506	1384
1399435201413274360	1500	1496	1506	1385
1399435201423259461	1500	1496	1506	1384
1399435201433359695	1501	1494	1506	1385
1399435201438168972	1502	1495	1506	1384
1399435201453290722	1501	1494	1506	1385
1399435201458218843	1501	1496	1506	1385
1399435201468287292	1501	1493	1506	1384
1399435201473086210	1502	1494	1506	1385
1399435201488317290	1505	1493	1506	1384
1399435201503304180	1504	1494	1506	1384
1399435201508304724	1506	1493	1506	1385
1399435201518316567	1504	1495	1506	1385
1399435201523126096	1506	1494	1506	1385
1399435201538325485	1509	1498	1506	1385
1399435201553340698	1510	1499	1506	1386
1399435201558194297	1509	1499	1506	1384
1399435201568188262	1510	1499	1506	1386
1399435201588351584	1514	1509	1506	1385
1399435201603370738	1515	1509	1506	1385
1399435201608236732	1515	1507	1506	1386
1399435201618353079	1516	1508	1506	1385
1399435201623318401	1515	1507	1506	1386
1399435201633394708	1519	1511	1506	1385
1399435201638244581	1519	1510	1506	1385
1399435201648224537	1519	1511	1506	1386
1399435201658391647	1520	1512	1506	1385
1399435201663190375	1519	1511	1506	1386
1399435201673305707	1521	1514	1506	1386
1399435201688281476	1522	1515	1506	1386
1399435201703157899	1523	1514	1506	1386
1399435201708064474	1523	1515	1506	1387
1399435201718424695	1523	1516	1506	1386
1399435201723294424	1524	1515	1506	1387
1399435201738365593	1524	1515	1506	1386
1399435201753251716	1524	1516	1506	1387
1399435201758188216	1525	1514	1506	1386
1399435201768351529	1524	1515	1506	1387
1399435201773272295	1526	1515	1506	1386
1399435201788370313	1518	1519	1506	1387
1399435201803388151	1519	1518	1506	1388
1399435201818292327	1518	1517	1506	1387
1399435201823121168	1520	1517	1505	1387
1399435201838327757	1519	1515	1505	1388
1399435201853333193	1521	1516	1505	1387
1399435201858203117	1520	1516	1505	1389
1399435201863261083	1522	1515	1505	1388
1399435201873121900	1521	1515	1505	1388
1399435201883228133	1516	1505	1505	1388
1399435201888110443	1517	1507	1505	1388
1399435201898222061	1515	1505	1505	1389
1399435201908238349	1517	1507	1505	1388
1399435201913158798	1517	1504	1505	1388
1399435201923049993	1518	1506	1505	1389
1399435201938297936	1513	1505	1505	1389
1399435201953216342	1513	1505	1505	1388
1399435201958177418	1513	1505	1505	1389
1399435201972990761	1514	1503	1505	1389
1399435201988198859	1510	1493	1505	1390
1399435202003355511	1510	1493	1505	1390
1399435202008274592	1510	1492	1505	1390
1399435202023056593	1510	1492	1505	1390
1399435202038249877	1511	1488	1505	1390
1399435202053305006	1512	1488	1505	1390
1399435202073230636	1511	1487	1505	1391
1399435202088401504	1512	1486	1505	1390
1399435202098279086	1511	1485	1505	1391
1399435202108237344	1512	1486	1505	1391
1399435202113312439	1512	1486	1505	1392
1399435202123111608	1512	1484	1505	1391
1399435202133328685	1514	1488	1506	1391
1399435202138133263	1512	1489	1506	1392
1399435202148285032	1514	1487	1506	1391
1399435202158239475	1514	1488	1506	1393
1399435202163242694	1514	1487	1506	1392
1399435202173276303	1514	1486	1506	1392
1399435202188292310	1516	1492	1507	1392
1399435202203146875	1514	1492	1507	1394
1399435202208304397	1517	1492	1507	1392
1399435202223338112	1516	1492	1507	1393
1399435202238690997	1521	1498	1508	1393
1399435202253336941	1522	1500	1508	1393
1399435202258257112	1521	1499	1508	1394
1399435202273337518	1521	1497	1509	1393
1399435202288449034	1522	1505	1509	1393
1399435202303360979	1522	1505	1509	1394
1399435202308268167	1521	1503	1509	1394
1399435202323301296	1521	1505	1510	1394
1399435202333327362	1523	1511	1510	1394
1399435202338300304	1522	1509	1510	1394
1399435202348393546	1522	1509	1510	1394
1399435202358397072	1522	1512	1510	1395
1399435202363349342	1522	1509	1511	1394
1399435202373616126	1523	1509	1511	1394
1399435202383289389	1521	1509	1511	1393
1399435202388270076	1522	1510	1511	1395
1399435202398040996	1517	1509	1511	1394
1399435202408216840	1519	1506	1511	1394
1399435202413249516	1519	1509	1511	1394
1399435202423255044	1516	1506	1511	1394
1399435202438325565	1515	1505	1512	1394
1399435202458320011	1514	1505	1512	1395
1399435202473341344	1515	1505	1512	1395
1399435202488227759	1511	1497	1512	1394
1399435202508305561	1510	1497	1512	1394
1399435202523285549	1510	1498	1512	1395
1399435202538324690	1510	1483	1512	1395
1399435202553389133	1510	1481	1512	1394
1399435202568258354	1509	1480	1513	1394
1399435202573295132	1509	1480	1513	1394
1399435202588126126	1508	1481	1513	1394
1399435202598033206	1507	1480	1513	1395
1399435202607980493	1508	1481	1513	1394
1399435202613088705	1507	1480	1513	1395
1399435202622958234	1505	1479	1513	1395
1399435202633079609	1511	1479	1513	1394
1399435202637937158	1509	1479	1513	1395
1399435202648017745	1510	1477	1513	1394
1399435202658093199	1508	1476	1513	1394
1399435202668054597	1509	1476	1513	1394
1399435202673082795	1509	1478	1513	1395
1399435202688088990	1509	1481	1513	1395
1399435202703074512	1508	1482	1513	1395
1399435202707994572	1510	1481	1513	1395
1399435202718067687	1509	1481	1513	1394
1399435202723082659	1507	1477	1513	1394
1399435202738446552	1509	1490	1513	1395
1399435202753396634	1509	1489	1513	1395
1399435202758042962	1509	1491	1512	1394
1399435202768354595	1509	1489	1513	1395
1399435202773294587	1509	1491	1512	1395
1399435202788417570	1507	1489	1512	1394
1399435202803402874	1509	1496	1512	1394
1399435202818382760	1509	1497	1512	1395
1399435202823210768	1509	1498	1512	1395
1399435202833306613	1511	1507	1512	1395
1399435202838240234	1511	1505	1512	1394
1399435202848331029	1511	1506	1512	1395
1399435202858154772	1511	1505	1512	1395
1399435202863363504	1511	1505	1512	1395
1399435202873251266	1512	1505	1511	1394
1399435202883295555	1509	1506	1511	1396
1399435202888221870	1510	1508	1511	1395
1399435202898400116	1509	1507	1511	1394
1399435202908135286	1509	1507	1511	1394
1399435202918285335	1507	1507	1511	1395
1399435202923226941	1506	1508	1511	1396
1399435202938326831	1507	1503	1511	1395
1399435202953344394	1509	1503	1511	1394
1399435202958238572	1506	1505	1511	1395
1399435202968296257	1506	1503	1511	1395
1399435202973410857	1506	1504	1511	1394
1399435202988463059	1506	1504	1511	1395
1399435203003368028	1499	1493	1511	1394
1399435203008303674	1498	1493	1511	1396
1399435203018263041	1500	1495	1511	1394
1399435203038412378	1500	1491	1511	1394
1399435203053364544	1498	1493	1511	1395
1399435203058271570	1500	1493	1511	1394
1399435203068296648	1498	1494	1511	1394
1399435203073333723	1500	1494	1511	1394
1399435203083283207	1497	1490	1510	1394
1399435203088297421	1497	1490	1511	1395
1399435203098302635	1496	1491	1510	1394
1399435203108351913	1496	1491	1510	1394
1399435203113289994	1498	1491	1510	1394
1399435203123313393	1497	1492	1510	1394
1399435203133250833	1499	1493	1510	1394
1399435203138342917	1499	1495	1510	1395
1399435203153349179	1500	1494	1510	1394
1399435203158255422	1499	1496	1510	1395
1399435203173154778	1498	1495	1510	1394
1399435203188185531	1499	1500	1510	1394
1399435203203353655	1498	1501	1510	1394
1399435203208148217	1498	1501	1510	1394
1399435203223066762	1499	1501	1510	1393
1399435203238233230	1501	1504	1510	1394
1399435203253219971	1503	1503	1510	1394
1399435203258108036	1502	1504	1509	1393
1399435203273226452	1503	1504	1509	1394
1399435203288129041	1503	1510	1509	1393
1399435203303095203	1503	1511	1509	1393
1399435203308052100	1504	1511	1509	1394
1399435203313063297	1504	1511	1509	1393
1399435203323073267	1504	1510	1509	1393
1399435203333072473	1510	1513	1509	1394
1399435203338024118	1508	1515	1509	1394
1399435203348052672	1510	1513	1509	1394
1399435203358073429	1509	1515	1509	1393
1399435203362975092	1510	1512	1509	1393
1399435203373020999	1511	1514	1509	1393
1399435203383361284	1502	1509	1508	1393
1399435203388341043	1504	1508	1508	1394
1399435203403299409	1504	1510	1508	1393
1399435203408385787	1504	1509	1508	1394
1399435203423361378	1504	1511	1508	1394
1399435203438232701	1505	1505	1508	1393
1399435203453236974	1506	1505	1508	1394
1399435203458259266	1506	1505	1508	1393
1399435203473384678	1506	1505	1508	1393
1399435203488278220	1501	1505	1507	1393
1399435203503247807	1501	1503	1507	1393
1399435203508400850	1503	1504	1507	1393
1399435203523295871	1502	1502	1507	1392
1399435203538401865	1497	1498	1507	1392
1399435203553106668	1497	1499	1507	1392
1399435203573056397	1498	1499	1506	1392
1399435203583099430	1499	1496	1506	1393
1399435203588013235	1501	1497	1506	1392
1399435203598067352	1500	1497	1506	1392
1399435203608025341	1503	1498	1506	1392
1399435203613027962	1501	1498	1506	1392
1399435203623053392	1502	1498	1506	1392
1399435203633053697	1507	1504	1506	1391
1399435203638031710	1507	1504	1506	1392
1399435203653119913	1507	1503	1506	1392
1399435203658060769	1506	1503	1506	1392
1399435203673081370	1506	1503	1506	1391
1399435203688062132	1517	1509	1506	1391
1399435203703184810	1518	1509	1505	1391
1399435203708242719	1516	1508	1505	1391
1399435203718269910	1517	1508	1505	1391
1399435203723281671	1517	1508	1505	1391
1399435203738402459	1516	1510	1505	1391
1399435203753350929	1515	1509	1505	1391
1399435203768327146	1518	1511	1505	1391
1399435203773247788	1517	1509	1505	1390
1399435203788426296	1514	1511	1505	1391
1399435203803199492	1515	1511	1505	1391
1399435203808162661	1515	1510	1505	1391
1399435203813258978	1516	1512	1505	1391
1399435203823285071	1516	1510	1505	1390
1399435203833236812	1516	1511	1505	1391
1399435203838318675	1516	1510	1505	1390
1399435203848358739	1515	1510	1505	1391
1399435203858339241	1516	1510	1505	1390
1399435203863308539	1515	1509	1504	1391
1399435203873351823	1515	1510	1504	1391
1399435203888468879	1516	1510	1504	1390
1399435203903103598	1515	1508	1504	1389
1399435203908100569	1515	1510	1504	1390
1399435203923088922	1514	1509	1504	1390
1399435203938489569	1507	1502	1504	1390
1399435203953298079	1507	1502	1504	1389
1399435203958169947	1508	1500	1504	1389
1399435203968259492	1509	1502	1504	1389
1399435203973348226	1508	1500	1504	1389
1399435203988385874	1502	1497	1504	1389
1399435204003299592	1503	1496	1504	1389
1399435204018225049	1502	1497	1504	1389
1399435204023126267	1503	1496	1504	1389
1399435204033365292	1503	1492	1504	1388
1399435204038275573	1503	1493	1504	1389
1399435204048276146	1501	1493	1504	1389
1399435204058033542	1504	1491	1504	1389
1399435204063327141	1501	1493	1504	1389
1399435204073434731	1503	1490	1504	1389
1399435204083307447	1505	1490	1504	1389
1399435204088263554	1505	1488	1504	1389
1399435204098206751	1505	1489	1504	1389
1399435204108268006	1503	1489	1504	1388
1399435204113371479	1504	1489	1505	1390
1399435204123267783	1503	1488	1505	1389
1399435204138351182	1517	1495	1505	1390
1399435204158305237	1517	1495	1505	1390
1399435204173457389	1516	1494	1505	1390
1399435204188335897	1513	1497	1505	1389
1399435204208378677	1513	1496	1505	1389
1399435204223223680	1512	1496	1505	1390
1399435204238648209	1509	1499	1506	1390
1399435204253285039	1508	1499	1506	1389
1399435204268334539	1510	1499	1506	1390
1399435204273261051	1509	1499	1506	1390
1399435204283196832	1510	1504	1506	1390
1399435204288053118	1510	1502	1506	1390
1399435204298262922	1510	1504	1506	1391
1399435204308259359	1509	1503	1506	1389
1399435204313218034	1510	1503	1506	1391
1399435204323058176	1508	1504	1506	1390
1399435204333180431	1509	1503	1506	1390
1399435204338211879	1512	1508	1506	1390
1399435204348263917	1512	1506	1507	1390
1399435204358285634	1513	1508	1507	1391
1399435204373402799	1512	1507	1507	1391
1399435204388345266	1516	1507	1507	1391
1399435204408379415	1516	1507	1507	1391
1399435204423353010	1516	1507	1507	1391
1399435204438366049	1516	1503	1507	1392
1399435204458343961	1516	1504	1507	1392
1399435204473371337	1516	1504	1508	1392
1399435204488362972	1512	1501	1508	1392
1399435204503360190	1512	1501	1508	1391
1399435204518266482	1511	1501	1508	1393
1399435204523301602	1511	1502	1508	1393
1399435204538369503	1509	1503	1508	1393
1399435204548329673	1508	1503	1508	1393
1399435204558254832	1508	1502	1509	1392
1399435204563303544	1508	1504	1509	1394
1399435204573315564	1507	1503	1509	1392
1399435204583227537	1501	1497	1509	1393
1399435204588298356	1499	1498	1509	1393
1399435204598356286	1500	1498	1509	1392
1399435204608306967	1498	1499	1509	1392
1399435204623231754	1499	1498	1510	1392
1399435204638343913	1497	1501	1510	1392
1399435204653273397	1496	1502	1510	1391
1399435204658132134	1496	1501	1510	1392
1399435204673308422	1495	1501	1510	1391
1399435204688313489	1494	1506	1510	1391
1399435204703371792	1493	1506	1511	1391
1399435204708263696	1492	1506	1511	1390
1399435204723331306	1492	1506	1511	1390
1399435204738279129	1491	1505	1511	1390
1399435204753322013	1490	1503	1511	1389
1399435204758351906	1489	1506	1511	1390
1399435204768379694	1490	1506	1511	1389
1399435204773303266	1489	1506	1511	1390
1399435204783381276	1494	1501	1511	1389
1399435204788312551	1492	1502	1511	1389
1399435204798284350	1493	1502	1511	1388
1399435204808286424	1493	1502	1512	1389
1399435204813240438	1493	1503	1512	1389
1399435204823228009	1494	1503	1512	1389
1399435204833330614	1497	1502	1512	1388
1399435204838268635	1497	1503	1512	1387
1399435204848281709	1497	1503	1512	1388
1399435204858315648	1497	1503	1512	1387
1399435204873330114	1496	1504	1512	1388
1399435204888186455	1507	1502	1512	1387
1399435204903310406	1508	1500	1512	1387
1399435204908275903	1508	1502	1512	1386
1399435204923306617	1507	1502	1512	1387
1399435204938341844	1509	1504	1512	1386
1399435204953293358	1508	1505	1512	1385
1399435204958263666	1509	1505	1512	1386
1399435204973328780	1510	1507	1512	1386
1399435204988321381	1514	1507	1512	1385
1399435205003352713	1516	1506	1513	1386
1399435205008289340	1516	1508	1513	1385
1399435205013090511	1516	1507	1513	1385
1399435205023324457	1516	1508	1513	1384
1399435205033361832	1520	1509	1513	1384
1399435205038224629	1522	1508	1513	1385
1399435205048029064	1522	1509	1513	1385
1399435205058340045	1520	1508	1513	1384
1399435205063096346	1523	1510	1513	1384
1399435205073303941	1521	1508	1513	1383
1399435205083232542	1526	1509	1513	1384
1399435205088336856	1524	1510	1513	1384
1399435205098354870	1525	1510	1513	1384
1399435205108427333	1525	1511	1513	1383
1399435205123362152	1526	1511	1513	1384
1399435205138150593	1522	1511	1513	1383
1399435205158409833	1523	1510	1513	1383
1399435205173249738	1525	1511	1513	1383
1399435205188365852	1514	1510	1513	1383
1399435205208076522	1516	1510	1513	1383
1399435205223329816	1517	1512	1513	1383
1399435205238793721	1509	1511	1513	1383
1399435205253438117	1510	1512	1513	1383
1399435205258307652	1511	1510	1513	1383
1399435205268264467	1509	1511	1513	1383
1399435205273296982	1511	1512	1513	1383
1399435205283374590	1506	1514	1512	1383
1399435205288205723	1506	1513	1512	1383
1399435205298252507	1507	1514	1512	1383
1399435205308254515	1507	1513	1512	1383
1399435205313215608	1506	1512	1512	1384
1399435205323310890	1506	1514	1512	1383
1399435205333120825	1498	1510	1512	1383
1399435205338310376	1500	1513	1512	1384
1399435205353378912	1498	1512	1512	1383
1399435205358317708	1499	1512	1511	1384
1399435205368357016	1498	1513	1511	1384
1399435205373361872	1498	1514	1511	1385
1399435205388357629	1488	1512	1511	1384
1399435205403271832	1488	1511	1511	1384
1399435205408222976	1488	1512	1511	1384
1399435205423326140	1489	1512	1510	1384
1399435205438306784	1485	1513	1510	1385
1399435205453377459	1486	1515	1510	1385
1399435205458336777	1486	1514	1510	1385
1399435205468235033	1487	1514	1510	1384
1399435205488298114	1492	1511	1509	1385
1399435205498207218	1492	1510	1509	1385
1399435205508260832	1491	1510	1509	1385
1399435205513368237	1491	1509	1509	1385
1399435205523273799	1490	1512	1509	1385
1399435205533271156	1502	1511	1509	1385
1399435205538303370	1503	1512	1508	1386
1399435205548358268	1503	1512	1508	1385
1399435205558373157	1505	1509	1508	1385
1399435205562991209	1505	1512	1508	1385
1399435205573313612	1503	1509	1508	1385
1399435205588346146	1506	1509	1508	1385
1399435205608348918	1507	1508	1507	1386
1399435205623295136	1509	1508	1507	1386
1399435205638431069	1525	1508	1507	1386
1399435205658424337	1525	1507	1506	1386
1399435205673482058	1525	1506	1506	1386
1399435205688260449	1529	1504	1506	1386
1399435205708316044	1529	1504	1505	1387
1399435205723372345	1530	1504	1505	1387
1399435205738291346	1539	1504	1504	1387
1399435205753425127	1539	1504	1504	1388
1399435205758321750	1539	1504	1504	1389
1399435205763276602	1540	1503	1504	1388
1399435205773366730	1541	1503	1504	1388
1399435205783355767	1541	1502	1504	1388
1399435205788312260	1538	1504	1503	1388
1399435205798177305	1540	1505	1503	1388
1399435205808243493	1539	1503	1503	1387
1399435205813184674	1539	1505	1503	1389
1399435205823240844	1540	1503	1503	1388
1399435205838401702	1541	1501	1502	1388
1399435205853296929	1540	1502	1502	1388
1399435205858150782	1540	1501	1502	1387
1399435205873339127	1539	1502	1501	1388
1399435205888333534	1528	1504	1501	1388
1399435205903276386	1528	1502	1501	1386
1399435205908231803	1526	1505	1501	1388
1399435205923280397	1527	1503	1500	1387
1399435205938116531	1507	1506	1500	1387
1399435205953207123	1507	1506	1500	1387
1399435205958232324	1508	1504	1499	1386
1399435205973260612	1508	1504	1499	1386
1399435205988352791	1499	1506	1499	1386
1399435205998439230	1499	1504	1499	1386
1399435206008300749	1498	1505	1499	1385
1399435206013278991	1498	1504	1499	1385
1399435206023189501	1496	1503	1499	1385
1399435206033332031	1495	1503	1499	1385
1399435206038248682	1493	1503	1499	1385
1399435206048287447	1492	1503	1499	1384
1399435206058278254	1491	1502	1499	1385
1399435206063178888	1490	1503	1499	1384
1399435206073195370	1489	1503	1498	1384
1399435206088379155	1484	1498	1498	1384
1399435206103401873	1483	1497	1498	1384
1399435206108315639	1482	1497	1499	1384
1399435206123260655	1481	1497	1499	1384
1399435206138302040	1479	1496	1499	1383
1399435206153319481	1477	1496	1499	1384
1399435206158239581	1477	1497	1499	1383
1399435206173379048	1477	1498	1499	1383
1399435206188705702	1481	1492	1499	1383
1399435206203330538	1481	1493	1499	1383
1399435206208301604	1480	1490	1499	1383
1399435206218266872	1479	1490	1499	1383
1399435206223327557	1480	1490	1499	1383
1399435206233380242	1489	1493	1499	1383
1399435206240144399	1488	1493	1499	1382
1399435206248057141	1488	1492	1499	1383
1399435206258054378	1488	1492	1499	1382
1399435206263025342	1487	1490	1500	1382
1399435206273232948	1486	1490	1500	1383
1399435206283101862	1498	1486	1500	1382
1399435206288242625	1498	1487	1500	1383
1399435206298039772	1499	1488	1500	1382
1399435206308160240	1498	1484	1500	1382
1399435206313154272	1498	1485	1501	1381
1399435206323163912	1499	1484	1501	1382
1399435206338228957	1507	1485	1501	1382
1399435206353145576	1510	1486	1501	1382
1399435206358187984	1509	1484	1502	1382
1399435206373240163	1510	1483	1502	1382
1399435206388353142	1536	1487	1503	1382
1399435206403086674	1537	1488	1503	1383
1399435206408281281	1537	1487	1503	1382
1399435206423392618	1539	1485	1504	1382
1399435206438099549	1544	1488	1504	1382
1399435206453084487	1545	1488	1504	1383
1399435206457954430	1545	1489	1505	1383
1399435206467989090	1546	1487	1505	1383
1399435206473031497	1546	1487	1505	1383
1399435206482995210	1554	1484	1505	1382
1399435206488022927	1553	1486	1506	1384
1399435206498078247	1555	1484	1506	1383
1399435206508040176	1553	1485	1506	1384
1399435206512987888	1555	1484	1507	1383
1399435206522990348	1553	1484	1507	1384
1399435206533037756	1549	1484	1507	1384
1399435206538004226	1549	1486	1507	1384
1399435206548005322	1549	1487	1507	1385
1399435206557988708	1550	1487	1508	1384
1399435206563013606	1549	1486	1508	1385
1399435206573007085	1551	1486	1508	1385
1399435206588262023	1538	1490	1508	1385
1399435206603257239	1537	1492	1508	1385
1399435206608212078	1538	1492	1508	1386
1399435206623261347	1538	1491	1509	1385
1399435206638382395	1528	1498	1509	1386
1399435206653389906	1528	1498	1509	1386
1399435206658243860	1526	1500	1509	1386
1399435206673343420	1526	1499	1509	1387
1399435206688272392	1513	1503	1510	1387
1399435206703274628	1512	1503	1510	1387
1399435206708255626	1511	1503	1510	1388
1399435206718254426	1510	1503	1510	1387
1399435206723224947	1511	1504	1510	1388
1399435206733320108	1490	1503	1510	1387
1399435206738258454	1491	1503	1510	1388
1399435206748259620	1487	1505	1510	1389
1399435206758325494	1487	1503	1510	1389
1399435206763259283	1486	1505	1510	1389
1399435206773165010	1485	1504	1510	1389
1399435206783292342	1484	1505	1510	1390
1399435206788032282	1471	1503	1510	1389
1399435206798171172	1472	1503	1510	1390
1399435206808334382	1468	1506	1510	1390
1399435206823185894	1467	1507	1510	1391
1399435206838260379	1466	1503	1510	1390
1399435206853334945	1464	1503	1510	1390
1399435206858100776	1465	1506	1510	1391
1399435206873374173	1461	1505	1510	1391
1399435206888349627	1454	1503	1510	1391
1399435206903369863	1453	1508	1510	1392
1399435206908031545	1452	1506	1510	1391
1399435206923332601	1450	1504	1511	1391
1399435206938377183	1441	1506	1511	1392
1399435206953367626	1440	1503	1511	1391
1399435206958293158	1438	1506	1511	1392
1399435206963316318	1439	1508	1511	1394
1399435206973458871	1442	1505	1511	1392
1399435206983032192	1448	1502	1511	1392
1399435206988137319	1449	1501	1511	1392
1399435206998149310	1448	1503	1511	1394
1399435207008267997	1450	1503	1511	1393
1399435207013192846	1448	1503	1511	1393
1399435207023343570	1446	1503	1512	1393
1399435207033294030	1466	1497	1512	1393
1399435207038303574	1466	1497	1511	1394
1399435207058398533	1466	1498	1512	1394
1399435207073155611	1466	1499	1512	1394
1399435207088288549	1480	1496	1512	1395
1399435207108144941	1481	1496	1512	1395
1399435207123270160	1482	1496	1512	1396
1399435207138331760	1507	1488	1512	1396
1399435207158323617	1508	1488	1512	1397
1399435207173451043	1510	1490	1512	1398
1399435207188201176	1515	1488	1512	1398
1399435207198014114	1516	1486	1513	1398
1399435207208303822	1519	1489	1513	1399
1399435207213268506	1520	1490	1513	1398
1399435207223218263	1521	1489	1513	1400
1399435207233290876	1547	1487	1513	1398
1399435207239417772	1546	1486	1513	1400
1399435207248341484	1548	1489	1513	1400
1399435207258275969	1549	1487	1513	1399
1399435207263292100	1550	1487	1513	1400
1399435207273322261	1552	1488	1513	1399
1399435207283294243	1560	1492	1513	1401
1399435207288237690	1562	1492	1513	1399
1399435207308347408	1563	1491	1513	1400
1399435207323312376	1565	1492	1513	1400
1399435207338438999	1562	1499	1513	1400
1399435207358300134	1564	1501	1513	1400
1399435207373340720	1564	1502	1513	1400
1399435207388443827	1563	1503	1513	1400
1399435207408420860	1564	1505	1513	1400
1399435207423297180	1564	1505	1513	1400
1399435207438242034	1545	1512	1513	1399
1399435207448246534	1546	1513	1513	1399
1399435207458234772	1544	1513	1513	1399
1399435207463190633	1545	1513	1513	1399
1399435207473276414	1546	1513	1513	1399
1399435207483300618	1527	1515	1513	1399
1399435207488209022	1527	1514	1513	1399
1399435207498286921	1526	1518	1513	1399
1399435207508321355	1526	1515	1512	1399
1399435207513205524	1526	1517	1512	1399
1399435207523266571	1525	1517	1512	1399
1399435207538356109	1515	1512	1512	1399
1399435207558028223	1513	1512	1512	1399
1399435207573109399	1511	1512	1512	1399
1399435207588073613	1474	1512	1512	1399
1399435207608081081	1472	1512	1511	1399
1399435207623046846	1470	1513	1511	1399
1399435207638025820	1445	1510	1511	1399
1399435207658070589	1443	1510	1511	1399
1399435207673022793	1440	1510	1511	1399
1399435207688060953	1428	1508	1510	1400
1399435207703085726	1428	1508	1510	1400
1399435207708015582	1426	1509	1510	1399
1399435207713049539	1425	1508	1510	1400
1399435207723058928	1424	1509	1510	1400
1399435207733092159	1426	1507	1510	1400
1399435207738037779	1428	1506	1510	1400
1399435207748068248	1425	1507	1510	1400
1399435207758064136	1426	1504	1510	1399
1399435207763054959	1426	1506	1510	1400
1399435207773092073	1425	1506	1510	1399
1399435207788228484	1432	1496	1509	1400
1399435207803133746	1432	1494	1509	1399
1399435207808118561	1431	1495	1509	1400
1399435207823106636	1432	1495	1509	1399
1399435207838208060	1456	1497	1509	1399
1399435207853084924	1455	1497	1509	1400
1399435207858050361	1457	1494	1509	1399
1399435207873183398	1456	1496	1509	1399
1399435207888065768	1487	1491	1509	1399
1399435207903105897	1488	1490	1509	1399
1399435207908030449	1488	1493	1508	1400
1399435207923117761	1490	1491	1508	1399
1399435207938093744	1504	1491	1508	1399
1399435207948064558	1506	1491	1508	1398
1399435207958028166	1507	1490	1508	1399
1399435207963025635	1509	1492	1508	1399
1399435207973054930	1509	1490	1508	1399
1399435207983081940	1570	1498	1508	1400
1399435207988008052	1570	1497	1508	1399
1399435207998115290	1571	1498	1508	1399
1399435208008067075	1571	1498	1508	1399
1399435208013031135	1573	1497	1508	1400
1399435208023077553	1575	1500	1508	1399
1399435208038293331	1571	1500	1508	1399
1399435208053308781	1573	1500	1507	1398
1399435208058315207	1575	1500	1507	1399
1399435208073243068	1576	1502	1507	1399
1399435208088197693	1566	1507	1507	1399
1399435208103205192	1567	1507	1507	1399
1399435208108333471	1567	1507	1507	1398
1399435208123317931	1568	1509	1507	1399
1399435208138283423	1560	1522	1507	1399
1399435208153347173	1559	1521	1507	1398
1399435208158269932	1561	1522	1506	1398
1399435208168181684	1559	1523	1506	1399
1399435208173301835	1561	1522	1506	1399
1399435208183325143	1535	1526	1506	1398
1399435208188261127	1533	1526	1506	1399
1399435208198241059	1535	1527	1506	1398
1399435208208257250	1534	1525	1506	1397
1399435208213275092	1535	1526	1506	1398
1399435208223195664	1534	1527	1506	1398
1399435208233023554	1469	1523	1506	1399
1399435208238169413	1471	1524	1506	1398
1399435208248344482	1470	1523	1506	1398
1399435208258291955	1471	1523	1505	1397
1399435208263225151	1468	1522	1505	1397
1399435208273294896	1467	1524	1505	1398
1399435208288249248	1461	1519	1505	1398
1399435208308297206	1459	1519	1505	1398
1399435208323297461	1457	1521	1505	1398
1399435208338288522	1433	1514	1505	1398
1399435208358446892	1432	1512	1505	1398
1399435208373113387	1431	1512	1504	1398
1399435208388036989	1419	1505	1504	1398
1399435208403037364	1418	1505	1504	1398
1399435208423068632	1418	1504	1504	1398
1399435208438054854	1442	1493	1504	1398
1399435208448019170	1444	1491	1504	1398
1399435208458067398	1444	1492	1504	1398
1399435208463010646	1443	1492	1504	1398
1399435208473049553	1444	1490	1504	1399
1399435208483003118	1465	1488	1504	1398
1399435208488038706	1466	1486	1504	1398
1399435208498027753	1465	1487	1504	1399
1399435208508070819	1465	1488	1504	1398
1399435208523050832	1467	1487	1504	1398
1399435208538065023	1538	1485	1504	1398
1399435208553102003	1539	1485	1504	1399
1399435208558054742	1540	1482	1504	1399
1399435208568114383	1540	1483	1504	1399
1399435208573155636	1541	1482	1505	1399
1399435208588015836	1561	1479	1505	1399
1399435208603107155	1563	1480	1505	1399
1399435208608083857	1562	1479	1505	1399
1399435208617988238	1566	1478	1505	1398
1399435208623033824	1565	1478	1505	1398
1399435208638032386	1589	1487	1505	1399
1399435208653089949	1589	1488	1506	1399
1399435208673104329	1593	1486	1506	1398
1399435208683096936	1594	1492	1506	1399
1399435208687994912	1593	1494	1506	1399
1399435208698062131	1595	1492	1506	1399
1399435208708043222	1596	1491	1506	1399
1399435208713067396	1597	1490	1507	1398
1399435208723052683	1596	1492	1507	1399
1399435208733046582	1587	1503	1507	1399
1399435208738040459	1587	1503	1507	1399
1399435208748038050	1588	1501	1507	1398
1399435208758118246	1590	1503	1508	1399
1399435208768064147	1588	1501	1508	1399
1399435208773053039	1590	1500	1508	1399
1399435208788108176	1567	1509	1508	1399
1399435208803029972	1569	1509	1509	1400
1399435208808038407	1567	1508	1509	1399
1399435208818044145	1570	1508	1509	1399
1399435208822992597	1568	1509	1509	1399
1399435208838068593	1482	1523	1509	1399
1399435208853096475	1481	1522	1510	1400
1399435208858022496	1480	1523	1510	1399
1399435208868065669	1481	1522	1510	1400
1399435208888086886	1468	1523	1510	1399
1399435208903085155	1468	1522	1510	1399
1399435208908084720	1466	1523	1511	1400
1399435208918108531	1465	1522	1511	1399
1399435208922974332	1464	1523	1511	1400
1399435208933092376	1454	1519	1511	1399
1399435208938073058	1451	1518	1511	1400
1399435208948038309	1450	1519	1511	1400
1399435208958140474	1449	1520	1511	1400
1399435208963062995	1449	1518	1511	1400
1399435208973123449	1450	1519	1511	1399
1399435208983007104	1455	1495	1511	1400
1399435208988014475	1456	1495	1511	1399
1399435209003104977	1457	1495	1511	1400
1399435209007989285	1457	1496	1511	1400
1399435209023045047	1456	1495	1511	1400
1399435209037983681	1499	1485	1511	1400
1399435209053056097	1499	1485	1511	1400
1399435209057978905	1500	1486	1511	1400
1399435209073032656	1497	1484	1511	1400
1399435209088081735	1520	1481	1511	1400
1399435209103140864	1520	1481	1511	1400
1399435209108050250	1518	1481	1511	1400
1399435209123028803	1519	1479	1511	1399
1399435209138234407	1555	1471	1512	1399
1399435209153042796	1555	1472	1512	1399
1399435209158015686	1556	1471	1512	1399
1399435209163016571	1556	1471	1512	1399
1399435209173139901	1556	1470	1512	1399
1399435209183057406	1578	1480	1512	1398
1399435209188052860	1577	1481	1512	1398
1399435209198074447	1578	1480	1512	1399
1399435209208023651	1578	1483	1512	1399
1399435209213022248	1577	1480	1512	1399
1399435209223021341	1578	1481	1512	1399
1399435209233058399	1572	1488	1512	1398
1399435209238111752	1574	1486	1512	1399
1399435209253076241	1573	1487	1512	1398
1399435209257990843	1573	1485	1512	1399
1399435209273020861	1573	1487	1512	1398
1399435209288132304	1515	1500	1512	1398
1399435209303086653	1516	1498	1512	1398
1399435209308027495	1515	1501	1512	1397
1399435209323076701	1515	1500	1512	1398
1399435209338074683	1503	1508	1512	1398
1399435209353116583	1502	1508	1512	1397
1399435209358031837	1502	1509	1512	1399
1399435209373082204	1501	1508	1512	1397
1399435209388082378	1480	1506	1512	1397
1399435209403095853	1479	1508	1512	1398
1399435209408024216	1478	1507	1512	1396
1399435209413064535	1477	1507	1512	1398
1399435209423068092	1476	1509	1512	1397
1399435209433028556	1478	1497	1512	1398
1399435209438085997	1478	1499	1512	1397
1399435209448052088	1475	1498	1512	1397
1399435209458085842	1476	1499	1512	1398
1399435209463035489	1475	1500	1512	1397
1399435209473068034	1476	1499	1512	1398
1399435209483036276	1483	1491	1512	1396
1399435209488019536	1483	1490	1512	1397
1399435209503055261	1483	1492	1512	1397
1399435209508024390	1484	1491	1512	1397
1399435209523083738	1483	1492	1512	1397
1399435209538104587	1494	1489	1512	1397
1399435209553055536	1494	1490	1512	1398
1399435209558172530	1494	1489	1512	1397
1399435209573082129	1493	1491	1512	1398
1399435209588175915	1539	1491	1511	1398
1399435209603074264	1539	1492	1511	1398
1399435209608021631	1538	1492	1511	1398
1399435209623034994	1537	1493	1511	1398
1399435209638387362	1553	1497	1511	1398
1399435209648363306	1553	1497	1511	1398
1399435209658325797	1555	1499	1511	1398
1399435209663070841	1554	1497	1511	1399
1399435209673314263	1556	1499	1511	1399
1399435209683177672	1544	1502	1511	1397
1399435209688230307	1545	1502	1511	1399
1399435209698264970	1545	1504	1510	1398
1399435209708017049	1545	1504	1510	1398
1399435209713219922	1547	1507	1510	1398
1399435209723410453	1546	1505	1510	1398
1399435209738279664	1525	1508	1510	1398
1399435209753143458	1526	1508	1510	1399
1399435209758264207	1527	1509	1510	1398
1399435209773112090	1528	1510	1510	1398
1399435209788274339	1511	1511	1510	1398
1399435209803195905	1511	1510	1509	1398
1399435209808021629	1509	1511	1509	1398
1399435209823047432	1509	1512	1509	1398
1399435209838124115	1497	1513	1509	1398
1399435209853102750	1497	1515	1509	1398
1399435209858012803	1496	1513	1509	1398
1399435209873040805	1496	1515	1509	1398
1399435209888072326	1482	1513	1509	1397
1399435209898007967	1483	1512	1508	1398
1399435209908033587	1483	1515	1508	1397
1399435209913046299	1484	1514	1508	1397
1399435209923029894	1484	1514	1508	1398
1399435209933068827	1478	1508	1508	1396
1399435209938012496	1479	1509	1508	1398
1399435209948065835	1478	1510	1508	1396
1399435209958200801	1480	1508	1508	1397
1399435209963245529	1481	1509	1508	1396
1399435209973308947	1480	1510	1508	1397
1399435209988272510	1487	1504	1509	1397
1399435210003263710	1488	1503	1509	1397
1399435210008079875	1487	1504	1509	1396
1399435210023343393	1487	1502	1509	1396
1399435210038267143	1511	1495	1509	1396
1399435210053247306	1511	1497	1509	1396
1399435210058271371	1513	1497	1510	1395
1399435210073333759	1511	1496	1510	1396
1399435210088227402	1520	1492	1510	1395
1399435210103196626	1519	1493	1510	1395
1399435210108124765	1519	1491	1511	1396
1399435210118261618	1521	1491	1511	1395
1399435210123259865	1522	1491	1511	1395
1399435210133247322	1538	1504	1511	1395
1399435210138237231	1539	1502	1511	1395
1399435210148361612	1540	1505	1511	1395
1399435210158318585	1540	1504	1511	1394
1399435210163270494	1542	1504	1512	1395
1399435210173392913	1542	1503	1512	1394
1399435210183396705	1545	1507	1512	1395
1399435210188305295	1547	1508	1512	1394
1399435210198302058	1546	1506	1512	1394
1399435210208109655	1547	1508	1512	1394
1399435210223338393	1548	1507	1513	1394
1399435210239538927	1539	1516	1513	1394
1399435210258305851	1539	1516	1513	1393
1399435210273257746	1540	1515	1513	1393
1399435210288066311	1525	1522	1514	1393
1399435210308054342	1525	1521	1514	1393
1399435210323045463	1526	1522	1514	1394
1399435210338074918	1506	1521	1514	1393
1399435210353072372	1505	1521	1514	1393
1399435210368138791	1507	1523	1514	1393
1399435210373041655	1507	1520	1514	1393
1399435210388021019	1491	1515	1514	1393
1399435210398037465	1494	1514	1514	1393
1399435210408009127	1492	1514	1514	1394
1399435210413034618	1493	1513	1514	1394
1399435210423038042	1492	1512	1514	1394
1399435210433068488	1489	1503	1514	1393
1399435210437985826	1492	1503	1514	1394
1399435210447988179	1489	1504	1513	1394
1399435210457976393	1491	1503	1513	1395
1399435210468068775	1490	1504	1513	1394
1399435210472997908	1491	1502	1513	1394
1399435210488046403	1499	1496	1513	1395
1399435210503071148	1500	1495	1513	1396
1399435210508034169	1499	1497	1513	1395
1399435210518024929	1500	1496	1513	1396
1399435210522933994	1499	1495	1512	1395
1399435210538065335	1509	1491	1512	1396
1399435210553027579	1509	1491	1512	1396
1399435210557992681	1509	1492	1512	1397
1399435210568018403	1510	1490	1512	1396
1399435210573016884	1510	1490	1512	1397
1399435210588025853	1534	1491	1512	1397
1399435210603148465	1536	1491	1511	1397
1399435210607997142	1536	1491	1511	1397
1399435210613016968	1536	1490	1511	1398
1399435210623062804	1537	1491	1511	1398
1399435210633042951	1550	1497	1511	1398
1399435210637985085	1551	1496	1511	1398
1399435210647986278	1551	1496	1511	1398
1399435210658030214	1550	1494	1511	1399
1399435210662994294	1552	1497	1511	1399
1399435210673028774	1550	1495	1511	1399
1399435210683009708	1560	1503	1511	1399
1399435210688009200	1560	1501	1510	1399
1399435210697996009	1561	1501	1510	1399
1399435210708061971	1560	1503	1510	1400
1399435210723053115	1561	1502	1510	1400
1399435210738047463	1562	1501	1510	1400
1399435210758059782	1554	1510	1510	1400
1399435210773054364	1553	1508	1510	1401
1399435210788053454	1533	1516	1509	1401
1399435210808092103	1534	1517	1509	1401
1399435210823045743	1532	1515	1509	1401
1399435210838032796	1519	1517	1509	1402
1399435210853046373	1518	1517	1509	1401
1399435210857975966	1519	1517	1509	1401
1399435210868030660	1517	1515	1508	1401
1399435210872954134	1517	1516	1508	1401
1399435210882999091	1493	1510	1508	1401
1399435210887972717	1493	1511	1508	1401
1399435210898021219	1491	1511	1508	1401
1399435210907970391	1491	1510	1508	1401
1399435210913008476	1490	1510	1508	1401
1399435210923261769	1488	1509	1508	1401
1399435210933428122	1488	1510	1508	1401
1399435210938035345	1486	1511	1507	1402
1399435210953320790	1471	1501	1507	1402
1399435210958608748	1470	1502	1507	1401
1399435210973379619	1468	1501	1507	1401
1399435210988257821	1467	1501	1507	1401
1399435211003317821	1466	1502	1507	1402
1399435211008220447	1464	1501	1507	1402
1399435211023399271	1464	1501	1506	1402
1399435211038324522	1470	1495	1506	1402
1399435211053365249	1470	1496	1506	1401
1399435211058339772	1469	1495	1506	1401
1399435211073208148	1467	1494	1506	1402
1399435211088032577	1488	1489	1506	1401
1399435211103046953	1487	1488	1506	1401
1399435211108007715	1485	1489	1506	1402
1399435211113011213	1485	1488	1506	1401
1399435211123027379	1484	1487	1506	1401
1399435211133072763	1483	1488	1506	1401
1399435211138089430	1506	1486	1506	1401
1399435211148097339	1506	1488	1506	1402
1399435211157991223	1504	1485	1506	1401
1399435211163114016	1504	1485	1506	1401
1399435211173064873	1504	1485	1506	1400
1399435211183052367	1522	1485	1506	1400
1399435211188011011	1521	1487	1505	1401
1399435211208081174	1523	1487	1505	1401
1399435211223086478	1522	1485	1505	1400
1399435211238234650	1537	1488	1505	1400
1399435211258128885	1538	1489	1505	1400
1399435211273110739	1539	1487	1505	1399
1399435211288008328	1550	1492	1505	1399
1399435211308046626	1552	1490	1505	1399
1399435211323082068	1553	1492	1505	1399
1399435211338083871	1557	1493	1505	1398
1399435211353107038	1559	1493	1505	1398
1399435211357995659	1558	1492	1505	1399
1399435211363003242	1559	1493	1505	1398
1399435211373055996	1559	1490	1505	1399
1399435211383041170	1549	1493	1505	1398
1399435211388053305	1550	1492	1505	1399
1399435211398042998	1551	1492	1505	1398
1399435211408045935	1551	1493	1505	1398
1399435211413024831	1552	1493	1505	1398
1399435211423000943	1550	1492	1505	1399
1399435211438097628	1533	1493	1505	1399
1399435211453095723	1534	1495	1505	1399
1399435211458068399	1533	1492	1505	1399
1399435211473067784	1533	1493	1505	1399
1399435211488048793	1523	1497	1505	1399
1399435211503046809	1523	1496	1506	1399
1399435211508033165	1523	1497	1506	1399
1399435211523015519	1523	1497	1506	1400
1399435211538135864	1494	1497	1506	1399
1399435211553107133	1493	1496	1506	1399
1399435211558019071	1495	1498	1506	1399
1399435211573061782	1494	1497	1506	1399
1399435211588048463	1487	1497	1506	1399
1399435211598033315	1485	1500	1506	1399
1399435211608008408	1487	1498	1506	1399
1399435211613026718	1484	1499	1506	1399
1399435211623029118	1484	1498	1506	1399
1399435211633112714	1474	1491	1506	1399
1399435211637991875	1474	1491	1506	1398
1399435211647977939	1475	1492	1506	1399
1399435211658054455	1472	1491	1506	1399
1399435211663065641	1473	1493	1507	1399
1399435211673018124	1472	1492	1507	1398
1399435211688081773	1470	1489	1507	1399
1399435211703060797	1469	1489	1507	1399
1399435211708015559	1468	1490	1507	1398
1399435211723097861	1469	1489	1507	1398
1399435211738079177	1471	1490	1508	1398
1399435211753088003	1471	1490	1508	1398
1399435211758037755	1472	1490	1508	1398
1399435211773127169	1470	1491	1509	1398
1399435211788077747	1484	1493	1509	1398
1399435211803070367	1484	1491	1509	1397
1399435211808039053	1484	1492	1510	1398
1399435211823039164	1484	1493	1510	1397
1399435211838082872	1507	1493	1511	1397
1399435211848000919	1506	1493	1511	1397
1399435211861787984	1506	1493	1511	1396
1399435211862925882	1506	1493	1511	1396
1399435211873042268	1506	1494	1511	1397
1399435211883053078	1526	1495	1511	1396
1399435211888001821	1524	1493	1512	1396
1399435211898039406	1526	1493	1512	1396
1399435211908008202	1526	1491	1512	1396
1399435211912997922	1528	1493	1513	1396
1399435211923061725	1527	1492	1513	1396
1399435211938043865	1537	1488	1514	1396
1399435211953057898	1538	1488	1514	1396
1399435211958005051	1539	1490	1514	1396
1399435211973095221	1540	1488	1515	1395
1399435211988130210	1543	1483	1515	1395
1399435212003096337	1544	1483	1516	1394
1399435212008049468	1546	1484	1516	1395
1399435212023040864	1546	1484	1516	1394
1399435212038022662	1545	1484	1517	1394
1399435212053361853	1545	1484	1517	1395
1399435212058200592	1546	1485	1517	1394
1399435212068273096	1546	1486	1518	1396
1399435212073344857	1546	1486	1518	1394
1399435212083228135	1543	1491	1518	1395
1399435212088230956	1542	1492	1518	1395
1399435212098201231	1543	1491	1518	1395
1399435212108215977	1542	1491	1518	1395
1399435212113301713	1542	1492	1518	1395
1399435212123207306	1541	1492	1519	1396
1399435212133340166	1531	1493	1519	1395
1399435212138219631	1532	1494	1519	1396
1399435212148283049	1530	1494	1519	1395
1399435212158260018	1531	1495	1519	1395
1399435212163084908	1530	1494	1519	1396
1399435212173297453	1529	1494	1520	1395
1399435212188204738	1513	1497	1520	1396
1399435212203376864	1513	1497	1520	1396
1399435212208291642	1511	1497	1520	1396
1399435212223310095	1511	1497	1520	1397
1399435212238740895	1492	1493	1520	1397
1399435212253340582	1489	1495	1520	1397
1399435212258229708	1490	1494	1520	1398
1399435212273208685	1487	1494	1520	1398
1399435212288302014	1457	1486	1520	1398
1399435212303338069	1456	1486	1520	1399
1399435212308162509	1455	1487	1520	1398
1399435212318375148	1454	1484	1520	1398
1399435212323301135	1452	1487	1520	1400
1399435212333265957	1450	1484	1521	1399
1399435212338432095	1451	1482	1521	1400
1399435212348290774	1449	1484	1521	1400
1399435212358344683	1447	1483	1521	1400
1399435212363008042	1449	1484	1521	1400
1399435212373234811	1447	1482	1521	1400
1399435212383276287	1445	1490	1521	1401
1399435212388210442	1446	1490	1521	1400
1399435212398287724	1443	1490	1521	1402
1399435212408302250	1444	1491	1521	1401
1399435212423098931	1442	1490	1521	1402
1399435212438333809	1451	1493	1521	1402
1399435212453563242	1451	1491	1521	1402
1399435212458236884	1447	1494	1521	1403
1399435212473293299	1449	1493	1521	1402
1399435212488301224	1468	1500	1521	1403
1399435212503347788	1466	1502	1521	1403
1399435212508303395	1468	1499	1521	1403
1399435212523393630	1467	1501	1521	1403
1399435212538378934	1489	1507	1521	1404
1399435212553381718	1488	1509	1521	1404
1399435212558251879	1489	1510	1521	1404
1399435212568284892	1491	1508	1521	1403
1399435212573254505	1491	1509	1521	1405
1399435212583078489	1491	1509	1521	1404
1399435212588165423	1520	1508	1521	1405
1399435212598194208	1521	1509	1521	1404
1399435212608288054	1521	1508	1521	1404
1399435212613134900	1525	1509	1521	1404
1399435212623063064	1523	1509	1521	1404
1399435212633319994	1531	1509	1521	1405
1399435212638231383	1533	1510	1521	1404
1399435212648339779	1532	1511	1521	1405
1399435212658073068	1537	1510	1521	1405
1399435212673295227	1538	1511	1521	1405
1399435212688325667	1553	1507	1521	1405
1399435212703307038	1555	1508	1521	1405
1399435212708249178	1555	1508	1521	1405
1399435212723053888	1557	1508	1521	1405
1399435212738358591	1565	1507	1520	1405
1399435212753387519	1567	1506	1520	1405
1399435212758235705	1569	1507	1520	1405
1399435212773356373	1571	1507	1520	1405
1399435212788215588	1567	1507	1519	1405
1399435212803267462	1570	1506	1519	1405
1399435212808235354	1571	1508	1519	1405
1399435212813238105	1572	1506	1519	1404
1399435212823295301	1572	1508	1519	1405
1399435212833359656	1563	1510	1518	1405
1399435212838277715	1563	1509	1518	1405
1399435212848030313	1566	1510	1518	1405
1399435212858111671	1565	1509	1518	1405
1399435212862989498	1568	1510	1518	1405
1399435212873104484	1568	1509	1518	1405
1399435212883017185	1558	1507	1517	1405
1399435212888048204	1560	1508	1517	1406
1399435212908046445	1559	1506	1517	1406
1399435212923041677	1560	1506	1516	1405
1399435212938080368	1544	1504	1516	1406
1399435212958129943	1544	1503	1516	1405
1399435212973115647	1543	1504	1515	1406
1399435212988086461	1531	1505	1515	1405
1399435213008000978	1531	1505	1515	1405
1399435213023029848	1530	1504	1515	1405
1399435213038065350	1496	1497	1515	1405
1399435213048016012	1495	1496	1514	1405
1399435213058050830	1494	1497	1514	1405
1399435213063083597	1493	1496	1514	1406
1399435213073074515	1495	1495	1514	1405
1399435213083045469	1487	1494	1514	1406
1399435213088019603	1488	1495	1514	1405
1399435213098049563	1487	1494	1514	1406
1399435213108046131	1486	1495	1514	1405
1399435213113093481	1486	1493	1514	1406
1399435213123100142	1484	1494	1514	1406
1399435213133193406	1458	1482	1514	1405
1399435213138065474	1454	1484	1513	1407
1399435213158068238	1455	1481	1513	1405
1399435213173074720	1452	1481	1513	1406
1399435213188050551	1455	1478	1513	1406
1399435213208058961	1454	1478	1513	1406
1399435213223028810	1454	1478	1513	1406
1399435213238244052	1452	1480	1513	1406
1399435213258197932	1452	1480	1513	1406
1399435213273227523	1452	1479	1513	1406
1399435213288093875	1457	1484	1513	1406
1399435213303077927	1458	1484	1513	1405
1399435213308033470	1456	1483	1513	1406
1399435213313051713	1459	1483	1513	1406
1399435213323025794	1457	1484	1513	1406
1399435213333016199	1481	1489	1513	1407
1399435213337998359	1484	1490	1513	1406
1399435213348044347	1482	1488	1513	1406
1399435213358033854	1486	1489	1513	1406
1399435213363047533	1484	1489	1513	1406
1399435213373023866	1486	1489	1513	1406
1399435213388070292	1506	1496	1513	1406
1399435213403017789	1511	1494	1513	1406
1399435213408043742	1510	1496	1513	1406
1399435213423067944	1512	1495	1513	1406
1399435213438098605	1526	1499	1513	1406
1399435213453082740	1528	1501	1513	1406
1399435213457979354	1528	1498	1513	1407
1399435213473170690	1530	1499	1513	1406
1399435213488110566	1538	1500	1513	1406
1399435213503142657	1539	1502	1513	1407
1399435213507990959	1541	1500	1513	1406
1399435213523120804	1542	1502	1513	1407
1399435213538073247	1541	1502	1513	1406
1399435213547972557	1542	1500	1513	1406
1399435213558034148	1544	1503	1513	1406
1399435213562992909	1544	1503	1513	1406
1399435213573047135	1545	1502	1513	1405
1399435213583057500	1587	1506	1513	1406
1399435213588071597	1588	1507	1513	1406
1399435213598042822	1588	1505	1513	1406
1399435213608062229	1587	1508	1513	1407
1399435213613049389	1593	1504	1513	1404
1399435213623066246	1592	1508	1513	1407
1399435213638083702	1578	1509	1513	1406
1399435213653073110	1582	1508	1513	1405
1399435213658027466	1580	1508	1513	1406
1399435213673050334	1582	1509	1513	1405
1399435213688082371	1569	1512	1513	1406
1399435213703149946	1567	1511	1512	1405
1399435213708016386	1569	1510	1512	1405
1399435213723087191	1569	1512	1512	1406
1399435213738117172	1562	1506	1512	1405
1399435213753092113	1560	1506	1512	1406
1399435213758058210	1558	1507	1512	1405
1399435213773217171	1557	1505	1512	1405
1399435213788098374	1527	1495	1512	1405
1399435213798048488	1525	1495	1512	1404
1399435213808056505	1524	1497	1512	1406
1399435213813029214	1524	1497	1511	1406
1399435213823090011	1522	1495	1511	1405
1399435213833196140	1504	1490	1511	1406
1399435213838022062	1505	1489	1511	1405
1399435213848078692	1502	1489	1511	1405
1399435213858097218	1503	1488	1511	1405
1399435213863019309	1499	1489	1511	1405
1399435213873053658	1500	1487	1511	1405
1399435213888064710	1457	1476	1511	1405
1399435213903098984	1457	1474	1511	1406
1399435213908136816	1454	1476	1511	1406
1399435213923098887	1452	1474	1511	1406
1399435213938184846	1453	1472	1511	1406
1399435213953056801	1449	1473	1510	1406
1399435213958055291	1448	1471	1510	1407
1399435213973183026	1446	1470	1510	1406
1399435213988320324	1443	1464	1510	1406
1399435214003380785	1441	1463	1510	1407
1399435214008202051	1440	1465	1510	1407
1399435214018270526	1439	1462	1510	1408
1399435214023267503	1438	1464	1510	1407
1399435214033322097	1438	1462	1510	1406
1399435214038298367	1448	1466	1510	1408
1399435214048355775	1446	1469	1510	1407
1399435214058265608	1446	1466	1510	1409
1399435214063328425	1446	1467	1510	1408
1399435214073300950	1446	1466	1510	1408
1399435214083378004	1467	1472	1510	1408
1399435214088240604	1467	1473	1510	1408
1399435214098231983	1467	1471	1510	1409
1399435214108263554	1467	1473	1510	1407
1399435214113276829	1466	1471	1510	1408
1399435214123282170	1466	1473	1510	1409
1399435214138310269	1500	1479	1510	1409
1399435214153258288	1500	1481	1510	1408
1399435214158150692	1498	1477	1510	1408
1399435214173292260	1499	1480	1510	1408
1399435214188264848	1533	1494	1510	1408
1399435214203349511	1532	1495	1510	1409
1399435214208270756	1534	1497	1510	1408
1399435214223216875	1533	1496	1510	1408
1399435214238510392	1543	1504	1510	1407
1399435214253389105	1546	1505	1510	1406
1399435214258272027	1543	1506	1510	1408
1399435214268258529	1547	1507	1510	1407
1399435214273298908	1546	1508	1510	1407
1399435214283309080	1574	1515	1510	1407
1399435214288248855	1575	1517	1510	1407
