#Time	 Roll 	 Pitch 	 Yaw 	 Thrust
1399407264047246415	1522	1473	1514	1378
1399407264057159749	1522	1472	1514	1378
1399407264062138150	1522	1473	1514	1378
1399407264082204854	1522	1472	1514	1378
1399407264087225254	1521	1473	1514	1378
1399407264097168601	1522	1472	1514	1378
1399407264107267404	1522	1473	1514	1378
1399407264117149271	1522	1472	1514	1378
1399407264122160136	1522	1473	1514	1378
1399407264132138941	1522	1473	1514	1379
1399407264147306203	1522	1472	1514	1378
1399407264157197927	1522	1473	1514	1378
1399407264167200464	1523	1472	1514	1378
1399407264182236395	1522	1472	1514	1378
1399407264187219434	1522	1473	1514	1378
1399407264202178465	1523	1472	1514	1378
1399407264207193137	1522	1473	1514	1378
1399407264212157435	1523	1473	1514	1378
1399407264232198419	1522	1472	1514	1378
1399407264247141873	1523	1472	1514	1378
1399407264252127877	1522	1473	1514	1378
1399407264257171394	1522	1472	1514	1378
1399407264267061929	1522	1473	1514	1378
1399407264272128074	1521	1472	1514	1378
1399407264282160250	1521	1473	1514	1378
1399407264287123052	1521	1473	1514	1378
1399407264297196662	1523	1473	1514	1378
1399407264307204444	1522	1474	1514	1378
1399407264312133021	1522	1474	1514	1378
1399407264322100827	1523	1472	1514	1377
1399407264332170004	1523	1473	1514	1378
1399407264337153013	1523	1474	1514	1378
1399407264347118493	1522	1474	1514	1378
1399407264357164214	1521	1474	1514	1378
1399407264362154960	1523	1474	1514	1378
1399407264382173969	1523	1475	1514	1378
1399407264387339924	1523	1474	1514	1378
1399407264397421982	1522	1475	1514	1378
1399407264407437944	1522	1474	1514	1378
1399407264412313054	1523	1474	1514	1378
1399407264432251893	1524	1475	1514	1378
1399407264447385674	1523	1474	1514	1378
1399407264462327929	1524	1474	1514	1377
1399407264467378306	1524	1473	1514	1378
1399407264477469272	1525	1474	1514	1378
1399407264482243592	1524	1473	1514	1377
1399407264487158866	1525	1472	1514	1378
1399407264497330019	1524	1472	1514	1378
1399407264507359176	1525	1472	1514	1377
1399407264517301444	1523	1471	1514	1378
1399407264522410213	1523	1472	1514	1378
1399407264532385583	1523	1470	1514	1377
1399407264547385994	1523	1472	1514	1434
1399407264572401834	1524	1471	1514	1426
1399407264582428977	1524	1471	1514	1426
1399407264597396299	1523	1471	1514	1426
1399407264612404685	1523	1471	1514	1426
1399407264617385541	1524	1471	1514	1426
1399407264622413660	1524	1471	1514	1427
1399407264637381093	1523	1467	1514	1426
1399407264647433704	1523	1467	1514	1426
1399407264657331524	1524	1469	1514	1427
1399407264662339211	1523	1466	1514	1427
1399407264682428683	1524	1467	1514	1427
1399407264697456876	1524	1468	1514	1427
1399407264712502804	1525	1468	1514	1427
1399407264732513868	1526	1468	1514	1427
1399407264747540054	1525	1469	1514	1427
1399407264752441053	1524	1468	1514	1427
1399407264757396958	1524	1467	1514	1427
1399407264772413836	1524	1466	1514	1426
1399407264782434716	1525	1464	1514	1426
1399407264787319625	1524	1464	1514	1426
1399407264797359365	1524	1461	1514	1426
1399407264812514559	1523	1460	1514	1425
1399407264832494951	1523	1454	1514	1425
1399407264837375273	1523	1451	1514	1425
1399407264847403678	1521	1448	1514	1423
1399407264862404555	1521	1447	1514	1424
1399407264867465489	1522	1445	1514	1423
1399407264882146668	1522	1431	1514	1423
1399407264897203675	1521	1428	1514	1422
1399407264912185274	1519	1428	1514	1422
1399407264932148471	1520	1417	1514	1421
1399407264947179343	1521	1415	1514	1419
1399407264957129186	1518	1416	1514	1420
1399407264967204594	1517	1416	1514	1418
1399407264972119758	1520	1415	1514	1420
1399407264982174741	1522	1406	1514	1417
1399407264997177777	1520	1403	1514	1417
1399407265007139070	1516	1403	1514	1416
1399407265012084426	1517	1401	1514	1417
1399407265022144120	1516	1402	1514	1415
1399407265032323918	1517	1400	1514	1416
1399407265047416068	1516	1400	1514	1414
1399407265057466164	1518	1400	1514	1414
1399407265062379404	1515	1400	1514	1413
1399407265072175724	1515	1399	1514	1414
1399407265082358886	1514	1409	1514	1412
1399407265097383060	1514	1409	1514	1412
1399407265107538007	1514	1408	1514	1411
1399407265112388082	1513	1406	1514	1411
1399407265132417087	1516	1414	1514	1409
1399407265147435014	1516	1415	1514	1410
1399407265162463901	1517	1415	1514	1409
1399407265167412069	1517	1413	1514	1408
1399407265177465282	1517	1416	1514	1408
1399407265182427409	1520	1418	1514	1408
1399407265187360688	1521	1417	1514	1407
1399407265197482934	1519	1416	1514	1406
1399407265207482827	1520	1418	1514	1405
1399407265217376007	1518	1417	1514	1407
1399407265222441636	1516	1419	1514	1406
1399407265237346464	1519	1431	1514	1405
1399407265252344274	1519	1434	1514	1404
1399407265257257897	1517	1430	1514	1404
1399407265267306051	1518	1433	1514	1403
1399407265272117646	1520	1431	1514	1404
1399407265282357547	1519	1455	1514	1403
1399407265297368351	1521	1454	1514	1403
1399407265307424015	1519	1451	1514	1401
1399407265312330818	1521	1451	1514	1402
1399407265322380532	1522	1453	1514	1401
1399407265332457698	1519	1456	1514	1402
1399407265337357112	1518	1459	1514	1402
1399407265347382350	1519	1455	1514	1401
1399407265357455426	1520	1458	1514	1401
1399407265362369287	1519	1457	1514	1400
1399407265382478534	1520	1460	1514	1401
1399407265397476916	1521	1459	1514	1400
1399407265407287016	1522	1459	1514	1400
1399407265417366969	1520	1464	1514	1401
1399407265432456184	1522	1462	1514	1400
1399407265447371438	1523	1461	1514	1399
1399407265477424473	1516	1465	1514	1399
1399407265482319247	1516	1466	1514	1400
1399407265487259660	1517	1466	1514	1400
1399407265497419365	1516	1465	1514	1399
1399407265507388046	1518	1465	1514	1399
1399407265512286781	1519	1464	1514	1399
1399407265527347222	1514	1456	1514	1399
1399407265532310404	1514	1455	1514	1398
1399407265537393641	1514	1458	1514	1401
1399407265547371538	1515	1455	1514	1400
1399407265557181477	1515	1457	1514	1399
1399407265572442268	1515	1454	1514	1399
1399407265582476636	1516	1422	1514	1401
1399407265597449938	1513	1421	1514	1400
1399407265607423519	1516	1420	1514	1400
1399407265617435158	1514	1422	1514	1401
1399407265632387857	1516	1413	1514	1401
1399407265642351931	1515	1412	1514	1401
1399407265647407450	1516	1411	1514	1400
1399407265662397327	1516	1411	1514	1401
1399407265682461828	1513	1400	1514	1401
1399407265692408318	1512	1398	1514	1401
1399407265697331775	1515	1397	1514	1401
1399407265707453777	1514	1399	1514	1403
1399407265712337726	1516	1397	1514	1402
1399407265732465502	1514	1392	1514	1403
1399407265752354799	1514	1392	1514	1403
1399407265762445613	1516	1391	1514	1403
1399407265767383793	1514	1391	1514	1403
1399407265782199684	1520	1381	1514	1403
1399407265797405082	1520	1382	1514	1404
1399407265812430001	1519	1383	1514	1404
1399407265817277667	1520	1381	1514	1405
1399407265837454474	1519	1394	1514	1405
1399407265847425704	1520	1393	1514	1405
1399407265862419215	1520	1394	1514	1406
1399407265882426587	1517	1416	1514	1406
1399407265897500534	1518	1414	1514	1406
1399407265912388957	1519	1414	1514	1406
1399407265917313931	1518	1416	1514	1407
1399407265932484434	1517	1433	1514	1407
1399407265947462988	1517	1434	1514	1407
1399407265957230449	1517	1435	1514	1407
1399407265962492285	1518	1436	1514	1408
1399407265982419122	1519	1447	1514	1408
1399407265997366557	1518	1450	1514	1409
1399407266002418792	1520	1449	1514	1408
1399407266007343385	1519	1451	1514	1409
1399407266012416740	1520	1451	1514	1408
1399407266032611902	1522	1464	1514	1409
1399407266037346672	1523	1466	1514	1409
1399407266047448542	1522	1466	1514	1409
1399407266057523961	1523	1469	1514	1410
1399407266072423210	1522	1469	1514	1409
1399407266082470148	1522	1469	1514	1410
1399407266097284165	1522	1472	1514	1410
1399407266107383529	1521	1473	1514	1411
1399407266117399824	1522	1475	1514	1411
1399407266132508858	1525	1483	1514	1411
1399407266147453505	1525	1486	1514	1411
1399407266162446644	1525	1485	1514	1411
1399407266167393450	1526	1487	1514	1411
1399407266182422926	1526	1484	1514	1411
1399407266187345600	1528	1483	1514	1411
1399407266197380038	1528	1485	1514	1411
1399407266207371662	1528	1485	1514	1412
1399407266212299535	1528	1486	1514	1413
1399407266222463118	1528	1486	1514	1412
1399407266232408006	1529	1482	1514	1413
1399407266237313472	1529	1479	1514	1413
1399407266247345019	1529	1479	1514	1413
1399407266257358935	1529	1481	1514	1413
1399407266262260604	1530	1478	1514	1413
1399407266272342194	1530	1479	1514	1413
1399407266282154199	1529	1465	1514	1413
1399407266287296315	1531	1466	1514	1413
1399407266297369326	1529	1464	1514	1413
1399407266312303788	1531	1465	1514	1413
1399407266332441263	1527	1441	1514	1414
1399407266337314361	1526	1439	1514	1414
1399407266352405669	1525	1440	1514	1414
1399407266362280572	1527	1438	1514	1414
1399407266367412373	1528	1440	1514	1415
1399407266382445779	1530	1429	1514	1414
1399407266397364064	1530	1428	1514	1414
1399407266412420715	1528	1425	1514	1414
1399407266417331591	1530	1425	1514	1415
1399407266432391935	1529	1399	1514	1414
1399407266442378007	1530	1397	1514	1414
1399407266447439459	1528	1397	1514	1415
1399407266457414396	1529	1397	1514	1415
1399407266462395338	1529	1395	1514	1415
1399407266472432387	1529	1395	1514	1415
1399407266482416133	1530	1390	1514	1414
1399407266487315919	1528	1391	1514	1415
1399407266497392220	1528	1390	1514	1415
1399407266512370676	1528	1388	1514	1415
1399407266522359194	1529	1386	1514	1415
1399407266532458157	1527	1367	1514	1416
1399407266537410618	1529	1369	1514	1416
1399407266552426431	1528	1367	1514	1416
1399407266567426092	1530	1368	1514	1416
1399407266572291865	1530	1369	1514	1416
1399407266587404752	1533	1380	1514	1415
1399407266597447492	1533	1379	1514	1416
1399407266612292471	1534	1379	1514	1416
1399407266617311728	1533	1381	1514	1417
1399407266632365312	1530	1401	1514	1417
1399407266647361163	1530	1401	1514	1417
1399407266662489024	1531	1401	1514	1417
1399407266667415905	1530	1401	1514	1417
1399407266672388737	1530	1402	1514	1417
1399407266682435773	1529	1426	1514	1417
1399407266697456765	1529	1428	1514	1417
1399407266707416788	1528	1428	1514	1418
1399407266717450939	1529	1432	1514	1418
1399407266722037826	1528	1431	1514	1418
1399407266732360600	1527	1447	1514	1419
1399407266747477104	1526	1448	1514	1419
1399407266772412842	1527	1451	1514	1418
1399407266782419990	1525	1473	1514	1418
1399407266797527780	1525	1477	1514	1418
1399407266807447862	1524	1480	1514	1419
1399407266822286674	1524	1481	1514	1419
1399407266832334524	1524	1498	1514	1418
1399407266847410206	1523	1501	1514	1418
1399407266862401291	1523	1502	1514	1418
1399407266867312286	1524	1505	1514	1419
1399407266882377817	1525	1511	1514	1418
1399407266897411833	1525	1514	1514	1418
1399407266912482654	1524	1517	1514	1418
1399407266922413927	1525	1518	1514	1417
1399407266932386716	1523	1507	1514	1418
1399407266937398224	1523	1508	1514	1418
1399407266952448106	1522	1507	1514	1417
1399407266957311898	1523	1509	1514	1417
1399407266967445554	1522	1509	1514	1417
1399407266972386688	1521	1509	1514	1417
1399407266982290516	1528	1513	1514	1417
1399407266987350508	1528	1509	1514	1416
1399407266997419947	1530	1513	1514	1417
1399407267012480005	1528	1513	1514	1417
1399407267032430768	1529	1499	1514	1416
1399407267037350584	1528	1499	1514	1417
1399407267052391967	1528	1499	1514	1417
1399407267062455166	1529	1500	1514	1416
1399407267072370609	1530	1499	1514	1417
1399407267082455012	1532	1461	1514	1416
1399407267097468626	1532	1461	1514	1416
1399407267107517401	1534	1459	1514	1415
1399407267112354698	1533	1458	1514	1416
1399407267132565718	1532	1453	1514	1416
1399407267147514784	1531	1452	1514	1416
1399407267162366219	1529	1448	1514	1415
1399407267167303897	1533	1448	1514	1416
1399407267172369087	1530	1447	1514	1416
1399407267187388703	1537	1383	1514	1417
1399407267197208800	1537	1381	1514	1417
1399407267207337960	1538	1380	1514	1417
1399407267212421206	1536	1377	1514	1416
1399407267222445446	1538	1378	1514	1418
1399407267237392758	1538	1366	1514	1417
1399407267247361992	1539	1365	1514	1418
1399407267257423629	1539	1364	1514	1418
1399407267262350065	1538	1362	1514	1418
1399407267272359167	1537	1362	1514	1418
1399407267282398499	1537	1357	1514	1418
1399407267287400433	1539	1357	1514	1418
1399407267297363982	1536	1356	1514	1418
1399407267312420334	1537	1357	1514	1419
1399407267332468376	1534	1367	1514	1418
1399407267347548269	1533	1369	1514	1419
1399407267362402566	1533	1368	1514	1419
1399407267367390167	1531	1368	1514	1419
1399407267382407348	1526	1422	1514	1419
1399407267397415539	1525	1423	1514	1419
1399407267412452653	1526	1422	1514	1419
1399407267417401193	1525	1424	1514	1419
1399407267427198826	1518	1471	1514	1419
1399407267432314413	1519	1472	1514	1419
1399407267437440061	1518	1472	1514	1419
1399407267447576833	1519	1472	1514	1419
1399407267457482225	1517	1473	1514	1419
1399407267477184636	1513	1510	1514	1419
1399407267482416270	1512	1512	1514	1419
1399407267487329038	1513	1511	1514	1419
1399407267497303796	1511	1514	1514	1419
1399407267507430691	1510	1513	1514	1419
1399407267517455019	1512	1515	1514	1419
1399407267532299538	1511	1526	1514	1419
1399407267542354272	1511	1529	1514	1418
1399407267547409140	1510	1529	1514	1419
1399407267562501097	1510	1533	1514	1419
1399407267582322934	1515	1528	1514	1419
1399407267597376622	1516	1530	1514	1418
1399407267612440617	1515	1533	1514	1420
1399407267617318479	1516	1536	1514	1419
1399407267632410421	1519	1529	1514	1419
1399407267647299391	1518	1529	1514	1418
1399407267662491935	1518	1533	1514	1418
1399407267667350911	1519	1535	1514	1420
1399407267677155502	1519	1525	1514	1418
1399407267687110978	1519	1524	1514	1418
1399407267697318186	1516	1526	1514	1419
1399407267707380295	1517	1527	1514	1419
1399407267712441460	1519	1525	1514	1417
1399407267722387127	1520	1524	1514	1418
1399407267732420454	1523	1482	1514	1418
1399407267737426506	1524	1483	1514	1419
1399407267752378787	1525	1481	1514	1418
1399407267757343826	1525	1479	1514	1418
1399407267772447084	1524	1481	1514	1418
1399407267782408086	1526	1472	1514	1419
1399407267802373203	1527	1471	1514	1418
1399407267807263315	1529	1468	1514	1418
1399407267817451125	1526	1469	1514	1419
1399407267837486667	1535	1411	1514	1419
1399407267852265337	1537	1405	1514	1418
1399407267857432084	1537	1409	1514	1419
1399407267862343798	1538	1407	1514	1418
1399407267882518151	1540	1400	1514	1419
1399407267897377810	1540	1397	1514	1418
1399407267912302829	1541	1395	1514	1418
1399407267917343404	1540	1394	1514	1418
1399407267922135394	1542	1393	1514	1418
1399407267932451183	1532	1408	1514	1419
1399407267947452974	1533	1406	1514	1419
1399407267962339572	1534	1404	1514	1419
1399407267972427289	1533	1402	1514	1419
1399407267982449551	1531	1414	1514	1419
1399407267987344726	1529	1412	1514	1419
1399407268007389326	1531	1412	1514	1419
1399407268012110451	1532	1410	1514	1419
1399407268022353180	1531	1411	1514	1420
1399407268037410369	1528	1443	1514	1419
1399407268047485205	1528	1443	1514	1418
1399407268067303137	1527	1442	1514	1419
1399407268072127827	1529	1443	1514	1418
1399407268082416601	1528	1455	1514	1419
1399407268097435569	1527	1455	1514	1418
1399407268112183235	1526	1455	1514	1418
1399407268117395792	1526	1453	1514	1419
1399407268122471484	1528	1453	1514	1419
1399407268132471454	1520	1479	1514	1418
1399407268137287440	1519	1478	1514	1419
1399407268147382691	1520	1478	1514	1418
1399407268157433350	1518	1476	1514	1419
1399407268177477345	1514	1484	1514	1419
1399407268182381352	1514	1482	1514	1419
1399407268187210375	1513	1481	1514	1419
1399407268197401176	1513	1479	1514	1419
1399407268207377735	1514	1479	1514	1418
1399407268222184890	1513	1480	1514	1420
1399407268232389745	1514	1470	1514	1419
1399407268247407745	1513	1470	1514	1419
1399407268257239630	1512	1469	1514	1419
1399407268262429557	1512	1469	1514	1419
1399407268282471211	1513	1450	1514	1419
1399407268297406879	1513	1449	1514	1420
1399407268312326003	1512	1447	1514	1419
1399407268322363969	1513	1446	1514	1419
1399407268332264860	1519	1412	1514	1421
1399407268347390194	1520	1412	1514	1421
1399407268367422307	1520	1410	1514	1420
1399407268382400057	1530	1391	1514	1421
1399407268397375981	1530	1391	1514	1422
1399407268412394272	1530	1388	1514	1422
1399407268422315287	1531	1384	1514	1421
1399407268432435843	1534	1387	1514	1423
1399407268437351310	1533	1384	1514	1423
1399407268447353249	1532	1385	1514	1424
1399407268457372996	1535	1382	1514	1422
1399407268472501296	1535	1382	1514	1423
1399407268482435777	1532	1420	1514	1424
1399407268487131809	1531	1420	1514	1424
1399407268497398869	1535	1416	1514	1424
1399407268507401237	1534	1415	1514	1424
1399407268512294877	1535	1416	1514	1423
1399407268532402093	1533	1428	1514	1425
1399407268547424313	1536	1425	1514	1424
1399407268557163397	1534	1427	1514	1425
1399407268567337138	1532	1428	1514	1425
1399407268582426134	1527	1431	1514	1424
1399407268597381651	1526	1433	1514	1425
1399407268612456543	1528	1433	1514	1424
1399407268617435518	1528	1431	1514	1425
1399407268622301426	1527	1434	1514	1425
1399407268632399092	1521	1452	1514	1425
1399407268647271496	1521	1452	1514	1425
1399407268657354306	1521	1450	1514	1425
1399407268667414779	1523	1453	1514	1426
1399407268672406654	1520	1453	1514	1426
1399407268682189840	1518	1441	1514	1425
1399407268687343036	1518	1443	1514	1425
1399407268697135430	1519	1441	1514	1425
1399407268707339390	1519	1442	1514	1425
1399407268717364670	1517	1444	1514	1426
1399407268722336359	1519	1443	1514	1427
1399407268737478912	1516	1443	1514	1427
1399407268747183148	1516	1441	1514	1426
1399407268762432690	1516	1443	1514	1427
1399407268782424570	1525	1409	1514	1427
1399407268787376772	1525	1411	1514	1427
1399407268802428203	1524	1410	1514	1427
1399407268812444475	1524	1413	1514	1428
1399407268827523114	1523	1414	1514	1428
1399407268832423609	1523	1414	1514	1427
1399407268837349385	1523	1402	1514	1428
1399407268847364389	1525	1405	1514	1427
1399407268862234204	1524	1403	1514	1427
1399407268867358722	1523	1406	1514	1428
1399407268882381170	1523	1412	1514	1428
1399407268897241191	1524	1413	1514	1428
1399407268907331147	1524	1414	1514	1428
1399407268912403166	1522	1415	1514	1428
1399407268932492718	1522	1426	1514	1428
1399407268942326985	1520	1426	1514	1428
1399407268947355963	1522	1427	1514	1428
1399407268957470369	1519	1427	1514	1428
1399407268962456155	1522	1429	1514	1428
1399407268972378601	1520	1428	1514	1427
1399407268982293581	1522	1442	1514	1428
1399407268987348328	1523	1442	1514	1428
1399407268997221712	1521	1442	1514	1427
1399407269012408926	1523	1443	1514	1427
1399407269022368655	1523	1443	1514	1428
1399407269032391299	1522	1444	1514	1427
1399407269047497991	1520	1454	1514	1428
1399407269057459867	1519	1455	1514	1427
1399407269062346823	1519	1456	1514	1427
1399407269072278234	1518	1457	1514	1427
1399407269082380201	1521	1456	1514	1427
1399407269097382676	1522	1457	1514	1426
1399407269112365598	1521	1459	1514	1427
1399407269117267184	1520	1459	1514	1426
1399407269122321470	1520	1459	1514	1426
1399407269132468394	1524	1455	1514	1426
1399407269137407832	1524	1455	1514	1426
1399407269147434270	1524	1457	1514	1427
1399407269157405592	1525	1455	1514	1425
1399407269162465092	1525	1457	1514	1426
1399407269177368293	1528	1455	1514	1425
1399407269182367801	1527	1457	1514	1425
1399407269187284278	1526	1456	1514	1425
1399407269197399860	1524	1457	1514	1426
1399407269207441197	1527	1459	1514	1425
1399407269222470789	1527	1459	1514	1425
1399407269232139288	1525	1458	1514	1424
1399407269237433027	1529	1439	1514	1425
1399407269247064630	1531	1440	1514	1423
1399407269262487472	1529	1440	1514	1424
1399407269267307715	1530	1440	1514	1425
1399407269282386082	1528	1437	1514	1424
1399407269297437955	1530	1436	1514	1423
1399407269312446341	1530	1436	1514	1423
1399407269317325292	1527	1438	1514	1423
1399407269332455717	1525	1439	1514	1423
1399407269342443281	1526	1439	1514	1422
1399407269347369709	1526	1440	1514	1423
1399407269362466957	1526	1439	1514	1422
1399407269367374078	1527	1440	1514	1423
1399407269377430596	1525	1436	1514	1421
1399407269382336258	1525	1437	1514	1422
1399407269387238083	1525	1437	1514	1421
1399407269397368030	1526	1436	1514	1422
1399407269407310420	1526	1437	1514	1422
1399407269417408134	1526	1435	1514	1422
1399407269422400141	1527	1435	1514	1422
1399407269432172989	1525	1431	1514	1420
1399407269437352062	1527	1432	1514	1421
1399407269447350751	1526	1433	1514	1421
1399407269457298099	1524	1431	1514	1421
1399407269467203841	1525	1431	1514	1421
1399407269472439655	1525	1432	1514	1421
1399407269482051516	1529	1429	1514	1420
1399407269487312833	1525	1426	1514	1420
1399407269502382513	1527	1429	1514	1421
1399407269512346070	1526	1428	1514	1421
1399407269522359969	1528	1427	1514	1421
1399407269532110096	1529	1443	1514	1420
1399407269547147476	1530	1444	1514	1420
1399407269562192734	1531	1443	1514	1421
1399407269567189427	1530	1442	1514	1421
1399407269582166049	1531	1446	1514	1421
1399407269597163414	1532	1446	1514	1421
1399407269612134155	1531	1445	1514	1421
1399407269617139890	1533	1444	1514	1422
1399407269637193292	1536	1451	1514	1421
1399407269647122518	1536	1450	1514	1421
1399407269657159847	1537	1452	1514	1421
1399407269672147863	1538	1451	1514	1421
1399407269682195847	1537	1454	1514	1421
1399407269687287410	1538	1453	1514	1422
1399407269697392030	1538	1454	1514	1421
1399407269707330557	1538	1453	1514	1422
1399407269722337220	1538	1455	1514	1423
1399407269732412228	1539	1458	1514	1422
1399407269747436389	1540	1457	1514	1422
1399407269757373099	1540	1457	1514	1422
1399407269767391342	1540	1456	1514	1423
1399407269782422422	1539	1450	1514	1422
1399407269797423737	1540	1449	1514	1422
1399407269817472319	1540	1448	1514	1422
1399407269822433069	1540	1449	1514	1423
1399407269832429860	1537	1446	1514	1423
1399407269837220023	1537	1445	1514	1422
1399407269847224495	1537	1446	1514	1423
1399407269862365527	1536	1444	1514	1423
1399407269867506721	1538	1443	1514	1422
1399407269882416916	1530	1431	1514	1423
1399407269897431132	1530	1430	1514	1423
1399407269912515801	1531	1430	1514	1423
1399407269917220214	1530	1429	1514	1423
1399407269932478212	1528	1426	1514	1423
1399407269947427423	1529	1425	1514	1424
1399407269957319694	1530	1423	1514	1424
1399407269962319922	1529	1425	1514	1424
1399407269982450699	1528	1420	1514	1424
1399407269997487847	1528	1419	1514	1424
1399407270007314615	1528	1420	1514	1424
1399407270012354601	1528	1418	1514	1425
1399407270032521641	1528	1422	1514	1425
1399407270037343249	1528	1422	1514	1426
1399407270047480229	1528	1420	1514	1425
1399407270057420067	1528	1421	1514	1426
1399407270067406358	1527	1421	1514	1425
1399407270082426656	1530	1425	1514	1426
1399407270112466390	1530	1425	1514	1426
1399407270117242484	1529	1426	1514	1427
1399407270122279281	1529	1425	1514	1427
1399407270132417209	1533	1433	1514	1428
1399407270137211333	1531	1432	1514	1427
1399407270147329411	1532	1432	1514	1428
1399407270162331005	1532	1433	1514	1428
1399407270167298770	1532	1430	1514	1428
1399407270177252138	1545	1441	1514	1428
1399407270182352788	1543	1437	1514	1427
1399407270187324871	1544	1440	1514	1429
1399407270207335670	1543	1437	1514	1427
1399407270212339946	1545	1439	1514	1428
1399407270222416267	1544	1439	1514	1429
1399407270232380832	1543	1439	1514	1428
1399407270247338031	1541	1439	1514	1429
1399407270262428217	1542	1441	1514	1429
1399407270272433402	1541	1440	1514	1428
1399407270282395999	1544	1448	1514	1429
1399407270287374591	1545	1446	1514	1429
1399407270297450389	1545	1448	1514	1429
1399407270312403980	1545	1446	1514	1429
1399407270317218964	1543	1446	1514	1429
1399407270322355027	1545	1445	1514	1428
1399407270332377664	1540	1445	1514	1429
1399407270347462689	1540	1443	1514	1429
1399407270362440558	1539	1442	1514	1429
1399407270367326542	1541	1444	1514	1429
1399407270372290928	1540	1442	1514	1428
1399407270382349504	1537	1433	1514	1429
1399407270392400276	1536	1435	1514	1429
1399407270397392160	1535	1433	1514	1429
1399407270407460476	1537	1435	1514	1429
1399407270412433393	1534	1432	1514	1429
1399407270422493700	1536	1434	1514	1430
1399407270437414948	1530	1427	1514	1428
1399407270447288896	1529	1429	1514	1430
1399407270457431498	1527	1428	1514	1429
1399407270462346612	1529	1428	1514	1429
1399407270472390011	1527	1428	1514	1429
1399407270482363994	1529	1423	1514	1430
1399407270497468450	1527	1422	1514	1429
1399407270512421116	1527	1423	1514	1429
1399407270532439580	1524	1422	1514	1429
1399407270547454085	1523	1422	1514	1430
1399407270562398025	1522	1421	1514	1429
1399407270582390994	1521	1420	1514	1429
1399407270597458407	1516	1413	1514	1429
1399407270612426388	1514	1414	1514	1429
1399407270617296198	1513	1411	1514	1429
1399407270622351010	1513	1414	1514	1429
1399407270632410759	1510	1417	1514	1429
1399407270637300868	1510	1417	1514	1429
1399407270647373121	1509	1417	1514	1428
1399407270662457200	1508	1416	1514	1428
1399407270672254603	1508	1416	1514	1428
1399407270682406054	1509	1423	1514	1430
1399407270687303624	1508	1421	1514	1428
1399407270697391315	1506	1422	1514	1429
1399407270712498902	1506	1422	1514	1428
1399407270732380059	1507	1427	1514	1428
1399407270737474019	1505	1429	1514	1429
1399407270752403083	1505	1430	1514	1428
1399407270762316723	1502	1429	1514	1428
1399407270767375356	1505	1432	1514	1428
1399407270782422863	1504	1435	1514	1428
1399407270797406091	1503	1437	1514	1428
1399407270812361329	1502	1438	1514	1428
1399407270817345263	1501	1439	1514	1428
1399407270822366870	1500	1440	1514	1429
1399407270832375111	1511	1458	1514	1428
1399407270837369672	1511	1457	1514	1428
1399407270847360810	1512	1461	1514	1429
1399407270862334230	1509	1462	1514	1429
1399407270872317765	1508	1464	1514	1428
1399407270882405876	1513	1463	1514	1428
1399407270887483036	1512	1468	1514	1429
1399407270897374543	1512	1467	1514	1428
1399407270907396630	1512	1471	1514	1429
1399407270917443325	1512	1470	1514	1428
1399407270922234626	1510	1470	1514	1429
1399407270932412835	1510	1476	1514	1428
1399407270937456616	1510	1473	1514	1429
1399407270947408094	1509	1477	1514	1429
1399407270957410304	1508	1478	1514	1429
1399407270967547024	1508	1476	1514	1429
1399407270982540976	1514	1475	1514	1429
1399407270997341310	1511	1477	1514	1430
1399407271017100654	1511	1477	1514	1429
1399407271032194686	1513	1463	1514	1429
1399407271047532157	1511	1464	1514	1430
1399407271067466336	1512	1464	1514	1429
1399407271087481597	1509	1458	1514	1430
1399407271097472559	1509	1458	1514	1429
1399407271107385053	1508	1458	1514	1431
1399407271112306298	1510	1457	1514	1429
1399407271122272842	1508	1458	1514	1431
1399407271132379560	1511	1445	1514	1431
1399407271142436068	1507	1443	1514	1430
1399407271147417528	1508	1445	1514	1431
1399407271157422897	1507	1443	1514	1430
1399407271167339069	1507	1443	1514	1432
1399407271182489318	1509	1439	1514	1431
1399407271197331407	1507	1440	1514	1431
1399407271212291746	1506	1440	1514	1431
1399407271217287885	1506	1437	1514	1430
1399407271222035385	1507	1438	1514	1432
1399407271232323550	1505	1433	1514	1430
1399407271247415529	1504	1434	1514	1432
1399407271257423689	1503	1432	1514	1431
1399407271267428187	1505	1434	1514	1432
1399407271272675070	1504	1431	1514	1430
1399407271282429013	1500	1423	1514	1432
1399407271297480258	1500	1422	1514	1430
1399407271317355657	1500	1422	1514	1431
1399407271332241076	1503	1424	1514	1431
1399407271352412261	1504	1422	1514	1431
1399407271362265868	1505	1421	1514	1432
1399407271367206314	1506	1423	1514	1431
1399407271377367737	1505	1423	1514	1431
1399407271382287651	1505	1424	1514	1431
1399407271387499206	1504	1423	1514	1430
1399407271407474776	1505	1423	1514	1431
1399407271412387530	1508	1422	1514	1432
1399407271432444389	1513	1425	1514	1430
1399407271447387795	1514	1425	1514	1430
1399407271462352776	1514	1426	1514	1431
1399407271482414716	1513	1431	1514	1431
1399407271487363809	1514	1431	1514	1430
1399407271502440686	1514	1431	1514	1431
1399407271507390289	1515	1432	1514	1430
1399407271517305520	1516	1432	1514	1431
1399407271532418238	1518	1444	1514	1429
1399407271547393522	1520	1443	1514	1429
1399407271562199293	1522	1444	1514	1430
1399407271582394170	1525	1470	1514	1430
1399407271592385043	1525	1470	1514	1430
1399407271597180473	1524	1470	1514	1430
1399407271607265518	1528	1469	1514	1429
1399407271612418637	1527	1470	1514	1429
1399407271622463724	1529	1470	1514	1429
1399407271642326572	1530	1471	1514	1429
1399407271647325833	1532	1471	1514	1429
1399407271657404874	1532	1471	1514	1429
1399407271662477867	1535	1471	1514	1430
1399407271682488573	1528	1471	1514	1429
1399407271687269431	1529	1471	1514	1429
1399407271697332348	1529	1471	1514	1428
1399407271712364424	1531	1474	1514	1430
1399407271717265050	1530	1472	1514	1428
1399407271732420190	1528	1466	1514	1429
1399407271737231552	1529	1465	1514	1429
1399407271747384000	1530	1468	1514	1429
1399407271762502990	1528	1464	1514	1429
1399407271767246078	1529	1465	1514	1430
1399407271777388118	1521	1456	1514	1427
1399407271782399166	1520	1457	1514	1430
1399407271787319035	1522	1456	1514	1428
1399407271797303224	1519	1456	1514	1429
1399407271812359432	1521	1457	1514	1430
1399407271817308795	1520	1454	1514	1428
1399407271827341447	1518	1444	1514	1428
1399407271832383990	1518	1443	1514	1427
1399407271837131003	1516	1443	1514	1428
1399407271847294672	1520	1442	1514	1428
1399407271857383700	1518	1443	1514	1428
1399407271867331772	1519	1441	1514	1428
1399407271872276051	1517	1440	1514	1427
1399407271882140936	1508	1428	1514	1427
1399407271897241588	1509	1430	1514	1427
1399407271912439460	1510	1428	1514	1427
1399407271922131644	1511	1425	1514	1426
1399407271937349517	1508	1415	1514	1428
1399407271947458328	1509	1413	1514	1427
1399407271962389248	1509	1410	1514	1426
1399407271982334672	1513	1407	1514	1426
1399407271997418385	1512	1404	1514	1426
1399407272012391073	1513	1403	1514	1426
1399407272017294471	1514	1402	1514	1426
1399407272032379245	1523	1407	1514	1426
1399407272037346351	1523	1404	1514	1426
1399407272052502502	1524	1405	1514	1425
1399407272057544660	1523	1402	1514	1426
1399407272062348735	1524	1404	1514	1426
1399407272072113398	1521	1401	1514	1425
1399407272082412461	1527	1410	1514	1426
1399407272087347456	1528	1408	1514	1424
1399407272102422225	1529	1408	1514	1426
1399407272112294943	1530	1408	1514	1425
1399407272117328515	1527	1408	1514	1426
1399407272132496463	1538	1427	1514	1426
1399407272142551660	1541	1427	1514	1426
1399407272147437240	1542	1424	1514	1424
1399407272162496349	1542	1425	1514	1425
1399407272182399141	1546	1441	1514	1425
1399407272197395872	1546	1438	1514	1424
1399407272207591671	1546	1441	1514	1425
1399407272217416021	1549	1442	1514	1425
1399407272232517880	1555	1453	1514	1424
1399407272247494885	1553	1455	1514	1425
1399407272262502524	1555	1455	1514	1424
1399407272272123370	1556	1456	1514	1424
1399407272282335461	1552	1463	1514	1424
1399407272297369207	1552	1463	1514	1424
1399407272312378154	1553	1464	1514	1424
1399407272322299446	1554	1462	1514	1423
1399407272342482098	1535	1458	1514	1423
1399407272347394148	1533	1456	1514	1423
1399407272357394693	1537	1460	1514	1424
1399407272362327512	1535	1458	1514	1423
1399407272372362409	1539	1459	1514	1423
1399407272387400482	1532	1459	1514	1423
1399407272397415448	1531	1459	1514	1424
1399407272412275259	1531	1459	1514	1425
1399407272417425234	1533	1456	1514	1423
1399407272432432465	1530	1442	1514	1424
1399407272447437929	1529	1444	1514	1425
1399407272462450642	1530	1442	1514	1424
1399407272467490672	1529	1444	1514	1426
1399407272482429413	1525	1431	1514	1425
1399407272497357958	1523	1432	1514	1426
1399407272512379000	1524	1430	1514	1426
1399407272517350911	1523	1433	1514	1427
1399407272532444242	1528	1401	1514	1426
1399407272547442819	1526	1403	1514	1427
1399407272562437823	1526	1403	1514	1427
1399407272567370288	1525	1401	1514	1427
1399407272572220181	1526	1402	1514	1428
1399407272582397124	1522	1397	1514	1427
1399407272597462613	1523	1400	1514	1429
1399407272607381798	1522	1397	1514	1430
1399407272612396307	1521	1398	1514	1429
1399407272622187259	1520	1395	1514	1428
1399407272632313032	1522	1399	1514	1430
1399407272637306570	1520	1399	1514	1430
1399407272647376467	1522	1399	1514	1432
1399407272662510889	1521	1397	1514	1430
1399407272672389958	1520	1398	1514	1431
1399407272682385995	1533	1409	1514	1430
1399407272687436762	1533	1411	1514	1432
1399407272697466640	1531	1410	1514	1430
1399407272712416630	1532	1410	1514	1431
1399407272722247844	1531	1408	1514	1433
1399407272737429541	1539	1432	1514	1431
1399407272747407862	1538	1432	1514	1433
1399407272762468044	1536	1432	1514	1431
1399407272767356686	1537	1435	1514	1434
1399407272782485029	1534	1440	1514	1432
1399407272787455008	1533	1443	1514	1434
1399407272797472061	1531	1440	1514	1432
1399407272812441747	1533	1441	1514	1434
1399407272817531249	1532	1444	1514	1432
1399407272822388339	1532	1442	1514	1434
1399407272832360812	1531	1457	1514	1432
1399407272837373578	1528	1456	1514	1434
1399407272847303214	1529	1458	1514	1434
1399407272862444834	1528	1457	1514	1433
1399407272867371633	1528	1457	1514	1435
1399407272872419137	1529	1457	1514	1433
1399407272882538222	1522	1460	1514	1435
1399407272897188887	1521	1459	1514	1434
1399407272907127434	1520	1459	1514	1434
1399407272917181167	1520	1459	1514	1433
1399407272932246397	1512	1452	1514	1434
1399407272942168280	1511	1454	1514	1434
1399407272947144816	1509	1452	1514	1433
1399407272962275650	1511	1455	1514	1434
1399407272982197722	1505	1422	1514	1433
1399407272992216580	1503	1421	1514	1433
1399407272997125547	1504	1425	1514	1434
1399407273007187364	1503	1423	1514	1433
1399407273012115495	1504	1424	1514	1435
1399407273032152725	1504	1415	1514	1434
1399407273047229362	1503	1415	1514	1433
1399407273062381384	1502	1417	1514	1434
1399407273067312878	1502	1415	1514	1432
1399407273072307816	1501	1415	1514	1434
1399407273082405176	1522	1417	1514	1433
1399407273097469834	1520	1417	1514	1434
1399407273112440888	1517	1414	1514	1432
1399407273117409868	1517	1417	1514	1435
1399407273122335799	1517	1416	1514	1433
1399407273132416440	1524	1412	1514	1434
1399407273137364788	1525	1414	1514	1433
1399407273152357761	1522	1413	1514	1433
1399407273162376893	1523	1414	1514	1433
1399407273172389760	1521	1415	1514	1435
1399407273182483374	1512	1438	1514	1432
1399407273187332143	1510	1438	1514	1433
1399407273202402003	1511	1440	1514	1433
1399407273207428640	1511	1439	1514	1433
1399407273212394729	1514	1443	1514	1434
1399407273232524025	1511	1448	1514	1433
1399407273247415203	1513	1448	1514	1433
1399407273262441180	1516	1448	1514	1432
1399407273267330442	1515	1448	1514	1432
1399407273277116819	1515	1455	1514	1433
1399407273282409941	1512	1457	1514	1432
1399407273297429012	1515	1456	1514	1432
1399407273322528597	1515	1456	1514	1432
1399407273332266138	1519	1450	1514	1431
1399407273337330835	1520	1452	1514	1431
1399407273347192527	1521	1450	1514	1431
1399407273357225244	1521	1452	1514	1431
1399407273367393192	1522	1451	1514	1430
1399407273372297374	1523	1452	1514	1432
1399407273382475330	1515	1438	1514	1429
1399407273397496641	1515	1438	1514	1430
1399407273412549675	1517	1436	1514	1430
1399407273422370005	1518	1436	1514	1429
1399407273432390072	1518	1427	1514	1431
1399407273447401043	1517	1427	1514	1430
1399407273462449510	1519	1428	1514	1430
1399407273467242722	1520	1427	1514	1430
1399407273482518451	1519	1419	1514	1430
1399407273497420085	1519	1419	1514	1430
1399407273512435954	1521	1420	1514	1430
1399407273517394383	1520	1420	1514	1430
1399407273527443293	1516	1429	1514	1430
1399407273537371741	1517	1429	1514	1430
1399407273547457775	1518	1428	1514	1429
1399407273557393386	1517	1429	1514	1430
1399407273567336991	1518	1428	1514	1429
1399407273572335588	1518	1428	1514	1429
1399407273582449988	1517	1436	1514	1429
1399407273587327910	1519	1436	1514	1429
1399407273602499550	1519	1437	1514	1429
1399407273612346911	1518	1437	1514	1429
1399407273632275886	1515	1442	1514	1429
1399407273637447183	1516	1443	1514	1429
1399407273652517504	1517	1442	1514	1428
1399407273662491874	1516	1443	1514	1429
1399407273682503474	1522	1451	1514	1428
1399407273697361730	1524	1449	1514	1428
1399407273707329121	1522	1449	1514	1428
1399407273712323391	1525	1448	1514	1428
1399407273732373758	1528	1445	1514	1428
1399407273747334891	1529	1445	1514	1428
1399407273752308414	1527	1445	1514	1428
1399407273757395613	1529	1444	1514	1428
1399407273767419664	1527	1446	1514	1428
1399407273772389703	1528	1444	1514	1429
1399407273782414864	1527	1446	1514	1429
1399407273787379810	1527	1443	1514	1428
1399407273797431961	1524	1427	1514	1429
1399407273812451968	1523	1425	1514	1428
1399407273822335495	1525	1426	1514	1427
1399407273832397611	1523	1420	1514	1428
1399407273837289648	1524	1422	1514	1428
1399407273852419952	1522	1418	1514	1427
1399407273857297957	1524	1421	1514	1429
1399407273867364975	1524	1419	1514	1427
1399407273872348596	1524	1419	1514	1429
1399407273887404525	1525	1416	1514	1428
1399407273897191978	1524	1413	1514	1428
1399407273912342502	1522	1412	1514	1427
1399407273917368113	1522	1413	1514	1429
1399407273927345598	1524	1420	1514	1427
1399407273932346223	1524	1420	1514	1430
1399407273947392830	1525	1420	1514	1429
1399407273967459755	1524	1420	1514	1429
1399407273982360666	1523	1419	1514	1429
1399407273997371751	1524	1430	1514	1429
1399407274012336440	1523	1429	1514	1430
1399407274032382695	1522	1438	1514	1430
1399407274047381432	1521	1437	1514	1429
1399407274057357776	1522	1437	1514	1429
1399407274067337995	1521	1436	1514	1430
1399407274072501767	1523	1437	1514	1429
1399407274087409920	1519	1441	1514	1430
1399407274097395374	1520	1442	1514	1430
1399407274107425129	1519	1442	1514	1431
1399407274122389710	1519	1442	1514	1429
1399407274132370848	1519	1433	1514	1431
1399407274147459130	1519	1433	1514	1431
1399407274162458155	1519	1432	1514	1431
1399407274182237743	1519	1430	1514	1431
1399407274197459964	1519	1431	1514	1432
1399407274212465220	1518	1431	1514	1432
1399407274222448200	1518	1430	1514	1432
1399407274232276689	1521	1418	1514	1432
1399407274237371737	1520	1416	1514	1432
1399407274247316475	1520	1419	1514	1432
1399407274257362187	1519	1417	1514	1432
1399407274262289009	1519	1418	1514	1432
1399407274282399512	1519	1411	1514	1432
1399407274307424078	1519	1412	1514	1433
1399407274312334611	1518	1412	1514	1433
1399407274332406589	1519	1411	1514	1433
1399407274337352098	1522	1411	1514	1433
1399407274347406606	1520	1410	1514	1434
1399407274357337330	1521	1411	1514	1433
1399407274362390572	1519	1410	1514	1433
1399407274382408122	1524	1422	1514	1433
1399407274397305829	1524	1421	1514	1433
1399407274407250907	1522	1420	1514	1433
1399407274417399023	1523	1422	1514	1433
1399407274432438742	1526	1425	1514	1434
1399407274437249900	1527	1426	1514	1433
1399407274452376399	1527	1425	1514	1434
1399407274457347015	1528	1427	1514	1433
1399407274467303854	1527	1424	1514	1434
1399407274472344631	1528	1426	1514	1433
1399407274482396966	1528	1430	1514	1433
1399407274497391347	1529	1432	1514	1433
1399407274512375663	1530	1432	1514	1434
1399407274517333295	1530	1433	1514	1433
1399407274522313499	1530	1431	1514	1433
1399407274532393213	1529	1436	1514	1434
1399407274547463088	1529	1435	1514	1434
1399407274557480509	1530	1434	1514	1432
1399407274562367574	1530	1434	1514	1435
1399407274572424663	1530	1435	1514	1433
1399407274582458284	1526	1430	1514	1434
1399407274587420075	1526	1432	1514	1434
1399407274597423479	1526	1429	1514	1433
1399407274612471687	1527	1430	1514	1434
1399407274617360588	1527	1430	1514	1433
1399407274632316588	1525	1426	1514	1434
1399407274647443934	1525	1426	1514	1434
1399407274662465061	1525	1426	1514	1434
1399407274672401602	1527	1426	1514	1432
1399407274682384684	1521	1423	1514	1434
1399407274697476763	1522	1422	1514	1433
1399407274712415586	1522	1422	1514	1433
1399407274717326746	1521	1421	1514	1433
1399407274742442484	1522	1420	1514	1433
1399407274747396984	1523	1420	1514	1432
1399407274757367754	1520	1420	1514	1433
1399407274767434522	1523	1420	1514	1433
1399407274772398859	1523	1419	1514	1432
1399407274782141629	1521	1411	1514	1433
1399407274792187430	1522	1412	1514	1432
1399407274797123872	1519	1412	1514	1432
1399407274807350881	1522	1412	1514	1432
1399407274817351462	1520	1412	1514	1432
1399407274822332451	1523	1412	1514	1433
1399407274832293366	1524	1412	1514	1432
1399407274837335124	1524	1410	1514	1432
1399407274847330065	1524	1411	1514	1432
1399407274857364072	1522	1411	1514	1431
1399407274867406707	1524	1411	1514	1432
1399407274882392828	1528	1417	1514	1431
1399407274897423854	1528	1418	1514	1431
1399407274907349233	1529	1419	1514	1431
1399407274917394386	1527	1418	1514	1430
1399407274932392760	1532	1421	1514	1430
1399407274947412778	1531	1422	1514	1431
1399407274977341443	1535	1428	1514	1429
1399407274982251431	1536	1427	1514	1430
1399407274987364084	1535	1431	1514	1429
1399407274997409533	1535	1428	1514	1430
1399407275007302938	1536	1430	1514	1430
1399407275012354809	1534	1430	1514	1429
1399407275032399388	1538	1436	1514	1429
1399407275037292029	1539	1436	1514	1430
1399407275057440526	1539	1437	1514	1428
1399407275062328567	1539	1438	1514	1428
1399407275082229971	1534	1438	1514	1429
1399407275087344317	1535	1438	1514	1427
1399407275102447061	1535	1438	1514	1429
1399407275112468522	1538	1440	1514	1427
1399407275117379221	1535	1439	1514	1428
1399407275132483161	1531	1432	1514	1428
1399407275147436879	1533	1432	1514	1428
1399407275162365597	1533	1433	1514	1428
1399407275182376741	1535	1430	1514	1428
1399407275197342704	1535	1431	1514	1427
1399407275212472170	1536	1433	1514	1428
1399407275217388397	1535	1430	1514	1427
1399407275227546017	1538	1428	1514	1428
1399407275232362504	1534	1427	1514	1427
1399407275237352074	1536	1425	1514	1428
1399407275252386644	1536	1426	1514	1426
1399407275257420599	1537	1425	1514	1427
1399407275267468608	1535	1428	1514	1428
1399407275272379085	1534	1425	1514	1427
1399407275292367970	1532	1422	1514	1427
1399407275297460715	1532	1421	1514	1428
1399407275312353113	1531	1423	1514	1428
1399407275322351001	1532	1424	1514	1428
1399407275332472827	1525	1420	1514	1427
1399407275347523456	1524	1422	1514	1428
1399407275357354031	1523	1420	1514	1429
1399407275362231135	1524	1422	1514	1427
1399407275382192546	1519	1416	1514	1428
1399407275387084147	1518	1415	1514	1427
1399407275397305125	1519	1417	1514	1429
1399407275412388363	1518	1416	1514	1427
1399407275417401780	1518	1416	1514	1429
1399407275427331239	1523	1422	1514	1428
1399407275432348488	1522	1420	1514	1428
1399407275437412406	1522	1422	1514	1428
1399407275447376447	1523	1420	1514	1428
1399407275462409906	1523	1421	1514	1429
1399407275467427711	1522	1420	1514	1429
1399407275482431292	1524	1419	1514	1429
1399407275497409579	1523	1419	1514	1430
1399407275512382064	1524	1418	1514	1430
1399407275522368241	1524	1417	1514	1429
1399407275532356360	1529	1419	1514	1431
1399407275537360570	1528	1419	1514	1430
1399407275547402407	1528	1419	1514	1431
1399407275557294601	1528	1420	1514	1430
1399407275567241313	1529	1418	1514	1431
1399407275572329828	1529	1420	1514	1431
1399407275582389233	1533	1418	1514	1431
1399407275597334268	1532	1419	1514	1431
1399407275617320008	1532	1418	1514	1431
1399407275622256427	1532	1417	1514	1432
1399407275632357856	1532	1424	1514	1432
1399407275647158064	1531	1422	1514	1432
1399407275667379959	1531	1422	1514	1432
1399407275682363780	1529	1423	1514	1432
1399407275697407701	1529	1425	1514	1433
1399407275702359817	1528	1423	1514	1433
1399407275707444745	1529	1424	1514	1434
1399407275712270450	1528	1424	1514	1432
1399407275722271948	1529	1424	1514	1435
1399407275732369689	1533	1427	1514	1433
1399407275737347362	1535	1426	1514	1434
1399407275752362275	1535	1429	1514	1434
1399407275762376645	1535	1428	1514	1434
1399407275782451974	1534	1429	1514	1434
1399407275787273958	1534	1431	1514	1433
1399407275797414295	1535	1431	1514	1434
1399407275807408638	1534	1432	1514	1433
1399407275812353912	1534	1431	1514	1433
1399407275832436436	1536	1434	1514	1434
1399407275847458874	1537	1435	1514	1434
1399407275862506647	1538	1433	1514	1434
1399407275867384736	1538	1435	1514	1433
1399407275882433097	1535	1441	1514	1433
1399407275897453260	1534	1441	1514	1433
1399407275907387010	1535	1442	1514	1431
1399407275912316164	1533	1441	1514	1433
1399407275932362458	1529	1443	1514	1432
1399407275947409471	1528	1444	1514	1432
1399407275957411353	1527	1445	1514	1433
1399407275967382764	1526	1445	1514	1432
1399407275972413028	1525	1445	1514	1433
1399407275982387885	1517	1447	1514	1432
1399407275992548472	1516	1446	1514	1432
1399407275997404137	1517	1448	1514	1432
1399407276007421192	1514	1447	1514	1432
1399407276012411775	1512	1447	1514	1433
1399407276022342086	1514	1447	1514	1432
1399407276032385924	1505	1444	1514	1433
1399407276037296013	1506	1444	1514	1432
1399407276047352710	1505	1445	1514	1433
1399407276067545908	1504	1445	1514	1432
1399407276082555789	1501	1439	1514	1432
1399407276087468461	1500	1438	1514	1432
1399407276102516255	1499	1437	1514	1431
1399407276112522062	1501	1439	1514	1433
1399407276117390376	1498	1440	1514	1432
1399407276132454765	1499	1431	1514	1433
1399407276147425846	1497	1430	1514	1433
1399407276162449035	1494	1431	1514	1432
1399407276167444249	1496	1430	1514	1433
1399407276182450258	1501	1425	1514	1432
1399407276197200601	1499	1425	1514	1433
1399407276207418726	1499	1426	1514	1434
1399407276212341895	1496	1426	1514	1432
1399407276227393706	1502	1420	1514	1434
1399407276232132474	1502	1421	1514	1432
1399407276247429445	1500	1420	1514	1434
1399407276257526258	1498	1419	1514	1433
1399407276262309804	1500	1418	1514	1435
1399407276272409223	1501	1420	1514	1433
1399407276282370309	1505	1415	1514	1434
1399407276287378128	1504	1418	1514	1434
1399407276297106655	1502	1415	1514	1434
1399407276312397602	1505	1414	1514	1434
1399407276322424398	1506	1415	1514	1435
1399407276332439493	1517	1419	1514	1434
1399407276337342003	1513	1416	1514	1435
1399407276347417403	1513	1415	1514	1434
1399407276362357155	1515	1415	1514	1434
1399407276367355589	1515	1415	1514	1436
1399407276382410161	1520	1407	1514	1435
1399407276397261371	1521	1406	1514	1435
1399407276412404574	1522	1406	1514	1435
1399407276422434842	1518	1406	1514	1436
1399407276437403541	1521	1411	1514	1436
1399407276447251754	1524	1409	1514	1436
1399407276457426952	1524	1413	1514	1435
1399407276472389751	1524	1411	1514	1436
1399407276487444245	1533	1425	1514	1436
1399407276497308877	1534	1428	1514	1436
1399407276507335467	1533	1424	1514	1436
1399407276512566515	1534	1428	1514	1436
1399407276522418532	1533	1426	1514	1436
1399407276532490534	1532	1431	1514	1437
1399407276547325763	1533	1432	1514	1436
1399407276557393260	1535	1433	1514	1436
1399407276562320534	1531	1431	1514	1436
1399407276572442301	1533	1432	1514	1436
1399407276582404685	1536	1440	1514	1435
1399407276597417026	1537	1440	1514	1436
1399407276612305861	1536	1440	1514	1436
1399407276632497715	1537	1445	1514	1436
1399407276642357907	1539	1446	1514	1435
1399407276647228675	1537	1446	1514	1436
1399407276657376065	1538	1445	1514	1435
1399407276662358021	1538	1447	1514	1435
1399407276672410526	1538	1446	1514	1435
1399407276692147753	1536	1450	1514	1435
1399407276697293287	1536	1451	1514	1435
1399407276707343271	1536	1452	1514	1435
1399407276717395500	1535	1451	1514	1435
1399407276722297124	1537	1452	1514	1434
1399407276737371250	1531	1455	1514	1435
1399407276747420960	1533	1455	1514	1434
1399407276762388873	1531	1455	1514	1435
1399407276772189638	1532	1456	1514	1435
1399407276782474812	1529	1454	1514	1434
1399407276787380289	1528	1457	1514	1435
1399407276797322789	1529	1455	1514	1434
1399407276807343469	1528	1456	1514	1435
1399407276812351016	1528	1454	1514	1434
1399407276832445961	1513	1451	1514	1435
1399407276837326759	1513	1450	1514	1434
1399407276847387867	1515	1451	1514	1435
1399407276867410725	1514	1450	1514	1434
1399407276882356735	1503	1440	1514	1434
1399407276897396344	1504	1439	1514	1434
1399407276907387117	1504	1440	1514	1434
1399407276927429145	1501	1427	1514	1433
1399407276932285097	1502	1426	1514	1433
1399407276937270712	1500	1425	1514	1434
1399407276947502022	1502	1426	1514	1434
1399407276957310940	1501	1424	1514	1433
1399407276972488435	1502	1426	1514	1434
1399407276982197474	1503	1417	1514	1433
1399407276997391286	1503	1416	1514	1433
1399407277007298368	1505	1416	1514	1434
1399407277012456759	1503	1414	1514	1433
1399407277022472070	1504	1415	1514	1433
1399407277032414042	1515	1393	1514	1432
1399407277037295764	1516	1394	1514	1434
1399407277047409282	1517	1393	1514	1433
1399407277067505094	1516	1392	1514	1434
1399407277072301638	1515	1390	1514	1433
1399407277082189987	1517	1391	1514	1434
1399407277097364888	1517	1389	1514	1433
1399407277107233526	1519	1389	1514	1432
1399407277112309266	1519	1387	1514	1433
1399407277132470225	1523	1393	1514	1432
1399407277147374328	1524	1392	1514	1432
1399407277162448238	1525	1392	1514	1433
1399407277167271157	1526	1390	1514	1431
1399407277172351228	1527	1390	1514	1433
1399407277182359037	1534	1398	1514	1432
1399407277187435893	1534	1395	1514	1433
1399407277207397722	1535	1396	1514	1432
1399407277212276902	1536	1396	1514	1433
1399407277232440730	1548	1409	1514	1432
1399407277252409032	1549	1409	1514	1431
1399407277267386355	1551	1411	1514	1431
1399407277282470767	1560	1426	1514	1431
1399407277297379559	1560	1428	1514	1431
1399407277312440527	1565	1427	1514	1431
1399407277332486610	1563	1445	1514	1431
1399407277337458292	1564	1443	1514	1430
1399407277347223810	1564	1445	1514	1431
1399407277367426730	1566	1447	1514	1431
1399407277382521854	1563	1454	1514	1431
1399407277397187779	1567	1454	1514	1430
1399407277412198777	1566	1459	1514	1433
1399407277417182300	1567	1456	1514	1430
1399407277432148814	1558	1464	1514	1431
1399407277437149764	1560	1465	1514	1433
1399407277452177545	1560	1466	1514	1431
1399407277457100437	1561	1464	1514	1432
1399407277467188710	1563	1469	1514	1432
1399407277472138026	1562	1464	1514	1431
1399407277487187913	1553	1459	1514	1432
1399407277507179572	1555	1461	1514	1434
1399407277512124303	1554	1460	1514	1432
1399407277522174233	1554	1460	1514	1431
1399407277532125870	1540	1443	1514	1433
1399407277547335808	1540	1443	1514	1433
1399407277562332301	1539	1443	1514	1433
1399407277572443877	1539	1443	1514	1434
1399407277582446549	1518	1423	1514	1434
1399407277587426279	1518	1419	1514	1434
1399407277597414546	1519	1421	1514	1434
1399407277617266203	1517	1421	1514	1435
1399407277632393170	1505	1397	1514	1434
1399407277647419469	1505	1398	1514	1435
1399407277662392459	1506	1397	1514	1436
1399407277667428917	1502	1396	1514	1435
1399407277677408954	1509	1373	1514	1436
1399407277682385360	1506	1372	1514	1435
1399407277687443999	1508	1373	1514	1437
1399407277697388408	1507	1373	1514	1436
1399407277707409685	1507	1373	1514	1437
1399407277717171728	1507	1373	1514	1437
1399407277722408230	1504	1370	1514	1437
1399407277737484093	1508	1374	1514	1437
1399407277747399440	1507	1374	1514	1438
1399407277757423341	1506	1373	1514	1436
1399407277762329734	1506	1372	1514	1438
1399407277772430288	1507	1375	1514	1437
1399407277782354239	1517	1383	1514	1438
1399407277797391690	1516	1384	1514	1438
1399407277812516410	1517	1384	1514	1438
1399407277822777002	1515	1383	1514	1439
1399407277832431342	1525	1400	1514	1438
1399407277847409325	1524	1399	1514	1439
1399407277862401800	1524	1398	1514	1438
1399407277867326562	1523	1399	1514	1440
1399407277882445967	1556	1456	1514	1439
1399407277887376352	1554	1457	1514	1439
1399407277897389005	1555	1456	1514	1439
1399407277912505998	1555	1457	1514	1439
1399407277917408834	1554	1459	1514	1439
1399407277922368720	1554	1457	1514	1439
1399407277932427440	1553	1475	1514	1439
1399407277937369783	1552	1474	1514	1440
1399407277947318519	1552	1475	1514	1440
1399407277957467407	1553	1477	1514	1439
1399407277962438136	1552	1477	1514	1440
1399407277972374686	1552	1479	1514	1439
1399407277982454402	1551	1490	1514	1440
1399407277987372724	1552	1491	1514	1440
1399407277997469816	1551	1491	1514	1439
1399407278007403404	1550	1492	1514	1440
1399407278022341583	1549	1494	1514	1439
1399407278032460305	1540	1483	1514	1440
1399407278047439951	1539	1482	1514	1440
1399407278057403288	1538	1483	1514	1440
1399407278067448898	1535	1485	1514	1441
1399407278082437816	1509	1435	1514	1440
1399407278087360000	1505	1436	1514	1440
1399407278097412511	1507	1436	1514	1440
1399407278117439758	1506	1437	1514	1440
1399407278132510182	1496	1415	1514	1441
1399407278157381528	1492	1415	1514	1440
1399407278162403686	1490	1414	1514	1441
1399407278172194040	1491	1415	1514	1442
1399407278187408443	1489	1384	1514	1441
1399407278197476022	1487	1383	1514	1440
1399407278207608573	1485	1381	1514	1441
1399407278217418435	1486	1382	1514	1442
1399407278222419456	1483	1383	1514	1440
1399407278232209920	1492	1369	1514	1442
1399407278237417132	1491	1371	1514	1441
1399407278247392201	1491	1367	1514	1441
1399407278257384432	1489	1368	1514	1441
1399407278262246338	1486	1368	1514	1441
1399407278282358021	1499	1384	1514	1441
1399407278287371077	1501	1382	1514	1441
1399407278302205186	1499	1383	1514	1441
1399407278312377321	1497	1384	1514	1442
1399407278317352640	1498	1383	1514	1442
1399407278332470048	1518	1422	1514	1441
1399407278347541598	1517	1421	1514	1441
1399407278362415456	1517	1423	1514	1442
1399407278367388185	1516	1421	1514	1441
1399407278377464246	1529	1435	1514	1441
1399407278387350492	1528	1436	1514	1442
1399407278397449609	1530	1437	1514	1441
1399407278407397931	1528	1438	1514	1442
1399407278417445270	1530	1437	1514	1441
1399407278422409554	1526	1437	1514	1441
1399407278432434082	1539	1479	1514	1442
1399407278442432896	1540	1480	1514	1442
1399407278447438144	1541	1482	1514	1442
1399407278457391208	1542	1484	1514	1443
1399407278467869790	1540	1483	1514	1442
1399407278482428849	1534	1482	1514	1442
1399407278497353363	1536	1485	1514	1442
1399407278507449077	1536	1486	1514	1441
1399407278512359404	1537	1485	1514	1442
1399407278522439961	1538	1486	1514	1442
1399407278532525006	1526	1470	1514	1442
1399407278547489211	1528	1472	1514	1442
1399407278562539732	1530	1472	1514	1442
1399407278582527035	1528	1463	1514	1442
1399407278597409925	1528	1462	1514	1442
1399407278612373933	1530	1463	1514	1442
1399407278617293417	1530	1463	1514	1443
1399407278622380699	1534	1463	1514	1442
1399407278632472443	1508	1407	1514	1443
1399407278637404829	1510	1407	1514	1442
1399407278647440727	1507	1406	1514	1442
1399407278657443566	1509	1405	1514	1443
1399407278662376090	1512	1405	1514	1442
1399407278682494565	1507	1389	1514	1443
1399407278687306877	1505	1388	1514	1443
1399407278697436002	1507	1387	1514	1443
1399407278707457361	1508	1387	1514	1442
1399407278722388370	1509	1387	1514	1443
1399407278732507237	1510	1388	1514	1443
1399407278737454311	1510	1388	1514	1443
1399407278747442000	1511	1386	1514	1442
1399407278757415183	1513	1389	1514	1444
1399407278767431976	1513	1390	1514	1442
1399407278782503404	1514	1391	1514	1443
1399407278787406090	1517	1391	1514	1443
1399407278802409699	1517	1391	1514	1443
1399407278807446110	1516	1391	1514	1443
1399407278817444586	1518	1391	1514	1443
1399407278832182012	1538	1456	1514	1443
1399407278847162098	1539	1455	1514	1443
1399407278862179225	1540	1455	1514	1443
1399407278867155599	1539	1454	1514	1442
1399407278882179295	1543	1472	1514	1443
1399407278897222288	1545	1471	1514	1442
1399407278907223793	1545	1470	1514	1441
1399407278917131578	1546	1471	1514	1443
1399407278922142739	1546	1472	1514	1441
1399407278932126790	1544	1439	1514	1442
1399407278937173453	1544	1441	1514	1442
1399407278947165596	1545	1439	1514	1442
1399407278957195528	1547	1442	1514	1443
1399407278967222604	1545	1439	1514	1441
1399407278972158284	1547	1438	1514	1442
1399407278982197276	1548	1440	1514	1440
1399407278987149653	1550	1438	1514	1441
1399407278997176142	1552	1443	1514	1442
1399407279012157544	1552	1439	1514	1441
1399407279017092425	1554	1438	1514	1441
1399407279032176566	1552	1427	1514	1441
1399407279047189965	1552	1426	1514	1441
1399407279062221671	1553	1426	1514	1440
1399407279067110510	1554	1423	1514	1440
1399407279082157491	1548	1397	1514	1440
1399407279097196205	1547	1397	1514	1440
1399407279112145434	1548	1395	1514	1440
1399407279117155565	1548	1399	1514	1440
1399407279142177322	1542	1392	1514	1440
1399407279147153955	1543	1391	1514	1441
1399407279157194219	1540	1392	1514	1439
1399407279167133831	1543	1391	1514	1439
1399407279182215803	1545	1422	1514	1439
1399407279187235700	1543	1419	1514	1439
1399407279197158843	1543	1419	1514	1438
1399407279207223382	1544	1420	1514	1440
1399407279212140446	1544	1417	1514	1438
1399407279222170299	1543	1416	1514	1438
1399407279237167906	1537	1426	1514	1439
1399407279247166986	1538	1423	1514	1438
1399407279257174821	1536	1424	1514	1437
1399407279267111246	1535	1424	1514	1438
1399407279282163591	1540	1434	1514	1437
1399407279297190800	1541	1435	1514	1437
1399407279312343906	1540	1435	1514	1438
1399407279317283342	1538	1437	1514	1438
1399407279332406752	1541	1441	1514	1437
1399407279347386559	1541	1442	1514	1437
1399407279357408211	1541	1441	1514	1436
1399407279362401470	1540	1442	1514	1437
1399407279382388811	1543	1437	1514	1436
1399407279397223849	1544	1436	1514	1435
1399407279407399971	1543	1437	1514	1435
1399407279417397678	1544	1438	1514	1436
1399407279422438233	1542	1437	1514	1434
1399407279432306765	1542	1439	1514	1436
1399407279437386326	1541	1439	1514	1434
1399407279447380859	1542	1437	1514	1435
1399407279457431914	1541	1438	1514	1434
1399407279462374447	1540	1436	1514	1434
1399407279482125391	1549	1422	1514	1434
1399407279487227007	1549	1423	1514	1435
1399407279502228674	1549	1423	1514	1434
1399407279512153058	1549	1422	1514	1434
1399407279532158181	1552	1412	1514	1434
1399407279547179171	1552	1412	1514	1433
1399407279562189053	1551	1411	1514	1433
1399407279567102858	1552	1412	1514	1434
1399407279582170062	1555	1403	1514	1433
1399407279597208221	1556	1403	1514	1433
1399407279607141957	1556	1403	1514	1433
1399407279612123510	1554	1401	1514	1434
1399407279622193845	1556	1403	1514	1434
1399407279632499953	1557	1398	1514	1433
1399407279637322749	1558	1400	1514	1434
1399407279647327132	1558	1398	1514	1433
1399407279657463308	1559	1399	1514	1434
1399407279667421572	1558	1399	1514	1433
1399407279672256671	1560	1397	1514	1434
1399407279682207055	1560	1389	1514	1434
1399407279697124803	1560	1389	1514	1434
1399407279712262099	1560	1387	1514	1434
1399407279727385395	1560	1387	1514	1433
1399407279732182121	1556	1394	1514	1435
1399407279737381708	1556	1395	1514	1434
1399407279747036484	1557	1394	1514	1434
1399407279762294447	1557	1394	1514	1434
1399407279772460386	1555	1392	1514	1434
1399407279782262678	1544	1418	1514	1434
1399407279787368926	1543	1416	1514	1434
1399407279797406583	1544	1418	1514	1435
1399407279817542180	1543	1418	1514	1435
1399407279832473033	1537	1423	1514	1435
1399407279847466027	1536	1424	1514	1435
1399407279857355609	1536	1425	1514	1435
1399407279867096093	1535	1424	1514	1435
1399407279872260818	1536	1425	1514	1436
1399407279882315377	1524	1440	1514	1435
1399407279887331399	1526	1440	1514	1435
1399407279897381085	1524	1441	1514	1435
1399407279907267151	1524	1441	1514	1435
1399407279917503922	1524	1441	1514	1435
1399407279922192278	1522	1441	1514	1435
1399407279932405045	1516	1449	1514	1435
1399407279937378317	1514	1450	1514	1435
1399407279947339630	1516	1452	1514	1435
1399407279957492031	1514	1452	1514	1435
1399407279972504839	1513	1453	1514	1435
1399407279982445232	1513	1454	1514	1435
1399407279997317374	1513	1455	1514	1435
1399407280012382117	1511	1456	1514	1435
1399407280022262645	1510	1457	1514	1435
1399407280037425986	1515	1444	1514	1436
1399407280047305596	1514	1444	1514	1435
1399407280062417442	1511	1446	1514	1435
1399407280082335964	1511	1440	1514	1436
1399407280097457939	1511	1440	1514	1436
1399407280127259945	1509	1440	1514	1436
1399407280132448409	1520	1418	1514	1437
1399407280137382848	1519	1416	1514	1436
1399407280147349889	1521	1416	1514	1437
1399407280157414042	1519	1416	1514	1437
1399407280162372773	1519	1416	1514	1437
1399407280172392235	1519	1415	1514	1437
1399407280182365690	1523	1405	1514	1436
1399407280187346668	1526	1405	1514	1438
1399407280202373900	1525	1404	1514	1436
1399407280212420227	1526	1404	1514	1437
1399407280232403095	1546	1382	1514	1438
1399407280247438373	1547	1381	1514	1438
1399407280257429884	1548	1379	1514	1438
1399407280267366877	1548	1381	1514	1438
1399407280282404761	1555	1374	1514	1438
