#Time	 Roll 	 Pitch 	 Yaw 	 Thrust
1399411404399743439	1512	1497	1514	1378
1399411404414595948	1511	1497	1514	1378
1399411404429549836	1511	1497	1514	1378
1399411404454740437	1511	1497	1514	1378
1399411404479664364	1511	1498	1514	1378
1399411404499723581	1511	1497	1514	1378
1399411404514757076	1511	1497	1514	1378
1399411404534706423	1511	1498	1514	1379
1399411404549467487	1512	1498	1514	1379
1399411404564506927	1513	1498	1514	1378
1399411404579612165	1513	1498	1514	1378
1399411404599416217	1513	1498	1514	1378
1399411404614462885	1513	1498	1514	1378
1399411404629440800	1512	1497	1514	1378
1399411404649461074	1512	1498	1514	1378
1399411404664451931	1513	1499	1514	1378
1399411404689563398	1513	1499	1514	1378
1399411404704410577	1513	1499	1514	1378
1399411404724521922	1513	1500	1514	1378
1399411404754468512	1513	1497	1514	1378
1399411404774513085	1512	1497	1514	1377
1399411404804460914	1512	1497	1514	1377
1399411404839528647	1512	1497	1514	1378
1399411404854552648	1511	1496	1514	1377
1399411404874510980	1511	1495	1514	1378
1399411404889431892	1512	1496	1514	1434
1399411404904470007	1512	1495	1514	1426
1399411404939481888	1512	1495	1514	1427
1399411404974463937	1512	1496	1514	1427
1399411404999502420	1512	1495	1514	1427
1399411405024486678	1512	1494	1514	1427
1399411405039442529	1512	1494	1514	1427
1399411405054749774	1513	1495	1514	1427
1399411405074753816	1513	1495	1514	1427
1399411405089680367	1513	1495	1514	1427
1399411405104604114	1513	1495	1514	1427
1399411405124745294	1512	1494	1514	1427
1399411405139703522	1511	1493	1514	1427
1399411405164773219	1512	1486	1514	1426
1399411405189670435	1510	1484	1514	1425
1399411405214764586	1507	1478	1514	1424
1399411405229514303	1506	1478	1514	1423
1399411405254695083	1506	1476	1514	1422
1399411405274712902	1502	1467	1514	1420
1399411405304669640	1500	1467	1514	1419
1399411405324679684	1497	1464	1514	1419
1399411405339444194	1498	1461	1514	1417
1399411405354671675	1496	1460	1514	1416
1399411405379712008	1497	1459	1514	1415
1399411405399641112	1497	1456	1514	1414
1399411405414698396	1498	1459	1514	1414
1399411405429704458	1497	1458	1514	1413
1399411405449717850	1497	1456	1514	1412
1399411405464642378	1501	1461	1514	1411
1399411405479552773	1501	1459	1514	1411
1399411405499740175	1500	1458	1514	1410
1399411405514720150	1505	1478	1514	1410
1399411405529473925	1505	1475	1514	1408
1399411405549647930	1503	1476	1514	1409
1399411405564466535	1508	1478	1514	1408
1399411405579654595	1510	1480	1514	1409
1399411405599516677	1512	1477	1514	1407
1399411405614587512	1511	1477	1514	1407
1399411405629693912	1511	1478	1514	1406
1399411405649585984	1510	1474	1514	1405
1399411405674694144	1503	1471	1514	1405
1399411405689648335	1502	1471	1514	1405
1399411405704667132	1502	1468	1514	1404
1399411405724570373	1494	1456	1514	1406
1399411405739706801	1493	1452	1514	1404
1399411405754779885	1495	1455	1514	1406
1399411405774601415	1491	1445	1514	1405
1399411405789594347	1490	1441	1514	1404
1399411405804647031	1490	1444	1514	1405
1399411405824596588	1491	1439	1514	1404
1399411405839778157	1491	1437	1514	1405
1399411405854740309	1489	1439	1514	1405
1399411405874747140	1494	1442	1514	1404
1399411405889719602	1494	1441	1514	1405
1399411405914654427	1498	1446	1514	1405
1399411405929609990	1496	1449	1514	1407
1399411405949674681	1496	1444	1514	1405
1399411405969723834	1503	1452	1514	1405
1399411405989643601	1503	1453	1514	1407
1399411406024649179	1508	1466	1514	1407
1399411406059806729	1508	1466	1514	1408
1399411406074696010	1510	1464	1514	1408
1399411406089729925	1509	1467	1514	1409
1399411406114787053	1508	1470	1514	1410
1399411406139729284	1508	1470	1514	1410
1399411406154731629	1509	1471	1514	1410
1399411406174658148	1502	1465	1514	1411
1399411406204686050	1505	1466	1514	1411
1399411406239691666	1504	1468	1514	1412
1399411406274666375	1497	1456	1514	1413
1399411406289616390	1498	1455	1514	1413
1399411406304667544	1498	1456	1514	1414
1399411406324663996	1494	1452	1514	1415
1399411406344514217	1495	1452	1514	1414
1399411406354330279	1496	1452	1514	1415
1399411406379435127	1495	1445	1514	1416
1399411406399427655	1495	1445	1514	1416
1399411406414457491	1498	1443	1514	1416
1399411406429435475	1499	1445	1514	1417
1399411406449467672	1499	1446	1514	1417
1399411406464413199	1500	1445	1514	1418
1399411406479634576	1501	1445	1514	1419
1399411406499688002	1502	1446	1514	1419
1399411406514694277	1502	1451	1514	1419
1399411406529707803	1502	1451	1514	1419
1399411406549625639	1503	1453	1514	1419
1399411406564676187	1507	1459	1514	1419
1399411406579683985	1506	1461	1514	1420
1399411406599722507	1506	1463	1514	1421
1399411406614700986	1507	1466	1514	1422
1399411406639675968	1507	1468	1514	1421
1399411406664701789	1508	1470	1514	1422
1399411406679429188	1515	1483	1514	1422
1399411406704623230	1516	1484	1514	1422
1399411406739732287	1516	1491	1514	1422
1399411406754472181	1516	1492	1514	1422
1399411406774708163	1509	1491	1514	1421
1399411406789723731	1509	1492	1514	1422
1399411406804683811	1510	1494	1514	1423
1399411406824757300	1509	1483	1514	1422
1399411406839716072	1510	1483	1514	1422
1399411406859704642	1509	1480	1514	1421
1399411406874705563	1509	1481	1514	1423
1399411406904689110	1509	1481	1514	1422
1399411406939773719	1508	1464	1514	1423
1399411406964696390	1507	1459	1514	1423
1399411406989662515	1507	1460	1514	1423
1399411407014685716	1507	1456	1514	1422
1399411407029690712	1507	1457	1514	1423
1399411407049608805	1507	1456	1514	1423
1399411407064641290	1506	1454	1514	1423
1399411407079672555	1506	1455	1514	1423
1399411407099616016	1505	1454	1514	1423
1399411407124758902	1509	1470	1514	1423
1399411407149750301	1509	1469	1514	1423
1399411407174679552	1509	1474	1514	1423
1399411407204668108	1509	1475	1514	1423
1399411407244687278	1509	1487	1514	1423
1399411407274725541	1512	1496	1514	1423
1399411407299668415	1511	1496	1514	1422
1399411407314643374	1513	1499	1514	1422
1399411407339710391	1514	1498	1514	1423
1399411407354597999	1513	1498	1514	1422
1399411407374748075	1518	1498	1514	1422
1399411407404686008	1518	1499	1514	1423
1399411407439642854	1516	1493	1514	1423
1399411407474704319	1514	1479	1514	1424
1399411407499718927	1514	1479	1514	1425
1399411407514786965	1515	1476	1514	1424
1399411407529666998	1515	1477	1514	1424
1399411407549684853	1514	1476	1514	1424
1399411407564687468	1510	1471	1514	1426
1399411407579703604	1511	1468	1514	1426
1399411407604555760	1512	1467	1514	1426
1399411407639440561	1512	1462	1514	1426
1399411407674493898	1509	1459	1514	1427
1399411407699452343	1510	1458	1514	1428
1399411407724661585	1509	1462	1514	1428
1399411407749440555	1509	1462	1514	1428
1399411407764691439	1510	1476	1514	1428
1399411407779616156	1510	1475	1514	1428
1399411407799680205	1510	1474	1514	1428
1399411407814761269	1509	1480	1514	1428
1399411407839757274	1508	1479	1514	1428
1399411407854558341	1509	1477	1514	1428
1399411407879682464	1510	1482	1514	1428
1399411407904785700	1509	1480	1514	1428
1399411407939741256	1510	1474	1514	1427
1399411407979668249	1506	1473	1514	1427
1399411407999748907	1506	1472	1514	1426
1399411408014641785	1505	1467	1514	1426
1399411408029711431	1504	1467	1514	1427
1399411408049695560	1504	1467	1514	1427
1399411408064692875	1508	1464	1514	1427
1399411408079735246	1508	1463	1514	1427
1399411408104707779	1507	1462	1514	1427
1399411408124618385	1507	1457	1514	1427
1399411408154641585	1507	1454	1514	1426
1399411408174722347	1505	1457	1514	1426
1399411408204714955	1503	1454	1514	1427
1399411408229690025	1503	1457	1514	1427
1399411408249686203	1502	1455	1514	1428
1399411408264685604	1504	1462	1514	1427
1399411408279645202	1503	1462	1514	1428
1399411408299668755	1502	1460	1514	1427
1399411408314722839	1503	1461	1514	1427
1399411408329695138	1505	1470	1514	1427
1399411408354691992	1505	1469	1514	1427
1399411408374639055	1507	1470	1514	1427
1399411408404704071	1505	1471	1514	1427
1399411408424661067	1505	1471	1514	1427
1399411408439660455	1503	1471	1514	1427
1399411408454687501	1505	1472	1514	1427
1399411408474610955	1508	1471	1514	1427
1399411408489712216	1508	1471	1514	1427
1399411408504527744	1506	1472	1514	1427
1399411408524681897	1511	1466	1514	1428
1399411408539506860	1512	1464	1514	1427
1399411408554636613	1512	1464	1514	1427
1399411408574684463	1511	1462	1514	1428
1399411408589629158	1511	1462	1514	1428
1399411408604724606	1510	1462	1514	1427
1399411408639432667	1506	1455	1514	1428
1399411408679672823	1505	1455	1514	1427
1399411408704712289	1506	1455	1514	1428
1399411408729689376	1503	1446	1514	1428
1399411408749693715	1503	1446	1514	1428
1399411408764647754	1501	1451	1514	1428
1399411408779614899	1500	1453	1514	1428
1399411408799768956	1501	1454	1514	1429
1399411408824635839	1499	1455	1514	1428
1399411408839437073	1500	1455	1514	1427
1399411408874712471	1493	1462	1514	1428
1399411408904708958	1493	1463	1514	1427
1399411408939615200	1490	1469	1514	1427
1399411408964690256	1493	1471	1514	1428
1399411408979641366	1492	1471	1514	1427
1399411408999639214	1493	1473	1514	1427
1399411409014704055	1497	1476	1514	1428
1399411409039644993	1497	1476	1514	1427
1399411409054618735	1497	1476	1514	1427
1399411409074695891	1502	1475	1514	1427
1399411409089646908	1503	1475	1514	1427
1399411409104685052	1503	1475	1514	1427
1399411409124350345	1504	1467	1514	1426
1399411409154678903	1505	1469	1514	1427
1399411409179694156	1511	1462	1514	1426
1399411409199674112	1511	1462	1514	1426
1399411409214612921	1514	1461	1514	1425
1399411409229659263	1514	1462	1514	1426
1399411409249727566	1515	1462	1514	1426
1399411409264719760	1511	1459	1514	1426
1399411409289715406	1512	1460	1514	1426
1399411409304712326	1512	1460	1514	1426
1399411409339688743	1512	1463	1514	1426
1399411409359689570	1501	1469	1514	1425
1399411409374665332	1501	1470	1514	1425
1399411409389592320	1501	1471	1514	1427
1399411409409595618	1501	1470	1514	1426
1399411409424621015	1502	1469	1514	1426
1399411409439770523	1501	1470	1514	1426
1399411409464747328	1496	1475	1514	1426
1399411409479687785	1497	1477	1514	1427
1399411409499767972	1497	1476	1514	1427
1399411409514642537	1498	1481	1514	1426
1399411409529691460	1497	1481	1514	1426
1399411409549591603	1498	1481	1514	1426
1399411409574512630	1501	1479	1514	1426
1399411409594552469	1501	1481	1514	1426
1399411409614726684	1506	1478	1514	1426
1399411409629714039	1506	1479	1514	1427
1399411409649697468	1508	1480	1514	1425
1399411409669701824	1512	1476	1514	1427
1399411409679690282	1513	1477	1514	1426
1399411409699763012	1513	1475	1514	1426
1399411409724744966	1519	1474	1514	1426
1399411409739700491	1520	1474	1514	1426
1399411409754675595	1521	1473	1514	1426
1399411409774662066	1519	1469	1514	1426
1399411409799703666	1521	1470	1514	1426
1399411409814596580	1523	1468	1514	1427
1399411409839722515	1525	1466	1514	1426
1399411409854704526	1526	1467	1514	1425
1399411409874731609	1518	1469	1514	1426
1399411409889819758	1520	1470	1514	1426
1399411409914748202	1515	1475	1514	1426
1399411409929687198	1517	1475	1514	1425
1399411409949709788	1519	1475	1514	1425
1399411409964706449	1513	1476	1514	1426
1399411409979685037	1514	1477	1514	1426
1399411409999720520	1513	1476	1514	1426
1399411410014744796	1508	1476	1514	1425
1399411410029765674	1507	1478	1514	1427
1399411410049746051	1508	1476	1514	1425
1399411410064706409	1509	1473	1514	1426
1399411410084688146	1509	1473	1514	1426
1399411410099750973	1509	1475	1514	1426
1399411410114717361	1505	1481	1514	1425
1399411410134725856	1505	1482	1514	1426
1399411410149713773	1506	1482	1514	1426
1399411410164824091	1505	1482	1514	1426
1399411410179743960	1503	1480	1514	1426
1399411410199698349	1504	1481	1514	1425
1399411410214610533	1509	1483	1514	1425
1399411410239755464	1508	1483	1514	1425
1399411410254472634	1508	1483	1514	1425
1399411410289733535	1514	1483	1514	1425
1399411410324639171	1522	1474	1514	1426
1399411410339596455	1522	1473	1514	1425
1399411410374660386	1525	1470	1514	1426
1399411410394626129	1526	1469	1514	1426
1399411410404632005	1525	1469	1514	1426
1399411410424591381	1522	1470	1514	1426
1399411410439654497	1523	1471	1514	1426
1399411410454672259	1524	1470	1514	1427
1399411410474717964	1522	1473	1514	1427
1399411410489659055	1522	1472	1514	1428
1399411410509672795	1523	1472	1514	1427
1399411410524627303	1522	1472	1514	1427
1399411410549719410	1522	1474	1514	1429
1399411410564785147	1518	1475	1514	1429
1399411410589757633	1518	1474	1514	1429
1399411410604806138	1517	1475	1514	1429
1399411410624717222	1509	1482	1514	1430
1399411410654800014	1510	1482	1514	1429
1399411410674688433	1501	1483	1514	1429
1399411410689742600	1501	1483	1514	1430
1399411410704645705	1502	1485	1514	1430
1399411410724542189	1500	1487	1514	1430
1399411410739767548	1500	1487	1514	1430
1399411410759783128	1506	1487	1514	1430
1399411410789768146	1505	1488	1514	1431
1399411410804496136	1504	1489	1514	1432
1399411410839725510	1510	1486	1514	1431
1399411410874795728	1513	1484	1514	1432
1399411410899685113	1513	1484	1514	1433
1399411410914709039	1516	1481	1514	1432
1399411410929687838	1515	1481	1514	1432
1399411410949646537	1516	1481	1514	1432
1399411410964598005	1522	1471	1514	1432
1399411410979630313	1522	1470	1514	1433
1399411411004648876	1522	1471	1514	1433
1399411411024562411	1522	1471	1514	1433
1399411411039646501	1521	1470	1514	1433
1399411411064643304	1526	1467	1514	1433
1399411411089718019	1525	1466	1514	1433
1399411411124729755	1524	1468	1514	1433
1399411411149706799	1524	1468	1514	1433
1399411411174606046	1514	1474	1514	1432
1399411411189650555	1513	1474	1514	1432
1399411411209710739	1513	1476	1514	1432
1399411411224682245	1513	1477	1514	1432
1399411411249770491	1511	1475	1514	1431
1399411411264694897	1509	1476	1514	1432
1399411411279850721	1509	1476	1514	1433
1399411411304788893	1508	1475	1514	1433
1399411411324782407	1505	1478	1514	1433
1399411411349648355	1503	1478	1514	1433
1399411411374764080	1499	1479	1514	1433
1399411411389469205	1499	1478	1514	1433
1399411411404662504	1498	1479	1514	1434
1399411411424536427	1496	1480	1514	1433
1399411411439726009	1495	1481	1514	1433
1399411411454695229	1495	1481	1514	1434
1399411411474682218	1500	1476	1514	1434
1399411411494739267	1499	1477	1514	1434
1399411411504607441	1497	1477	1514	1434
1399411411529774281	1497	1477	1514	1434
1399411411554832833	1497	1477	1514	1433
1399411411589654766	1498	1476	1514	1433
1399411411629769401	1499	1475	1514	1433
1399411411639680201	1500	1476	1514	1433
1399411411654535324	1499	1476	1514	1434
1399411411674754397	1501	1476	1514	1433
1399411411689796838	1499	1476	1514	1432
1399411411704697040	1501	1476	1514	1432
1399411411724761210	1506	1472	1514	1431
1399411411739563293	1506	1473	1514	1432
1399411411774479436	1506	1474	1514	1432
1399411411789462603	1507	1474	1514	1432
1399411411804443973	1506	1475	1514	1431
1399411411824416144	1506	1474	1514	1431
1399411411854472064	1506	1475	1514	1431
1399411411874493824	1503	1476	1514	1430
1399411411889437713	1502	1476	1514	1430
1399411411914435350	1501	1476	1514	1430
1399411411929749266	1501	1476	1514	1430
1399411411949764018	1502	1475	1514	1430
1399411411964726103	1502	1473	1514	1430
1399411411989821827	1503	1473	1514	1429
1399411412024698449	1502	1472	1514	1429
1399411412054725179	1501	1471	1514	1429
1399411412089739122	1500	1472	1514	1429
1399411412114530233	1501	1472	1514	1430
1399411412129751761	1500	1472	1514	1430
1399411412149547024	1499	1471	1514	1429
1399411412164843284	1497	1469	1514	1429
1399411412179546398	1497	1469	1514	1429
1399411412199657407	1497	1469	1514	1430
1399411412224693353	1493	1464	1514	1429
1399411412239516144	1495	1465	1514	1430
1399411412254672722	1495	1464	1514	1429
1399411412279626251	1494	1468	1514	1430
1399411412314600238	1499	1468	1514	1430
1399411412329662621	1499	1468	1514	1431
1399411412349618439	1499	1467	1514	1431
1399411412364693617	1499	1468	1514	1430
1399411412379549422	1499	1467	1514	1430
1399411412399787216	1499	1467	1514	1430
1399411412414427414	1495	1469	1514	1431
1399411412429734890	1496	1469	1514	1431
1399411412449691914	1496	1469	1514	1431
1399411412474771646	1497	1470	1514	1431
1399411412499722854	1496	1471	1514	1431
1399411412514435072	1496	1473	1514	1431
1399411412529660960	1495	1472	1514	1432
1399411412549740314	1496	1472	1514	1432
1399411412564560984	1492	1479	1514	1431
1399411412579739812	1491	1477	1514	1431
1399411412599664534	1491	1477	1514	1431
1399411412614528031	1491	1481	1514	1431
1399411412629721067	1490	1480	1514	1431
1399411412649483748	1490	1481	1514	1432
1399411412664600190	1493	1476	1514	1432
1399411412679586990	1492	1476	1514	1432
1399411412699700265	1493	1477	1514	1433
1399411412714656217	1494	1472	1514	1433
1399411412739617454	1494	1472	1514	1432
1399411412754617776	1495	1473	1514	1433
1399411412774607084	1498	1476	1514	1433
1399411412804620497	1498	1475	1514	1433
1399411412829661253	1501	1475	1514	1433
1399411412849640251	1499	1474	1514	1434
1399411412864748645	1500	1470	1514	1434
1399411412879678263	1500	1471	1514	1434
1399411412899699065	1499	1471	1514	1434
1399411412914700833	1497	1469	1514	1434
1399411412929697076	1496	1468	1514	1434
1399411412949656030	1495	1467	1514	1434
1399411412964730157	1493	1467	1514	1434
1399411412979655536	1495	1467	1514	1434
1399411412999680909	1495	1467	1514	1434
1399411413014725280	1497	1470	1514	1434
1399411413029748032	1496	1469	1514	1434
1399411413049693447	1496	1468	1514	1434
1399411413064674092	1498	1467	1514	1434
1399411413079684242	1499	1466	1514	1433
1399411413099392937	1500	1467	1514	1433
1399411413114642667	1502	1468	1514	1434
1399411413129694593	1502	1467	1514	1434
1399411413149622785	1502	1467	1514	1433
1399411413164679020	1502	1467	1514	1433
1399411413179581411	1498	1469	1514	1433
1399411413204777464	1500	1470	1514	1434
1399411413229694727	1502	1476	1514	1435
1399411413254666368	1502	1477	1514	1434
1399411413289747121	1502	1481	1514	1435
1399411413304681854	1501	1481	1514	1435
1399411413324732557	1495	1481	1514	1435
1399411413339671634	1496	1483	1514	1434
1399411413354675841	1496	1483	1514	1436
1399411413374721212	1493	1482	1514	1436
1399411413389556172	1491	1482	1514	1437
1399411413404505490	1490	1482	1514	1437
1399411413429747279	1487	1480	1514	1437
1399411413439472868	1488	1481	1514	1438
1399411413454600842	1488	1480	1514	1439
1399411413489703561	1486	1474	1514	1438
1399411413524676914	1489	1469	1514	1439
1399411413549693059	1488	1468	1514	1439
1399411413574696379	1491	1467	1514	1440
1399411413594731039	1491	1466	1514	1440
1399411413604724084	1491	1467	1514	1440
1399411413624721754	1498	1469	1514	1440
1399411413639555270	1496	1470	1514	1440
1399411413654752890	1496	1471	1514	1440
1399411413674777778	1507	1482	1514	1441
1399411413689730738	1507	1482	1514	1441
1399411413724676989	1512	1492	1514	1441
1399411413739749572	1513	1492	1514	1441
1399411413774708398	1517	1499	1514	1441
1399411413789675445	1517	1499	1514	1441
1399411413819661316	1518	1504	1514	1442
1399411413829666872	1517	1502	1514	1441
1399411413849581490	1518	1503	1514	1441
1399411413864656423	1517	1505	1514	1441
1399411413879652107	1501	1499	1514	1441
1399411413899526143	1501	1500	1514	1442
1399411413914714583	1491	1495	1514	1441
1399411413929648524	1490	1496	1514	1440
1399411413949671535	1492	1499	1514	1440
1399411413964661680	1472	1480	1514	1442
1399411413994681238	1470	1480	1514	1441
1399411414024453073	1467	1481	1514	1442
1399411414064818460	1462	1483	1514	1442
1399411414079655550	1462	1483	1514	1442
1399411414099492748	1462	1484	1514	1443
1399411414114709667	1472	1480	1514	1444
1399411414129457912	1469	1482	1514	1444
1399411414149698789	1468	1481	1514	1444
1399411414164733793	1495	1486	1514	1443
1399411414189675406	1492	1488	1514	1444
1399411414224691780	1503	1485	1514	1444
1399411414249442679	1503	1485	1514	1444
1399411414274621621	1522	1495	1514	1444
1399411414294670577	1523	1493	1514	1443
1399411414304600364	1524	1494	1514	1443
1399411414324464605	1528	1494	1514	1443
1399411414339681468	1529	1492	1514	1443
1399411414354692140	1530	1493	1514	1443
1399411414374647972	1532	1491	1514	1443
1399411414389711934	1533	1492	1514	1443
1399411414404717284	1532	1491	1514	1443
1399411414429727223	1518	1491	1514	1442
1399411414449806028	1517	1492	1514	1442
1399411414474683800	1496	1491	1514	1442
1399411414504778534	1497	1490	1514	1442
1399411414539755966	1468	1493	1514	1440
1399411414554577625	1469	1493	1514	1441
1399411414574712547	1466	1494	1514	1440
1399411414589675397	1466	1493	1514	1440
1399411414604730851	1464	1495	1514	1439
1399411414624759481	1459	1496	1514	1438
1399411414639628001	1459	1496	1514	1438
1399411414654727446	1457	1495	1514	1438
1399411414674729316	1458	1493	1514	1438
1399411414689697968	1458	1494	1514	1438
1399411414724692364	1469	1493	1514	1438
1399411414754716240	1469	1493	1514	1437
1399411414789512269	1477	1490	1514	1437
1399411414814609997	1509	1484	1514	1438
1399411414834753186	1508	1482	1514	1436
1399411414849729142	1508	1482	1514	1436
1399411414864863953	1518	1482	1514	1436
1399411414879669850	1519	1483	1514	1437
1399411414899780451	1520	1482	1514	1437
1399411414914593067	1527	1483	1514	1437
1399411414939690485	1528	1482	1514	1437
1399411414964637484	1538	1479	1514	1436
1399411414989632548	1540	1478	1514	1437
1399411415024697345	1543	1478	1514	1437
1399411415039686769	1544	1476	1514	1436
1399411415059719126	1538	1475	1514	1437
1399411415074528991	1540	1475	1514	1437
1399411415089593314	1542	1473	1514	1437
1399411415109759024	1512	1473	1514	1437
1399411415124675870	1513	1473	1514	1436
1399411415139681060	1512	1471	1514	1436
1399411415174759280	1496	1472	1514	1437
1399411415204542575	1496	1469	1514	1436
1399411415239718193	1480	1469	1514	1436
1399411415274687375	1471	1464	1514	1436
1399411415294626004	1472	1462	1514	1436
1399411415304517882	1470	1463	1514	1437
1399411415324611961	1466	1468	1514	1436
1399411415339709430	1465	1467	1514	1436
1399411415354706568	1464	1466	1514	1437
1399411415379726000	1485	1467	1514	1436
1399411415404686289	1484	1466	1514	1436
1399411415424686779	1488	1467	1514	1436
1399411415439643259	1489	1465	1514	1436
1399411415469719111	1521	1464	1514	1435
1399411415479684829	1521	1464	1514	1435
1399411415514767692	1533	1463	1514	1435
1399411415529668712	1534	1463	1514	1435
1399411415549701608	1532	1462	1514	1435
1399411415564699856	1553	1462	1514	1434
1399411415579611103	1551	1463	1514	1436
1399411415599707613	1553	1461	1514	1435
1399411415624730169	1551	1462	1514	1435
1399411415639724715	1553	1458	1514	1435
1399411415664339866	1542	1456	1514	1434
1399411415689758188	1541	1457	1514	1436
1399411415714677146	1533	1458	1514	1435
1399411415739758429	1533	1459	1514	1436
1399411415764440343	1512	1457	1514	1437
1399411415779712929	1514	1456	1514	1436
1399411415799717511	1514	1458	1514	1437
1399411415814730558	1508	1464	1514	1437
1399411415829777249	1507	1464	1514	1437
1399411415849668407	1507	1465	1514	1438
1399411415864629981	1499	1467	1514	1438
1399411415879634874	1499	1469	1514	1437
1399411415899761081	1498	1468	1514	1436
1399411415924625468	1498	1470	1514	1438
1399411415939840637	1498	1471	1514	1438
1399411415954669574	1499	1471	1514	1437
1399411415989774425	1503	1474	1514	1438
1399411416024804542	1519	1476	1514	1438
1399411416054666288	1520	1478	1514	1439
1399411416074709915	1536	1473	1514	1439
1399411416089704879	1536	1474	1514	1438
1399411416104732329	1538	1475	1514	1438
1399411416129781294	1551	1465	1514	1439
1399411416154666443	1554	1467	1514	1439
1399411416174720300	1564	1464	1514	1441
1399411416209773964	1560	1453	1514	1439
1399411416239508405	1562	1455	1514	1440
1399411416264767094	1562	1453	1514	1440
1399411416279726288	1562	1454	1514	1439
1399411416299704541	1565	1454	1514	1439
1399411416314593254	1553	1453	1514	1439
1399411416329711184	1554	1453	1514	1440
1399411416349495755	1553	1455	1514	1440
1399411416364696137	1544	1456	1514	1441
1399411416384668653	1544	1455	1514	1441
1399411416399712353	1543	1455	1514	1441
1399411416414742930	1519	1461	1514	1441
1399411416429768874	1518	1461	1514	1439
1399411416449722597	1518	1464	1514	1440
1399411416469746804	1511	1467	1514	1440
1399411416479678693	1508	1467	1514	1440
1399411416499655305	1508	1469	1514	1441
1399411416514720330	1499	1475	1514	1440
1399411416529737323	1498	1477	1514	1440
1399411416549682266	1499	1478	1514	1440
1399411416564753235	1500	1485	1514	1440
1399411416579506826	1498	1485	1514	1440
1399411416599756856	1497	1484	1514	1439
1399411416624964061	1510	1488	1514	1439
1399411416639733156	1509	1490	1514	1440
1399411416674869427	1523	1487	1514	1439
1399411416689567008	1522	1489	1514	1439
1399411416704700907	1521	1488	1514	1440
1399411416739798815	1547	1484	1514	1440
1399411416754643917	1546	1483	1514	1439
1399411416774692260	1545	1478	1514	1440
1399411416789650757	1546	1478	1514	1439
1399411416809745694	1553	1478	1514	1441
1399411416824506236	1553	1478	1514	1441
1399411416839671418	1552	1477	1514	1441
1399411416854735137	1550	1477	1514	1441
1399411416874492087	1547	1469	1514	1441
1399411416904750325	1547	1468	1514	1441
1399411416939752523	1533	1461	1514	1441
1399411416974745179	1509	1458	1514	1442
1399411416989702376	1508	1457	1514	1442
1399411417009727114	1504	1463	1514	1442
1399411417024483632	1504	1462	1514	1442
1399411417039666506	1503	1461	1514	1442
1399411417064746707	1487	1480	1514	1443
1399411417079445285	1486	1480	1514	1443
1399411417099416050	1484	1478	1514	1443
1399411417114445494	1484	1483	1514	1443
1399411417139428466	1484	1484	1514	1443
1399411417174503422	1494	1488	1514	1442
1399411417189478049	1491	1488	1514	1442
1399411417204522304	1491	1489	1514	1442
1399411417224728593	1500	1488	1514	1442
1399411417239693272	1500	1489	1514	1443
1399411417259654026	1519	1490	1514	1443
1399411417274725588	1517	1489	1514	1442
1399411417289717147	1518	1491	1514	1442
1399411417304683242	1519	1491	1514	1442
1399411417324757595	1534	1486	1514	1443
1399411417349564950	1535	1485	1514	1442
1399411417374770932	1542	1476	1514	1443
1399411417389659919	1541	1475	1514	1443
1399411417424774431	1537	1472	1514	1444
1399411417454717250	1537	1470	1514	1445
1399411417489680600	1530	1465	1514	1445
1399411417509696040	1520	1460	1514	1445
1399411417524802308	1521	1460	1514	1445
1399411417539740387	1522	1458	1514	1445
1399411417559441629	1508	1452	1514	1447
1399411417574633924	1509	1450	1514	1446
1399411417604766369	1507	1450	1514	1446
1399411417624692576	1497	1452	1514	1445
1399411417654749078	1496	1451	1514	1446
1399411417689667085	1491	1460	1514	1446
1399411417724703894	1481	1469	1514	1446
1399411417749754758	1481	1468	1514	1446
1399411417764716432	1482	1473	1514	1446
1399411417779667005	1483	1474	1514	1447
1399411417799717965	1482	1472	1514	1446
1399411417814751516	1482	1476	1514	1447
1399411417839746660	1483	1478	1514	1447
1399411417864473527	1499	1487	1514	1447
1399411417879711976	1499	1487	1514	1447
1399411417899463315	1498	1487	1514	1447
1399411417914720163	1508	1489	1514	1447
1399411417929696747	1509	1488	1514	1447
1399411417949680753	1509	1490	1514	1448
1399411417964671531	1518	1491	1514	1448
1399411417979646788	1518	1490	1514	1450
1399411417999640842	1517	1490	1514	1448
1399411418014659318	1521	1485	1514	1449
1399411418029735441	1521	1484	1514	1448
1399411418049766070	1522	1484	1514	1448
1399411418074804854	1519	1478	1514	1448
1399411418104814722	1519	1480	1514	1449
1399411418139757472	1514	1477	1514	1449
1399411418174785267	1507	1473	1514	1449
1399411418199650363	1508	1473	1514	1450
1399411418214793753	1508	1473	1514	1449
1399411418239779098	1494	1468	1514	1450
1399411418254472230	1494	1468	1514	1451
1399411418274667382	1494	1469	1514	1450
1399411418289418673	1493	1469	1514	1450
1399411418304673247	1493	1471	1514	1449
1399411418324539756	1483	1472	1514	1450
1399411418339559311	1483	1473	1514	1451
1399411418364678874	1485	1476	1514	1450
1399411418389710971	1485	1475	1514	1451
1399411418409629055	1485	1477	1514	1450
1399411418439692857	1482	1479	1514	1451
1399411418454568875	1483	1478	1514	1451
1399411418474689200	1488	1485	1514	1451
1399411418489676299	1489	1485	1514	1451
1399411418504559722	1490	1486	1514	1450
1399411418524741152	1506	1490	1514	1451
1399411418539683833	1507	1489	1514	1451
1399411418559765088	1519	1486	1514	1451
1399411418574720348	1519	1486	1514	1451
1399411418604760785	1520	1488	1514	1450
1399411418639755794	1526	1485	1514	1451
1399411418654689431	1528	1484	1514	1451
1399411418674735220	1524	1476	1514	1451
1399411418689686194	1525	1476	1514	1450
1399411418704721826	1525	1475	1514	1449
1399411418724685795	1519	1469	1514	1449
1399411418739737690	1520	1470	1514	1450
1399411418754680760	1520	1468	1514	1451
1399411418774701344	1508	1461	1514	1451
1399411418789826749	1508	1461	1514	1451
1399411418804571195	1508	1459	1514	1450
1399411418829750871	1503	1453	1514	1450
1399411418854795163	1503	1452	1514	1450
1399411418889800672	1490	1453	1514	1450
1399411418904751195	1490	1452	1514	1450
1399411418939718103	1484	1453	1514	1450
1399411418969766772	1480	1459	1514	1450
1399411418979566012	1479	1459	1514	1450
1399411418999649669	1479	1458	1514	1450
1399411419014708594	1477	1466	1514	1450
1399411419034716752	1476	1465	1514	1451
1399411419054691599	1476	1465	1514	1450
1399411419089717606	1484	1474	1514	1451
1399411419124803099	1505	1484	1514	1451
1399411419139705081	1505	1486	1514	1450
1399411419164758237	1516	1492	1514	1451
1399411419189679393	1516	1492	1514	1451
1399411419204691014	1516	1492	1514	1450
1399411419224767326	1521	1493	1514	1450
1399411419239787716	1521	1493	1514	1450
1399411419254671447	1521	1493	1514	1450
1399411419279483826	1524	1492	1514	1450
1399411419304660591	1524	1491	1514	1450
1399411419324707474	1521	1479	1514	1450
1399411419354709245	1520	1480	1514	1450
1399411419389702328	1513	1461	1514	1449
1399411419424703784	1498	1448	1514	1449
1399411419439748199	1498	1447	1514	1449
1399411419454728075	1497	1447	1514	1448
1399411419474459663	1493	1441	1514	1448
1399411419489459062	1493	1439	1514	1448
1399411419504427538	1491	1439	1514	1447
1399411419524421058	1478	1439	1514	1446
1399411419539460395	1475	1437	1514	1446
1399411419574496869	1465	1446	1514	1446
1399411419604541881	1465	1445	1514	1445
1399411419639697567	1460	1461	1514	1444
1399411419654734215	1461	1462	1514	1444
1399411419674713147	1467	1473	1514	1444
1399411419689746475	1465	1475	1514	1443
1399411419709611371	1480	1483	1514	1441
1399411419729674027	1479	1486	1514	1442
1399411419749698365	1480	1487	1514	1442
1399411419764631809	1492	1495	1514	1441
1399411419789733005	1491	1496	1514	1441
1399411419824572444	1498	1498	1514	1441
1399411419854725955	1497	1498	1514	1440
1399411419874738318	1524	1503	1514	1440
1399411419899681064	1525	1507	1514	1441
1399411419914698828	1531	1484	1514	1442
1399411419929701956	1531	1486	1514	1441
1399411419949730777	1532	1487	1514	1442
1399411419964611837	1523	1463	1514	1441
1399411419979696889	1522	1463	1514	1442
1399411419999678371	1524	1462	1514	1441
1399411420014745962	1509	1452	1514	1442
1399411420039624058	1509	1454	1514	1443
1399411420054702898	1509	1452	1514	1443
1399411420089632119	1489	1447	1514	1443
1399411420119638174	1478	1443	1514	1444
1399411420139572339	1478	1442	1514	1443
1399411420154422322	1478	1442	1514	1443
1399411420174676295	1465	1460	1514	1443
1399411420199757789	1465	1461	1514	1444
1399411420214776527	1467	1470	1514	1443
1399411420229653112	1466	1473	1514	1443
1399411420249702208	1469	1472	1514	1443
1399411420264672715	1477	1499	1514	1444
1399411420279493638	1477	1498	1514	1444
1399411420299560781	1478	1497	1514	1444
1399411420314489098	1487	1507	1514	1442
1399411420329468361	1488	1507	1514	1441
1399411420349452785	1489	1509	1514	1441
1399411420364458583	1506	1526	1514	1441
1399411420379434541	1506	1527	1514	1440
1399411420399458257	1507	1526	1514	1440
1399411420414441325	1508	1523	1514	1440
1399411420429398478	1512	1525	1514	1439
1399411420449711318	1513	1525	1514	1439
1399411420464585862	1532	1515	1514	1438
1399411420489647463	1535	1518	1514	1438
1399411420504558259	1535	1519	1514	1437
1399411420529578808	1542	1514	1514	1436
1399411420554622780	1544	1515	1514	1437
1399411420589671857	1542	1512	1514	1436
1399411420604692957	1541	1510	1514	1436
1399411420624715086	1533	1497	1514	1436
1399411420639653156	1533	1496	1514	1436
1399411420654671280	1532	1495	1514	1437
1399411420674649643	1518	1482	1514	1437
1399411420689663629	1517	1482	1514	1436
1399411420704644808	1519	1482	1514	1436
1399411420724598976	1491	1466	1514	1437
1399411420739648432	1492	1466	1514	1439
1399411420754587215	1489	1465	1514	1439
1399411420774614095	1483	1459	1514	1438
1399411420804854873	1482	1459	1514	1439
1399411420829696858	1470	1470	1514	1439
1399411420849700830	1468	1470	1514	1439
1399411420879809437	1468	1480	1514	1440
1399411420894601446	1469	1479	1514	1441
1399411420904569700	1467	1478	1514	1441
1399411420924491483	1476	1481	1514	1442
1399411420939480790	1476	1481	1514	1443
1399411420954432398	1475	1481	1514	1444
1399411420974443923	1480	1482	1514	1444
1399411420989542844	1480	1481	1514	1445
1399411421014440395	1492	1484	1514	1445
1399411421029522147	1493	1483	1514	1446
1399411421054494643	1495	1483	1514	1446
1399411421084692362	1503	1489	1514	1446
1399411421099713544	1505	1490	1514	1447
1399411421114741001	1534	1501	1514	1449
1399411421139697739	1533	1500	1514	1447
1399411421154686186	1534	1500	1514	1448
1399411421174686178	1550	1505	1514	1449
1399411421189738736	1550	1504	1514	1450
1399411421204595916	1551	1503	1514	1449
1399411421224653675	1555	1500	1514	1449
1399411421239605925	1557	1500	1514	1449
1399411421269699329	1550	1496	1514	1450
1399411421289614585	1550	1494	1514	1449
1399411421319707485	1540	1488	1514	1449
1399411421339640408	1540	1488	1514	1449
1399411421364748853	1518	1488	1514	1448
1399411421379633372	1518	1488	1514	1448
1399411421399472517	1518	1486	1514	1448
1399411421424420007	1507	1487	1514	1447
1399411421439461823	1504	1486	1514	1448
1399411421464454116	1491	1481	1514	1448
1399411421479434354	1490	1478	1514	1447
1399411421499404175	1488	1479	1514	1447
1399411421524468446	1477	1476	1514	1447
1399411421554481656	1476	1474	1514	1447
1399411421574807539	1475	1474	1514	1446
1399411421589652530	1475	1473	1514	1447
1399411421604565847	1475	1472	1514	1447
1399411421624662251	1483	1467	1514	1447
1399411421639616707	1483	1466	1514	1447
1399411421654681813	1484	1465	1514	1446
1399411421674612767	1526	1467	1514	1446
1399411421689662771	1528	1468	1514	1446
1399411421704711657	1529	1467	1514	1447
1399411421724663781	1542	1470	1514	1447
1399411421749762112	1543	1469	1514	1446
1399411421774693292	1562	1465	1514	1446
1399411421804608852	1565	1464	1514	1446
1399411421839690724	1566	1473	1514	1447
1399411421854688750	1567	1474	1514	1447
1399411421874621697	1553	1489	1514	1447
1399411421889685169	1552	1488	1514	1447
1399411421904630700	1552	1489	1514	1447
1399411421924732162	1541	1492	1514	1447
1399411421939693746	1540	1495	1514	1447
1399411421954649259	1540	1494	1514	1447
1399411421974669676	1495	1497	1514	1446
1399411422004702971	1495	1499	1514	1447
1399411422039628328	1485	1502	1514	1446
1399411422069483420	1476	1481	1514	1447
1399411422079637141	1475	1482	1514	1446
1399411422099702969	1473	1484	1514	1445
1399411422124689530	1487	1473	1514	1445
1399411422139690361	1486	1474	1514	1445
1399411422154674612	1485	1476	1514	1444
1399411422174711087	1508	1469	1514	1444
1399411422189430240	1507	1469	1514	1444
1399411422204691719	1507	1469	1514	1444
1399411422224603436	1515	1467	1514	1444
1399411422249670704	1514	1468	1514	1444
1399411422264665059	1536	1461	1514	1444
1399411422289725104	1537	1461	1514	1444
1399411422304659069	1535	1461	1514	1444
1399411422339719238	1541	1468	1514	1444
1399411422374737237	1535	1470	1514	1444
1399411422389450037	1535	1469	1514	1444
1399411422404637612	1533	1469	1514	1444
1399411422424642650	1512	1473	1514	1444
1399411422439682986	1512	1473	1514	1444
1399411422459487908	1495	1482	1514	1444
1399411422479751111	1495	1481	1514	1445
1399411422499748854	1495	1482	1514	1444
1399411422524758164	1485	1485	1514	1445
1399411422554737162	1484	1485	1514	1445
1399411422589717697	1480	1488	1514	1445
1399411422609800243	1500	1484	1514	1446
1399411422624756240	1499	1483	1514	1446
1399411422639708677	1499	1484	1514	1446
1399411422654554063	1499	1484	1514	1445
1399411422674763821	1504	1485	1514	1445
1399411422689647626	1501	1487	1514	1446
1399411422724736377	1509	1482	1514	1446
1399411422739721291	1508	1484	1514	1446
1399411422764761050	1505	1488	1514	1447
1399411422789713433	1501	1489	1514	1446
1399411422819640304	1501	1489	1514	1447
1399411422829517975	1499	1489	1514	1446
1399411422849482798	1499	1490	1514	1448
1399411422864652434	1488	1488	1514	1449
1399411422879622380	1484	1487	1514	1449
1399411422899587701	1485	1486	1514	1449
1399411422914781125	1487	1485	1514	1449
1399411422929659950	1486	1485	1514	1449
1399411422954606093	1487	1486	1514	1450
1399411422974692045	1486	1484	1514	1451
1399411422999733625	1488	1486	1514	1452
1399411423024591111	1486	1485	1514	1452
1399411423054703839	1488	1484	1514	1453
1399411423079759724	1496	1480	1514	1453
1399411423104653221	1495	1479	1514	1454
1399411423124484942	1506	1478	1514	1454
1399411423139717720	1506	1477	1514	1454
1399411423154715019	1507	1476	1514	1453
1399411423174533266	1498	1477	1514	1454
1399411423189736659	1500	1477	1514	1454
1399411423204565325	1499	1475	1514	1454
1399411423224754200	1490	1476	1514	1454
1399411423239637529	1489	1475	1514	1455
1399411423254606607	1491	1473	1514	1454
1399411423274711537	1482	1474	1514	1454
1399411423294609993	1486	1473	1514	1454
1399411423304607493	1486	1471	1514	1454
1399411423324633183	1481	1474	1514	1454
1399411423339577776	1480	1472	1514	1454
1399411423354638207	1481	1471	1514	1454
1399411423374737684	1483	1470	1514	1454
1399411423389803895	1489	1470	1514	1454
1399411423409678924	1488	1470	1514	1453
1399411423429596821	1489	1471	1514	1454
1399411423454613287	1489	1468	1514	1454
1399411423474720953	1493	1470	1514	1455
1399411423489461454	1493	1470	1514	1454
1399411423524579184	1494	1469	1514	1454
1399411423554488465	1493	1468	1514	1454
1399411423574429271	1495	1465	1514	1454
1399411423589424441	1495	1466	1514	1455
1399411423604485939	1495	1466	1514	1454
1399411423624421944	1493	1463	1514	1456
1399411423639467157	1494	1461	1514	1455
1399411423664748364	1493	1463	1514	1456
1399411423679679045	1494	1462	1514	1456
1399411423704815459	1495	1463	1514	1456
1399411423714717208	1495	1466	1514	1456
1399411423739768195	1496	1465	1514	1456
1399411423764717463	1498	1465	1514	1457
1399411423779729652	1503	1471	1514	1457
1399411423799792161	1504	1471	1514	1456
1399411423814756013	1506	1473	1514	1456
1399411423829753035	1508	1474	1514	1456
1399411423849583505	1510	1474	1514	1456
1399411423864674282	1517	1473	1514	1457
1399411423879636992	1518	1472	1514	1456
1399411423899758138	1518	1471	1514	1456
1399411423914723254	1521	1463	1514	1457
1399411423929736859	1521	1462	1514	1455
1399411423949600787	1524	1462	1514	1455
1399411423974679526	1519	1454	1514	1455
1399411423989669636	1521	1452	1514	1455
1399411424004633846	1521	1454	1514	1454
1399411424039789485	1517	1452	1514	1455
1399411424064747823	1506	1452	1514	1454
1399411424084668442	1506	1455	1514	1454
1399411424099636476	1508	1454	1514	1454
1399411424114439765	1502	1465	1514	1454
1399411424129792718	1502	1465	1514	1455
1399411424149589840	1502	1465	1514	1454
1399411424164697900	1501	1466	1514	1454
1399411424189780011	1506	1477	1514	1453
1399411424214582073	1512	1478	1514	1453
1399411424229699378	1511	1480	1514	1454
1399411424249769313	1510	1480	1514	1454
1399411424264742975	1512	1475	1514	1454
1399411424279668524	1511	1476	1514	1453
1399411424299738679	1512	1479	1514	1453
1399411424314631586	1516	1468	1514	1454
1399411424329631096	1516	1468	1514	1453
1399411424349762797	1513	1468	1514	1454
1399411424364730654	1516	1461	1514	1454
1399411424389631433	1519	1461	1514	1454
1399411424409546535	1520	1455	1514	1454
1399411424424619420	1519	1456	1514	1454
1399411424449734413	1518	1458	1514	1455
1399411424464673715	1518	1457	1514	1454
1399411424479705994	1518	1458	1514	1453
1399411424499568568	1517	1458	1514	1452
1399411424514666125	1516	1467	1514	1453
1399411424529620666	1517	1467	1514	1453
1399411424549785939	1517	1467	1514	1453
1399411424569727548	1511	1485	1514	1453
1399411424579725886	1509	1484	1514	1452
1399411424599638488	1510	1483	1514	1451
1399411424614736793	1511	1488	1514	1450
1399411424629772644	1510	1489	1514	1450
1399411424649683805	1510	1492	1514	1449
1399411424664748817	1510	1491	1514	1449
1399411424679730206	1510	1491	1514	1449
1399411424704791500	1509	1492	1514	1448
1399411424734711394	1515	1490	1514	1447
1399411424749782026	1514	1488	1514	1446
1399411424774644523	1520	1481	1514	1446
1399411424814602979	1520	1477	1514	1445
1399411424829624879	1520	1478	1514	1444
1399411424849640723	1520	1478	1514	1444
1399411424864674965	1520	1474	1514	1444
1399411424889631041	1520	1474	1514	1443
1399411424914772644	1516	1474	1514	1442
1399411424939727721	1517	1474	1514	1442
1399411424974736851	1509	1479	1514	1441
1399411425004710798	1509	1480	1514	1441
1399411425039651526	1506	1480	1514	1441
1399411425054650568	1506	1480	1514	1441
1399411425074593550	1508	1487	1514	1441
1399411425089661522	1508	1485	1514	1441
1399411425109490106	1508	1488	1514	1441
1399411425124693872	1507	1488	1514	1440
1399411425149643109	1507	1488	1514	1440
1399411425164756330	1515	1488	1514	1440
1399411425189763502	1513	1488	1514	1439
1399411425204702421	1512	1489	1514	1440
1399411425224731783	1514	1482	1514	1440
1399411425259769240	1512	1474	1514	1439
1399411425274662115	1510	1475	1514	1439
1399411425289691716	1510	1474	1514	1439
1399411425304685931	1511	1476	1514	1440
1399411425324711207	1509	1471	1514	1440
1399411425339766316	1508	1471	1514	1442
1399411425354697328	1509	1470	1514	1441
1399411425374713192	1506	1468	1514	1440
1399411425394719635	1505	1469	1514	1440
1399411425404569974	1503	1469	1514	1440
1399411425429652693	1502	1475	1514	1441
1399411425449729602	1501	1475	1514	1440
1399411425474704022	1499	1483	1514	1441
1399411425504734791	1498	1482	1514	1441
1399411425539744556	1495	1487	1514	1441
1399411425554578010	1496	1488	1514	1442
1399411425574680106	1497	1493	1514	1442
1399411425589702224	1499	1493	1514	1442
1399411425604783079	1498	1493	1514	1442
1399411425624701191	1504	1488	1514	1442
1399411425654746263	1503	1490	1514	1442
1399411425679706520	1508	1488	1514	1443
1399411425699702827	1507	1487	1514	1443
1399411425714703851	1510	1480	1514	1442
1399411425734705225	1511	1480	1514	1442
1399411425749700195	1511	1480	1514	1442
1399411425764609506	1515	1477	1514	1443
1399411425784638843	1517	1477	1514	1444
1399411425799642974	1516	1476	1514	1444
1399411425814724158	1510	1471	1514	1444
1399411425829879889	1510	1470	1514	1443
1399411425849753647	1510	1471	1514	1443
1399411425874644748	1511	1471	1514	1444
1399411425889704752	1513	1469	1514	1444
1399411425904649595	1514	1468	1514	1443
1399411425939726326	1507	1475	1514	1443
1399411425954560679	1509	1475	1514	1443
1399411425974753911	1510	1477	1514	1444
1399411425989613039	1511	1477	1514	1444
1399411426024665892	1510	1480	1514	1442
1399411426054696775	1514	1480	1514	1442
1399411426074735150	1511	1482	1514	1442
1399411426089660542	1511	1483	1514	1442
1399411426104697731	1513	1483	1514	1442
1399411426124713845	1515	1483	1514	1443
1399411426139597386	1515	1483	1514	1443
1399411426154757343	1518	1483	1514	1443
1399411426189752091	1518	1480	1514	1443
1399411426204765232	1519	1480	1514	1442
1399411426239699680	1520	1477	1514	1443
1399411426259695017	1521	1475	1514	1442
1399411426274658812	1520	1475	1514	1443
1399411426289745720	1521	1476	1514	1443
1399411426304708845	1521	1476	1514	1444
1399411426324697200	1517	1473	1514	1443
1399411426339529254	1517	1474	1514	1444
1399411426374808693	1517	1472	1514	1443
1399411426394519453	1517	1471	1514	1444
1399411426404469376	1518	1472	1514	1444
1399411426424454918	1515	1474	1514	1444
1399411426454440039	1516	1472	1514	1443
1399411426474506190	1515	1475	1514	1443
1399411426509558403	1518	1476	1514	1442
1399411426524466172	1518	1476	1514	1443
1399411426539706652	1518	1475	1514	1442
1399411426559767168	1531	1480	1514	1442
1399411426574756063	1529	1481	1514	1442
1399411426589485781	1529	1481	1514	1442
1399411426614740585	1533	1481	1514	1441
1399411426639675479	1532	1482	1514	1441
1399411426664724633	1532	1483	1514	1441
1399411426679735933	1529	1482	1514	1442
1399411426699716346	1529	1482	1514	1441
1399411426714701213	1520	1481	1514	1440
1399411426729541220	1520	1481	1514	1440
1399411426749748052	1519	1481	1514	1440
1399411426764740346	1509	1479	1514	1441
1399411426779653250	1507	1478	1514	1441
1399411426799767093	1505	1477	1514	1440
1399411426814761658	1499	1473	1514	1440
1399411426829673042	1499	1474	1514	1440
1399411426849736347	1498	1475	1514	1440
1399411426874653319	1491	1470	1514	1441
1399411426899769928	1488	1470	1514	1441
1399411426924798687	1493	1467	1514	1441
1399411426949708558	1493	1468	1514	1442
1399411426964719007	1496	1469	1514	1442
1399411426979678777	1495	1469	1514	1442
1399411426999699836	1493	1469	1514	1441
1399411427014731168	1506	1468	1514	1440
1399411427029701940	1506	1469	1514	1441
1399411427049688715	1506	1469	1514	1442
1399411427064679544	1524	1470	1514	1441
1399411427079694200	1521	1470	1514	1441
1399411427099694601	1521	1471	1514	1440
1399411427114797880	1524	1482	1514	1440
1399411427129740374	1524	1482	1514	1441
1399411427149613445	1523	1481	1514	1440
1399411427164543758	1528	1482	1514	1441
1399411427179588421	1527	1481	1514	1440
1399411427199462402	1529	1482	1514	1440
1399411427214411264	1524	1481	1514	1439
1399411427229460063	1523	1481	1514	1439
1399411427249493505	1522	1481	1514	1440
1399411427264401028	1520	1478	1514	1439
1399411427289448327	1521	1480	1514	1439
1399411427304440789	1521	1481	1514	1440
1399411427324494342	1507	1474	1514	1439
1399411427349707654	1506	1473	1514	1439
1399411427364471766	1503	1468	1514	1439
1399411427389769631	1502	1468	1514	1439
1399411427424727967	1493	1461	1514	1440
1399411427454717896	1492	1461	1514	1440
1399411427484677441	1486	1460	1514	1441
1399411427499745238	1485	1460	1514	1441
1399411427514509241	1480	1467	1514	1440
1399411427529698414	1481	1467	1514	1440
1399411427549582844	1482	1469	1514	1442
1399411427564679905	1487	1481	1514	1442
1399411427589583681	1488	1482	1514	1442
1399411427609728492	1498	1489	1514	1442
1399411427624577201	1496	1489	1514	1443
1399411427644737321	1497	1492	1514	1444
1399411427654724673	1498	1490	1514	1443
1399411427674735683	1506	1495	1514	1443
1399411427699729848	1507	1496	1514	1444
1399411427714425448	1521	1501	1514	1445
1399411427734690622	1520	1500	1514	1445
1399411427749648141	1520	1501	1514	1445
1399411427764650811	1520	1500	1514	1445
1399411427779678843	1521	1502	1514	1447
1399411427799652227	1522	1503	1514	1448
1399411427814714293	1519	1494	1514	1447
1399411427829610853	1519	1496	1514	1447
1399411427854732002	1519	1497	1514	1448
1399411427889759669	1516	1489	1514	1449
1399411427919731800	1509	1488	1514	1449
1399411427929695064	1510	1489	1514	1449
1399411427949639995	1511	1490	1514	1449
1399411427974691400	1493	1472	1514	1450
1399411427994767744	1493	1473	1514	1450
1399411428004659584	1491	1473	1514	1450
1399411428029688184	1489	1477	1514	1450
1399411428049451995	1489	1477	1514	1451
1399411428064719058	1479	1485	1514	1451
1399411428089722439	1479	1484	1514	1451
1399411428124761867	1479	1487	1514	1451
1399411428154678577	1479	1489	1514	1450
1399411428189755083	1491	1495	1514	1450
1399411428209707250	1490	1496	1514	1450
1399411428224667740	1496	1500	1514	1450
1399411428239729023	1498	1500	1514	1448
1399411428254678465	1498	1501	1514	1449
1399411428274721539	1508	1504	1514	1449
1399411428294706476	1508	1503	1514	1449
1399411428304568460	1508	1504	1514	1448
1399411428324678638	1515	1499	1514	1448
1399411428339519194	1517	1500	1514	1449
1399411428354718310	1515	1499	1514	1450
1399411428374676738	1519	1486	1514	1449
1399411428389673458	1518	1488	1514	1449
1399411428404557073	1520	1487	1514	1449
1399411428424750226	1516	1476	1514	1449
1399411428454592841	1515	1476	1514	1449
1399411428474461245	1508	1475	1514	1449
1399411428489736131	1508	1474	1514	1448
1399411428504633084	1510	1475	1514	1449
1399411428524723223	1496	1475	1514	1449
1399411428539670256	1495	1475	1514	1449
1399411428564467140	1485	1475	1514	1449
1399411428579674991	1484	1474	1514	1449
1399411428604827197	1483	1473	1514	1448
1399411428624433019	1474	1480	1514	1449
1399411428639774992	1472	1478	1514	1449
1399411428664729119	1469	1487	1514	1448
1399411428679699208	1467	1486	1514	1449
1399411428699721519	1465	1486	1514	1449
1399411428714750020	1465	1486	1514	1448
1399411428734445517	1469	1500	1514	1448
1399411428749707263	1467	1500	1514	1448
1399411428764840894	1467	1503	1514	1447
1399411428779674588	1468	1503	1514	1448
1399411428804711591	1467	1503	1514	1448
1399411428839694950	1488	1501	1514	1448
1399411428854689448	1487	1503	1514	1447
1399411428889702423	1500	1500	1514	1448
1399411428914674238	1517	1494	1514	1448
1399411428929675999	1519	1494	1514	1448
1399411428949689582	1520	1493	1514	1449
1399411428964693228	1524	1487	1514	1449
1399411428979684834	1523	1487	1514	1449
1399411428999631194	1524	1488	1514	1449
1399411429014666381	1525	1486	1514	1448
1399411429039764804	1525	1485	1514	1450
1399411429054717263	1527	1485	1514	1449
1399411429079461924	1518	1486	1514	1450
1399411429099681933	1521	1486	1514	1450
1399411429124686839	1513	1481	1514	1450
1399411429149559747	1512	1480	1514	1451
1399411429164720516	1501	1475	1514	1451
1399411429189714150	1500	1473	1514	1451
1399411429204682697	1499	1473	1514	1451
1399411429229602407	1484	1471	1514	1451
1399411429249735644	1483	1470	1514	1451
1399411429264660742	1467	1472	1514	1451
1399411429279692351	1467	1471	1514	1450
1399411429304435363	1465	1471	1514	1451
1399411429324601568	1460	1477	1514	1451
1399411429339685393	1458	1477	1514	1450
1399411429354688742	1456	1477	1514	1451
1399411429374616881	1466	1475	1514	1451
1399411429389783362	1467	1475	1514	1451
1399411429404728934	1466	1474	1514	1451
1399411429424450032	1480	1469	1514	1450
1399411429439422137	1480	1469	1514	1451
1399411429454420177	1480	1468	1514	1450
1399411429474459642	1494	1462	1514	1450
1399411429489459192	1495	1460	1514	1451
1399411429504465670	1496	1460	1514	1449
1399411429524479747	1508	1454	1514	1450
1399411429549409954	1509	1454	1514	1450
1399411429564479807	1534	1460	1514	1450
1399411429589729797	1535	1458	1514	1449
1399411429614752904	1536	1462	1514	1449
1399411429639739840	1539	1459	1514	1450
1399411429674744807	1532	1464	1514	1450
1399411429689797713	1533	1464	1514	1450
1399411429704778288	1535	1462	1514	1450
1399411429724580166	1527	1467	1514	1449
1399411429739703796	1527	1467	1514	1449
1399411429754738320	1528	1469	1514	1449
1399411429779753284	1510	1468	1514	1449
1399411429799772489	1508	1468	1514	1449
1399411429824651845	1492	1471	1514	1449
1399411429854645584	1492	1472	1514	1450
1399411429879775804	1467	1478	1514	1450
1399411429899681215	1467	1479	1514	1450
1399411429914800904	1465	1483	1514	1449
1399411429929707984	1467	1483	1514	1450
1399411429949648988	1466	1484	1514	1451
1399411429964691389	1463	1476	1514	1451
1399411429979631114	1464	1476	1514	1451
1399411429999732385	1463	1477	1514	1450
1399411430014747066	1473	1469	1514	1449
1399411430039760402	1475	1470	1514	1451
1399411430064458154	1487	1463	1514	1452
1399411430089507724	1488	1463	1514	1450
1399411430124551312	1509	1460	1514	1451
1399411430139447869	1510	1459	1514	1451
1399411430154469411	1511	1459	1514	1450
1399411430174477559	1533	1458	1514	1450
1399411430189402230	1533	1459	1514	1450
1399411430204471879	1534	1458	1514	1450
1399411430224758766	1557	1457	1514	1450
1399411430239712191	1555	1459	1514	1450
1399411430254425812	1558	1459	1514	1450
1399411430274682784	1560	1464	1514	1450
1399411430304719226	1564	1463	1514	1451
1399411430324480306	1556	1464	1514	1450
1399411430339743774	1557	1465	1514	1450
1399411430354525103	1558	1466	1514	1450
1399411430374689019	1547	1470	1514	1451
1399411430389644616	1548	1470	1514	1451
1399411430404691106	1549	1472	1514	1452
1399411430424723154	1514	1476	1514	1451
1399411430439732533	1516	1478	1514	1452
1399411430454738107	1513	1480	1514	1451
1399411430474470778	1500	1482	1514	1453
1399411430489714255	1497	1482	1514	1453
1399411430504631500	1497	1483	1514	1453
1399411430539722902	1467	1480	1514	1452
1399411430559781961	1461	1480	1514	1453
1399411430574746903	1459	1480	1514	1452
1399411430589641619	1455	1480	1514	1452
1399411430604676245	1452	1481	1514	1451
1399411430624785474	1452	1473	1514	1452
1399411430639739491	1451	1472	1514	1452
1399411430654703818	1449	1472	1514	1453
1399411430674749447	1456	1470	1514	1452
1399411430689619500	1455	1470	1514	1452
1399411430704655587	1456	1470	1514	1451
1399411430724633819	1469	1460	1514	1451
1399411430739461660	1469	1460	1514	1452
1399411430754782374	1470	1459	1514	1452
1399411430774753443	1498	1453	1514	1452
1399411430804741923	1500	1453	1514	1452
1399411430839755563	1532	1449	1514	1452
1399411430864729226	1556	1452	1514	1452
1399411430879734459	1557	1453	1514	1453
1399411430899774256	1559	1452	1514	1452
1399411430914650461	1571	1459	1514	1452
1399411430929660813	1571	1458	1514	1452
1399411430949692688	1571	1458	1514	1452
1399411430964704058	1571	1467	1514	1452
1399411430989573500	1573	1467	1514	1452
1399411431004616445	1571	1467	1514	1452
1399411431024566373	1556	1474	1514	1452
1399411431049672030	1556	1475	1514	1452
1399411431064711378	1532	1482	1514	1451
1399411431079506214	1532	1483	1514	1451
1399411431099751768	1531	1484	1514	1452
1399411431114678440	1514	1488	1514	1452
1399411431129632577	1513	1489	1514	1452
1399411431149718116	1511	1488	1514	1451
1399411431164714973	1483	1496	1514	1451
1399411431179739727	1479	1498	1514	1450
1399411431199716600	1479	1498	1514	1450
1399411431214685541	1478	1496	1514	1451
1399411431239796150	1475	1498	1514	1450
1399411431259754741	1439	1499	1514	1451
1399411431274821711	1437	1500	1514	1451
1399411431289717439	1434	1501	1514	1450
1399411431304720356	1434	1499	1514	1450
1399411431324711966	1437	1498	1514	1450
1399411431339693917	1434	1499	1514	1450
1399411431359732719	1444	1488	1514	1450
1399411431374716917	1444	1489	1514	1450
1399411431389652396	1446	1487	1514	1450
1399411431404670969	1445	1489	1514	1450
1399411431429728879	1465	1482	1514	1450
1399411431449763977	1467	1484	1514	1450
1399411431474726230	1506	1473	1514	1450
1399411431489680114	1506	1473	1514	1450
1399411431524735565	1534	1471	1514	1450
1399411431554695242	1536	1470	1514	1450
1399411431589694346	1542	1471	1514	1450
1399411431614777093	1565	1467	1514	1452
1399411431639761453	1569	1467	1514	1452
1399411431659524661	1567	1472	1514	1452
1399411431674504392	1568	1472	1514	1452
1399411431689711110	1568	1471	1514	1452
1399411431704638880	1570	1470	1514	1451
1399411431739752991	1554	1476	1514	1452
1399411431774662569	1540	1476	1514	1452
1399411431804769190	1539	1477	1514	1452
1399411431829749150	1510	1482	1514	1453
1399411431849737896	1508	1482	1514	1453
1399411431864685335	1471	1490	1514	1453
1399411431879633145	1470	1491	1514	1454
1399411431899656660	1469	1489	1514	1453
1399411431914783751	1440	1490	1514	1452
1399411431929742270	1438	1490	1514	1452
1399411431954719604	1435	1491	1514	1453
1399411431979493353	1428	1490	1514	1455
1399411431999697739	1426	1489	1514	1454
1399411432024739379	1427	1483	1514	1454
1399411432054711070	1426	1481	1514	1454
1399411432099667797	1449	1476	1514	1454
1399411432114690408	1500	1474	1514	1454
1399411432129632944	1499	1475	1514	1455
1399411432149715991	1501	1473	1514	1455
1399411432164436494	1525	1469	1514	1454
1399411432179398291	1525	1470	1514	1455
1399411432199473467	1525	1468	1514	1454
1399411432214476663	1555	1468	1514	1454
1399411432229435242	1556	1468	1514	1454
1399411432254530304	1557	1467	1514	1454
1399411432274490166	1549	1467	1514	1454
1399411432294465288	1553	1466	1514	1455
1399411432304417428	1554	1466	1514	1455
1399411432324617270	1540	1472	1514	1454
1399411432339647479	1540	1472	1514	1454
1399411432354743552	1539	1471	1514	1454
1399411432374706241	1472	1479	1514	1455
1399411432389711438	1474	1479	1514	1455
1399411432404657884	1473	1478	1514	1455
1399411432424662423	1439	1480	1514	1455
1399411432439752532	1438	1480	1514	1455
1399411432454878592	1439	1478	1514	1454
1399411432489722451	1430	1476	1514	1454
1399411432504594600	1430	1477	1514	1454
1399411432539655511	1458	1468	1514	1454
1399411432564687119	1492	1463	1514	1454
1399411432579663065	1492	1462	1514	1455
1399411432599736372	1493	1461	1514	1455
1399411432614605178	1531	1457	1514	1455
1399411432629654919	1529	1456	1514	1455
1399411432649715055	1530	1454	1514	1455
1399411432664579641	1550	1455	1514	1455
1399411432679734844	1551	1454	1514	1455
1399411432699778345	1552	1453	1514	1455
1399411432724660078	1554	1457	1514	1456
1399411432754776768	1555	1456	1514	1455
1399411432789812334	1481	1467	1514	1456
1399411432814637470	1464	1475	1514	1456
1399411432839768239	1466	1475	1514	1457
1399411432859725243	1470	1467	1514	1457
1399411432874681288	1469	1468	1514	1456
1399411432889877086	1468	1467	1514	1455
1399411432904498478	1468	1469	1514	1455
1399411432924744431	1462	1466	1514	1457
1399411432954693628	1462	1465	1514	1456
1399411432989720225	1500	1452	1514	1456
1399411433024578837	1513	1449	1514	1456
1399411433054659777	1512	1450	1514	1456
1399411433089672933	1530	1459	1514	1456
1399411433114441460	1525	1468	1514	1456
1399411433129467831	1526	1468	1514	1456
1399411433149452591	1525	1468	1514	1455
1399411433174452240	1505	1473	1514	1456
1399411433189463060	1505	1473	1514	1456
1399411433209474568	1491	1471	1514	1456
1399411433239460520	1491	1473	1514	1456
1399411433254540618	1492	1473	1514	1456
1399411433274440807	1482	1470	1514	1457
1399411433314481193	1476	1471	1514	1456
1399411433329421623	1476	1472	1514	1456
1399411433349440128	1477	1474	1514	1457
1399411433364504314	1484	1467	1514	1456
1399411433379411279	1483	1468	1514	1456
1399411433399417588	1482	1469	1514	1456
1399411433414454080	1524	1467	1514	1455
1399411433429447276	1524	1469	1514	1456
1399411433449747844	1524	1470	1514	1455
1399411433474765325	1514	1475	1514	1455
1399411433489779352	1515	1476	1514	1454
1399411433509682524	1520	1474	1514	1454
1399411433534614192	1521	1475	1514	1454
1399411433549714414	1523	1475	1514	1454
1399411433564696606	1504	1473	1514	1454
1399411433579715095	1507	1474	1514	1453
1399411433599810557	1506	1476	1514	1454
1399411433614818524	1500	1480	1514	1453
1399411433629701957	1500	1480	1514	1453
1399411433649718781	1501	1481	1514	1454
1399411433664701383	1498	1487	1514	1453
1399411433679716016	1497	1487	1514	1453
1399411433704708776	1498	1488	1514	1452
1399411433724699410	1503	1486	1514	1453
1399411433739628312	1503	1486	1514	1452
1399411433774686011	1506	1481	1514	1453
1399411433814701135	1512	1479	1514	1452
1399411433839666638	1512	1480	1514	1452
1399411433854672758	1513	1481	1514	1452
1399411433874612810	1530	1469	1514	1452
1399411433889630846	1531	1468	1514	1452
1399411433904624009	1531	1469	1514	1452
1399411433924632296	1515	1482	1514	1452
1399411433954727344	1515	1481	1514	1452
1399411433989677580	1511	1481	1514	1452
1399411434024710527	1505	1485	1514	1452
1399411434054528882	1505	1485	1514	1453
1399411434074714567	1510	1483	1514	1452
1399411434089706106	1510	1483	1514	1453
1399411434109723414	1513	1478	1514	1452
1399411434124745098	1514	1477	1514	1452
1399411434144744761	1514	1478	1514	1453
1399411434154640750	1513	1477	1514	1452
1399411434189638511	1518	1473	1514	1454
1399411434224644378	1518	1474	1514	1454
1399411434249701668	1520	1474	1514	1454
1399411434264669911	1519	1472	1514	1454
1399411434289550115	1521	1475	1514	1454
1399411434304609224	1522	1474	1514	1454
1399411434324665757	1521	1480	1514	1455
1399411434339724381	1519	1480	1514	1455
1399411434354705137	1520	1477	1514	1454
1399411434374730216	1520	1482	1514	1454
1399411434399744878	1521	1484	1514	1455
1399411434414778268	1516	1480	1514	1455
1399411434454740145	1517	1478	1514	1454
1399411434474736375	1511	1480	1514	1454
1399411434489530586	1511	1479	1514	1454
1399411434524741249	1512	1479	1514	1453
1399411434539723445	1512	1477	1514	1452
1399411434554706713	1512	1477	1514	1452
1399411434574779868	1516	1472	1514	1452
1399411434589707826	1517	1472	1514	1451
1399411434614596603	1518	1473	1514	1451
1399411434639737907	1517	1473	1514	1451
