#Time	 Roll 	 Pitch 	 Yaw 	 Thrust
1399434562502176557	1520	1516	1926	1105
1399434562602453110	1520	1516	1926	1105
1399434562702685336	1520	1516	1926	1105
1399434562802933863	1520	1516	1513	1105
1399434570189822144	1520	1516	1512	1378
1399434570209812102	1520	1515	1512	1378
1399434570224904654	1519	1516	1512	1378
1399434570239826181	1519	1516	1512	1378
1399434570259804370	1520	1515	1512	1378
1399434570274899878	1519	1516	1512	1378
1399434570304838686	1519	1515	1512	1378
1399434570324846989	1519	1515	1512	1378
1399434570354849198	1519	1515	1512	1378
1399434570374850369	1520	1516	1512	1378
1399434570404863348	1519	1515	1512	1378
1399434570439797306	1520	1516	1512	1378
1399434570459809755	1519	1516	1512	1378
1399434570474846455	1520	1516	1512	1378
1399434570489881968	1520	1515	1512	1378
1399434570509879331	1520	1515	1512	1378
1399434570524897899	1520	1516	1512	1378
1399434570554830997	1520	1517	1512	1378
1399434570569895421	1520	1515	1512	1378
1399434570589865716	1519	1515	1512	1378
1399434570609826627	1520	1515	1512	1378
1399434570624801161	1519	1515	1512	1377
1399434570654893454	1519	1516	1512	1378
1399434570689908981	1520	1516	1512	1427
1399434570710170743	1520	1515	1512	1427
1399434570725203742	1520	1515	1512	1427
1399434570740223132	1519	1516	1512	1427
1399434570760025440	1520	1517	1512	1427
1399434570789947609	1518	1516	1512	1427
1399434570810070576	1520	1516	1512	1428
1399434570839947905	1520	1515	1512	1428
1399434570859894398	1519	1516	1511	1428
1399434570889830884	1519	1516	1512	1428
1399434570909809818	1518	1515	1511	1428
1399434570939881096	1518	1515	1511	1428
1399434570959827277	1517	1515	1511	1428
1399434570974848940	1516	1515	1511	1428
1399434570989918559	1516	1516	1511	1428
1399434571009853401	1514	1517	1512	1428
1399434571024952495	1514	1516	1512	1428
1399434571054862510	1511	1518	1512	1427
1399434571070010455	1508	1518	1511	1426
1399434571089853953	1507	1516	1511	1426
1399434571109807555	1506	1517	1511	1426
1399434571139894386	1504	1519	1511	1426
1399434571169829736	1502	1518	1511	1425
1399434571204841061	1501	1519	1511	1424
1399434571214822127	1499	1518	1511	1423
1399434571234876693	1496	1519	1511	1423
1399434571254853717	1495	1520	1511	1423
1399434571269849574	1492	1521	1511	1423
1399434571289844767	1489	1522	1511	1422
1399434571309791568	1488	1519	1511	1421
1399434571324892362	1485	1523	1511	1421
1399434571354906441	1479	1521	1511	1420
1399434571369972011	1479	1520	1511	1420
1399434571404952749	1474	1521	1511	1420
1399434571424866160	1473	1521	1511	1418
1399434571439900694	1472	1521	1511	1416
1399434571459917933	1468	1522	1511	1417
1399434571474905492	1469	1522	1511	1418
1399434571489868410	1469	1525	1511	1417
1399434571509803748	1464	1523	1511	1415
1399434571539879535	1464	1525	1512	1415
1399434571559885580	1459	1525	1512	1414
1399434571589967249	1463	1524	1512	1414
1399434571609841003	1464	1525	1512	1414
1399434571639820867	1460	1522	1513	1413
1399434571669883122	1459	1525	1513	1414
1399434571684879572	1459	1522	1513	1413
1399434571699915280	1460	1525	1513	1414
1399434571714801333	1462	1521	1513	1413
1399434571739846959	1461	1522	1513	1412
1399434571759847431	1463	1522	1514	1413
1399434571774931874	1463	1522	1514	1411
1399434571805066622	1467	1523	1514	1412
1399434571820164922	1466	1523	1514	1414
1399434571840125413	1470	1523	1513	1413
1399434571870142969	1470	1523	1513	1414
1399434571905065398	1474	1521	1513	1414
1399434571920147579	1477	1521	1513	1413
1399434571935107909	1480	1522	1513	1414
1399434571949923868	1483	1523	1513	1415
1399434571964920488	1483	1521	1512	1416
1399434571989896017	1486	1522	1512	1417
1399434572009818681	1490	1521	1512	1416
1399434572024814147	1491	1520	1512	1417
1399434572054843326	1495	1520	1512	1417
1399434572069905532	1498	1520	1512	1417
1399434572089865188	1499	1520	1512	1419
1399434572119872712	1502	1520	1512	1420
1399434572154904815	1506	1518	1511	1421
1399434572164883767	1508	1517	1511	1421
1399434572184970576	1511	1517	1511	1420
1399434572199873580	1511	1518	1511	1422
1399434572224875164	1514	1519	1511	1422
1399434572254841580	1515	1521	1511	1423
1399434572275069215	1517	1518	1511	1423
1399434572305112887	1518	1519	1511	1424
1399434572325250701	1519	1518	1511	1424
1399434572355088016	1520	1519	1511	1424
1399434572389908830	1520	1520	1511	1424
1399434572410129813	1522	1521	1511	1426
1399434572425266593	1522	1520	1511	1425
1399434572440227488	1521	1521	1511	1426
1399434572460055881	1520	1521	1510	1427
1399434572475047946	1519	1522	1511	1427
1399434572505254448	1521	1524	1511	1428
1399434572519879041	1520	1523	1510	1428
1399434572540145937	1518	1523	1510	1428
1399434572559953069	1518	1524	1510	1429
1399434572575156197	1516	1525	1510	1428
1399434572605105105	1515	1525	1510	1429
1399434572640068681	1510	1526	1510	1430
1399434572660135051	1509	1525	1510	1430
1399434572675051372	1508	1525	1510	1430
1399434572690186321	1506	1526	1510	1430
1399434572710150983	1504	1528	1510	1431
1399434572740135561	1502	1527	1510	1431
1399434572760029020	1500	1528	1510	1431
1399434572790149468	1496	1528	1510	1432
1399434572810015447	1495	1528	1510	1431
1399434572840160445	1493	1528	1510	1432
1399434572860042469	1489	1527	1511	1432
1399434572890097906	1488	1527	1511	1432
1399434572910097271	1486	1527	1511	1431
1399434572925196183	1485	1528	1511	1432
1399434572940180478	1483	1529	1511	1434
1399434572960136664	1484	1528	1511	1433
1399434572975204385	1482	1527	1511	1433
1399434573005162873	1481	1529	1512	1433
1399434573020212963	1481	1528	1512	1433
1399434573040150680	1480	1527	1512	1433
1399434573060125199	1479	1525	1512	1433
1399434573090216814	1478	1524	1512	1433
1399434573120041641	1479	1523	1513	1433
1399434573135227540	1479	1524	1513	1434
1399434573150087206	1481	1522	1513	1433
1399434573165023609	1481	1523	1513	1434
1399434573185036086	1481	1523	1514	1434
1399434573205112138	1480	1524	1514	1434
1399434573220117606	1482	1522	1514	1433
1399434573239838190	1481	1523	1514	1435
1399434573259799928	1484	1522	1514	1434
1399434573274907489	1484	1522	1514	1434
1399434573304808218	1485	1519	1514	1433
1399434573319822148	1487	1520	1514	1434
1399434573354915451	1489	1519	1514	1435
1399434573374839830	1491	1519	1514	1434
1399434573390212157	1493	1520	1514	1434
1399434573410164180	1495	1519	1514	1435
1399434573425107449	1496	1519	1514	1436
1399434573455022196	1498	1518	1514	1434
1399434573470038867	1499	1519	1514	1435
1399434573489878165	1502	1518	1513	1434
1399434573510098197	1504	1517	1513	1434
1399434573525097743	1505	1519	1513	1434
1399434573555134775	1508	1516	1513	1434
1399434573590124408	1509	1519	1513	1435
1399434573609900108	1512	1519	1513	1434
1399434573625137323	1514	1518	1513	1435
1399434573640276520	1514	1520	1512	1435
1399434573659966656	1516	1519	1512	1434
1399434573675143056	1516	1521	1512	1435
1399434573705183867	1519	1521	1512	1435
1399434573720262334	1520	1520	1512	1434
1399434573740104061	1519	1520	1512	1435
1399434573760019388	1521	1521	1512	1436
1399434573775142110	1521	1520	1512	1434
1399434573805098543	1521	1522	1512	1436
1399434573840103349	1522	1522	1512	1435
1399434573860151821	1525	1523	1512	1436
1399434573875192280	1523	1523	1512	1436
1399434573890185905	1522	1525	1512	1436
1399434573910011636	1523	1523	1512	1435
1399434573925183054	1522	1526	1512	1436
1399434573955105639	1522	1524	1512	1435
1399434573970224729	1522	1524	1512	1435
1399434573990214869	1521	1524	1512	1435
1399434574009980889	1520	1524	1512	1435
1399434574025176358	1519	1524	1512	1435
1399434574055127305	1519	1522	1512	1434
1399434574090069213	1516	1524	1512	1434
1399434574110033384	1514	1523	1512	1434
1399434574125108885	1514	1525	1512	1433
1399434574140101866	1512	1525	1512	1434
1399434574160054541	1512	1524	1512	1433
1399434574175177300	1509	1524	1512	1435
1399434574205096715	1508	1525	1512	1433
1399434574225185876	1506	1524	1512	1433
1399434574255163470	1505	1522	1512	1434
1399434574289943187	1501	1523	1512	1434
1399434574320040328	1499	1523	1511	1433
1399434574350080664	1497	1523	1511	1434
1399434574364869737	1494	1522	1511	1434
1399434574385079348	1493	1523	1511	1434
1399434574400000132	1492	1523	1511	1434
1399434574415030561	1491	1522	1511	1432
1399434574440120802	1490	1522	1511	1433
1399434574460080443	1490	1521	1511	1433
1399434574490106219	1487	1524	1511	1434
1399434574510073357	1487	1522	1511	1432
1399434574540183865	1486	1521	1511	1433
1399434574575146096	1483	1523	1511	1433
1399434574600073083	1482	1522	1511	1432
1399434574615146046	1483	1523	1511	1434
1399434574635084735	1483	1522	1511	1434
1399434574650094627	1485	1522	1511	1434
1399434574675164730	1485	1521	1511	1434
1399434574704838003	1485	1522	1511	1436
1399434574724947004	1486	1520	1511	1435
1399434574755005995	1487	1520	1511	1435
1399434574774794986	1487	1521	1511	1435
1399434574804789766	1489	1520	1511	1436
1399434574819878600	1491	1519	1511	1436
1399434574855092473	1493	1520	1511	1436
1399434574865064545	1495	1519	1511	1436
1399434574885124520	1496	1518	1511	1437
1399434574905240117	1497	1517	1511	1437
1399434574920086148	1499	1515	1511	1436
1399434574940056758	1501	1516	1512	1436
1399434574960097953	1502	1517	1512	1437
1399434574975265119	1503	1517	1512	1437
1399434575005096261	1504	1516	1513	1437
1399434575020150607	1506	1516	1513	1437
1399434575055153727	1509	1515	1513	1437
1399434575075116357	1510	1514	1513	1436
1399434575090191479	1511	1516	1513	1437
1399434575110218713	1512	1514	1514	1437
1399434575125362539	1512	1513	1514	1437
1399434575140209339	1513	1512	1514	1437
1399434575160100922	1513	1513	1514	1436
1399434575175279197	1512	1513	1514	1436
1399434575205131694	1512	1514	1515	1437
1399434575220309851	1514	1512	1515	1437
1399434575240377300	1514	1512	1515	1437
1399434575260079674	1513	1513	1515	1437
1399434575290085324	1512	1514	1515	1437
1399434575320044948	1512	1514	1515	1437
1399434575335027226	1511	1512	1515	1437
1399434575350201959	1510	1513	1515	1437
1399434575365187868	1511	1513	1515	1436
1399434575385088675	1510	1514	1515	1437
1399434575405064342	1511	1515	1515	1437
1399434575420224522	1510	1516	1516	1438
1399434575440115219	1509	1516	1516	1437
1399434575459971396	1509	1516	1516	1437
1399434575475160405	1509	1515	1516	1438
1399434575505122784	1507	1517	1516	1437
1399434575540216662	1506	1517	1516	1437
1399434575560138741	1506	1518	1516	1438
1399434575575170424	1505	1517	1516	1439
1399434575590210603	1503	1517	1516	1438
1399434575610118188	1503	1517	1516	1438
1399434575625190907	1503	1517	1516	1437
1399434575655129793	1503	1517	1516	1438
1399434575675087757	1502	1518	1516	1438
1399434575705027367	1501	1519	1516	1439
1399434575725171990	1500	1520	1516	1439
1399434575755174624	1501	1520	1516	1438
1399434575790125959	1499	1522	1516	1438
1399434575820273550	1498	1524	1516	1438
1399434575835086560	1498	1525	1516	1438
1399434575850161867	1497	1526	1516	1439
1399434575865333524	1496	1525	1515	1438
1399434575890087176	1496	1525	1515	1437
1399434575910055924	1495	1526	1515	1438
1399434575925198484	1494	1527	1515	1438
1399434575955105140	1494	1527	1514	1437
1399434575970128557	1492	1529	1514	1437
1399434575990049805	1492	1529	1514	1437
1399434576020057577	1493	1531	1513	1436
1399434576055047209	1492	1532	1513	1436
1399434576070242038	1490	1534	1513	1437
1399434576085175043	1490	1535	1513	1437
1399434576100092382	1490	1535	1513	1435
1399434576120179799	1491	1534	1513	1435
1399434576140145534	1490	1535	1512	1436
1399434576160181855	1491	1537	1512	1435
1399434576175286369	1490	1535	1512	1436
1399434576205153463	1493	1535	1512	1435
1399434576240441699	1490	1535	1512	1436
1399434576270088968	1492	1535	1512	1437
1399434576300043308	1493	1534	1512	1437
1399434576315242868	1493	1532	1512	1437
1399434576335270600	1492	1533	1512	1437
1399434576350258520	1492	1533	1512	1436
1399434576375129767	1493	1531	1512	1436
1399434576405262459	1494	1530	1512	1438
1399434576425310256	1494	1528	1513	1437
1399434576455153918	1493	1528	1513	1436
1399434576475146021	1493	1526	1513	1436
1399434576505238870	1492	1525	1512	1437
1399434576520251766	1492	1523	1512	1437
1399434576555128800	1493	1523	1512	1437
1399434576570193293	1493	1521	1512	1436
1399434576585149458	1494	1521	1512	1437
1399434576600190211	1493	1520	1512	1438
1399434576619922733	1493	1519	1512	1438
1399434576639874912	1493	1517	1512	1438
1399434576659835904	1493	1516	1513	1438
1399434576674914852	1493	1516	1513	1438
1399434576704849551	1494	1515	1513	1438
1399434576719896230	1495	1513	1513	1438
1399434576755112068	1496	1511	1513	1439
1399434576790192631	1496	1509	1513	1440
1399434576810125451	1497	1506	1513	1440
1399434576825276246	1498	1505	1513	1439
1399434576840236740	1498	1508	1513	1441
1399434576860157114	1500	1506	1513	1440
1399434576875222865	1501	1505	1513	1441
1399434576905186689	1501	1505	1513	1440
1399434576920204288	1501	1505	1513	1440
1399434576940140216	1503	1505	1513	1440
1399434576960036177	1505	1504	1513	1440
1399434576990204591	1505	1506	1513	1440
1399434577020224994	1506	1506	1512	1440
1399434577035252451	1508	1506	1512	1439
1399434577050237615	1508	1508	1512	1440
1399434577065335886	1506	1508	1512	1440
1399434577085200825	1506	1509	1512	1441
1399434577105273277	1508	1510	1512	1440
1399434577125294742	1509	1510	1511	1440
1399434577155142274	1510	1511	1511	1441
1399434577175122765	1511	1513	1511	1441
1399434577205174908	1509	1514	1511	1441
1399434577225273694	1511	1516	1511	1441
1399434577254852233	1510	1518	1511	1442
1399434577290079981	1510	1521	1511	1443
1399434577310039365	1509	1521	1511	1443
1399434577325134544	1508	1522	1511	1443
1399434577340271536	1507	1525	1511	1444
1399434577360298742	1506	1526	1511	1444
1399434577375166477	1505	1526	1511	1445
1399434577405133508	1503	1526	1511	1445
1399434577420142621	1504	1528	1511	1446
1399434577460089128	1503	1527	1511	1446
1399434577475145529	1499	1531	1511	1447
1399434577505158277	1497	1532	1511	1448
1399434577515114727	1497	1532	1511	1448
1399434577534913580	1493	1533	1511	1448
1399434577550153936	1493	1534	1511	1448
1399434577565167376	1492	1536	1511	1449
1399434577590028548	1491	1535	1511	1448
1399434577610101353	1488	1536	1511	1448
1399434577640135968	1487	1535	1511	1449
1399434577660099705	1485	1534	1511	1448
1399434577690093723	1483	1536	1511	1449
1399434577724833356	1484	1534	1511	1448
1399434577754807337	1482	1534	1511	1448
1399434577774818102	1482	1533	1511	1447
1399434577789899763	1482	1533	1511	1448
1399434577809830149	1483	1531	1511	1448
1399434577824888089	1481	1531	1511	1448
1399434577854864455	1482	1530	1511	1448
1399434577869928952	1484	1530	1510	1448
1399434577890142376	1483	1527	1510	1447
1399434577910008550	1486	1526	1510	1447
1399434577925110032	1488	1524	1510	1446
1399434577955131773	1489	1523	1510	1446
1399434577990036424	1492	1521	1509	1446
1399434578010011939	1495	1520	1509	1446
1399434578025211800	1497	1519	1509	1446
1399434578040160738	1498	1517	1508	1446
1399434578060161308	1500	1516	1508	1445
1399434578090217978	1503	1517	1507	1446
1399434578110139342	1506	1515	1507	1445
1399434578140100715	1509	1513	1506	1446
1399434578160152631	1510	1514	1505	1446
1399434578190073135	1512	1512	1505	1446
1399434578225170108	1515	1510	1504	1446
1399434578255050619	1519	1508	1503	1446
1399434578270235405	1519	1509	1502	1447
1399434578285205939	1523	1508	1502	1446
1399434578300295198	1525	1508	1501	1446
1399434578319940442	1524	1510	1501	1446
1399434578340070546	1526	1509	1500	1446
1399434578360063743	1527	1509	1500	1446
1399434578375320685	1528	1508	1500	1445
1399434578405183961	1524	1510	1499	1446
1399434578420295769	1526	1508	1499	1445
1399434578440135276	1526	1512	1499	1447
1399434578470091659	1527	1509	1499	1446
1399434578505044980	1525	1510	1499	1446
1399434578520007715	1525	1510	1499	1445
1399434578535134196	1523	1512	1499	1446
1399434578550100640	1522	1512	1500	1446
1399434578570089998	1521	1512	1500	1446
1399434578590097938	1520	1513	1501	1446
1399434578610081500	1519	1514	1501	1446
1399434578625135606	1517	1514	1501	1446
1399434578655276540	1516	1516	1502	1446
1399434578670283611	1514	1517	1502	1447
1399434578690163397	1513	1516	1503	1446
1399434578719804095	1508	1517	1504	1446
1399434578735174243	1506	1517	1504	1446
1399434578750203289	1505	1516	1504	1446
1399434578765079330	1504	1517	1505	1447
1399434578785247590	1503	1518	1505	1447
1399434578800217228	1501	1518	1506	1446
1399434578825341236	1498	1518	1506	1447
1399434578854940642	1493	1519	1507	1447
1399434578875418657	1492	1519	1507	1447
1399434578905147165	1488	1520	1508	1447
1399434578925201576	1484	1520	1508	1448
1399434578955085848	1481	1519	1509	1448
1399434578970172532	1479	1517	1509	1448
1399434579004879385	1475	1519	1510	1448
1399434579014790104	1473	1519	1510	1448
1399434579034866719	1472	1517	1511	1447
1399434579054943033	1471	1518	1511	1447
1399434579069876026	1468	1519	1511	1447
1399434579089843561	1467	1519	1512	1447
1399434579109817129	1467	1520	1512	1447
1399434579124940569	1464	1522	1513	1447
1399434579154888603	1464	1520	1513	1447
1399434579170147679	1466	1521	1513	1446
1399434579205142382	1462	1520	1514	1446
1399434579225163483	1463	1523	1514	1447
1399434579240674030	1464	1519	1515	1446
1399434579260015510	1462	1521	1515	1446
1399434579275178456	1464	1522	1515	1447
1399434579290191162	1465	1522	1515	1447
1399434579325126191	1466	1523	1515	1448
1399434579355030767	1469	1524	1515	1446
1399434579375176215	1470	1525	1515	1448
1399434579405167404	1473	1525	1515	1449
1399434579440069099	1477	1528	1515	1449
1399434579470188973	1482	1527	1515	1449
1399434579485170864	1485	1527	1514	1449
1399434579500051623	1486	1527	1514	1449
1399434579515032830	1488	1528	1514	1449
1399434579540165532	1491	1528	1514	1449
1399434579560114755	1494	1529	1514	1450
1399434579575218514	1495	1530	1513	1449
1399434579605303488	1500	1529	1513	1450
1399434579620208894	1501	1530	1513	1450
1399434579639980755	1505	1530	1513	1450
1399434579669858157	1507	1531	1512	1451
1399434579704833836	1512	1531	1512	1451
1399434579714797369	1514	1529	1512	1451
1399434579734850776	1515	1529	1512	1451
1399434579749892946	1515	1530	1511	1451
1399434579764876549	1517	1531	1511	1452
1399434579789854189	1516	1530	1511	1452
1399434579809828872	1518	1532	1510	1451
1399434579839892493	1517	1529	1510	1453
1399434579859828702	1519	1527	1510	1453
1399434579889846864	1518	1527	1509	1452
1399434579924881584	1518	1525	1508	1452
1399434579954791503	1516	1525	1507	1452
1399434579970219027	1515	1523	1507	1451
1399434579985307899	1513	1522	1507	1452
1399434580000209603	1512	1523	1506	1453
1399434580020188735	1510	1521	1506	1452
1399434580040146518	1507	1520	1505	1452
1399434580060043544	1506	1519	1505	1452
1399434580075201940	1503	1517	1505	1452
1399434580105284835	1501	1516	1504	1452
1399434580120328882	1499	1513	1504	1452
1399434580140083996	1497	1511	1504	1452
1399434580170115346	1494	1510	1503	1452
1399434580205160494	1491	1507	1503	1452
1399434580215143998	1489	1505	1502	1452
1399434580235109786	1488	1505	1502	1452
1399434580250189738	1485	1503	1502	1453
1399434580270071943	1484	1501	1502	1452
1399434580290084557	1481	1499	1502	1452
1399434580310061464	1478	1496	1502	1453
1399434580325082132	1477	1498	1502	1453
1399434580355024241	1475	1491	1502	1452
1399434580370108029	1474	1491	1502	1452
1399434580390032299	1472	1491	1502	1453
1399434580420179554	1471	1488	1502	1453
1399434580455076243	1468	1487	1502	1453
1399434580465114619	1469	1482	1502	1453
1399434580485069315	1468	1486	1502	1453
1399434580505259762	1469	1484	1503	1452
1399434580520178290	1468	1481	1502	1452
1399434580540039154	1467	1481	1503	1453
1399434580560139363	1468	1481	1503	1452
1399434580575132268	1466	1482	1503	1454
1399434580605169240	1468	1482	1504	1453
1399434580620199405	1468	1480	1504	1453
1399434580655104460	1470	1481	1505	1452
1399434580675067470	1473	1483	1505	1451
1399434580690263547	1474	1484	1506	1451
1399434580710175629	1476	1484	1506	1451
1399434580725200587	1479	1484	1507	1451
1399434580740253643	1481	1486	1507	1451
1399434580760076334	1485	1487	1507	1450
1399434580775071073	1486	1489	1508	1451
1399434580805061846	1490	1490	1509	1449
1399434580820271322	1492	1492	1509	1450
1399434580840023884	1496	1493	1510	1450
1399434580860099192	1500	1496	1510	1449
1399434580890056945	1503	1497	1511	1449
1399434580920081853	1508	1498	1512	1448
1399434580935166020	1513	1504	1512	1449
1399434580950173357	1516	1503	1513	1448
1399434580965257940	1519	1506	1514	1448
1399434580985177383	1520	1509	1514	1448
1399434581005170626	1524	1510	1514	1448
1399434581020188326	1527	1510	1515	1446
1399434581040157182	1529	1516	1515	1448
1399434581060043302	1531	1518	1515	1447
1399434581075348631	1533	1518	1516	1446
1399434581105212499	1536	1522	1516	1446
1399434581120111957	1537	1524	1516	1446
1399434581154849227	1540	1528	1517	1446
1399434581174922352	1542	1531	1517	1446
1399434581190086288	1542	1534	1517	1446
1399434581210023601	1543	1537	1517	1447
1399434581225186080	1544	1538	1517	1447
1399434581254833126	1543	1541	1516	1446
1399434581269914874	1543	1543	1516	1446
1399434581289889904	1543	1545	1516	1446
1399434581309844630	1542	1547	1516	1445
1399434581324842163	1544	1549	1516	1446
1399434581354902271	1542	1550	1516	1445
1399434581389899680	1542	1554	1516	1445
1399434581409868550	1538	1556	1515	1446
1399434581424942087	1537	1554	1515	1444
1399434581439960876	1536	1559	1515	1446
1399434581459934191	1535	1559	1515	1445
1399434581474878877	1537	1557	1514	1445
1399434581489826284	1535	1559	1514	1445
1399434581509873290	1534	1558	1514	1445
1399434581539825033	1529	1558	1514	1445
1399434581559941358	1527	1555	1514	1443
1399434581589859099	1524	1554	1514	1445
1399434581624870520	1521	1551	1514	1445
1399434581654755567	1516	1548	1515	1446
1399434581664872798	1514	1546	1515	1445
1399434581684869806	1511	1544	1515	1446
1399434581699943936	1509	1543	1515	1446
1399434581714910938	1508	1539	1516	1447
1399434581739860363	1502	1536	1516	1447
1399434581759767667	1501	1532	1517	1447
1399434581789858015	1497	1526	1518	1448
1399434581809797257	1498	1522	1518	1448
1399434581839835868	1494	1518	1518	1448
1399434581874922786	1492	1511	1519	1448
1399434581904956943	1490	1505	1519	1448
1399434581919955206	1490	1500	1519	1447
1399434581934895302	1487	1500	1520	1450
1399434581949867551	1489	1495	1520	1449
1399434581969769171	1489	1491	1520	1449
1399434581989822868	1488	1488	1520	1449
1399434582009822037	1489	1487	1520	1449
1399434582024852650	1491	1485	1520	1449
1399434582054874288	1490	1480	1520	1449
1399434582069919716	1492	1478	1520	1449
1399434582089790725	1494	1476	1520	1449
1399434582119836474	1494	1473	1520	1449
1399434582154853206	1499	1471	1520	1449
1399434582164814055	1501	1471	1520	1449
1399434582184833670	1503	1470	1520	1449
1399434582199849308	1505	1471	1520	1449
1399434582219864856	1507	1468	1520	1449
1399434582239951617	1509	1469	1520	1449
1399434582259774344	1512	1470	1520	1449
1399434582274817906	1513	1470	1520	1450
1399434582304748949	1518	1470	1520	1449
1399434582319845696	1517	1472	1520	1450
1399434582339898683	1521	1474	1520	1450
1399434582369788039	1524	1476	1520	1449
1399434582404842773	1527	1480	1519	1450
1399434582434884971	1528	1484	1519	1450
1399434582449887243	1529	1487	1519	1451
1399434582469893567	1530	1490	1518	1451
1399434582489867552	1533	1493	1518	1451
1399434582509877386	1531	1497	1518	1451
1399434582524799065	1536	1499	1518	1452
1399434582554841020	1534	1504	1518	1452
1399434582569940000	1535	1506	1517	1452
1399434582604824034	1534	1511	1517	1453
1399434582639816073	1534	1519	1516	1455
1399434582659849741	1532	1523	1516	1455
1399434582674917247	1531	1526	1515	1456
1399434582690028310	1530	1529	1515	1456
1399434582709782259	1530	1531	1515	1457
1399434582724816858	1527	1535	1514	1458
1399434582754873858	1527	1537	1513	1458
1399434582769881280	1525	1539	1513	1457
1399434582789922128	1522	1544	1512	1459
1399434582809752016	1519	1546	1512	1458
1399434582839858843	1517	1551	1511	1459
1399434582869804724	1512	1555	1510	1459
1399434582899847884	1507	1555	1509	1458
1399434582914884639	1506	1558	1508	1458
1399434582934860500	1504	1560	1508	1458
1399434582954871402	1498	1562	1508	1458
1399434582969850201	1497	1565	1507	1458
1399434582989852734	1495	1562	1506	1458
1399434583009842083	1490	1565	1506	1458
1399434583024861769	1489	1565	1505	1457
1399434583054814689	1484	1563	1504	1458
1399434583069906705	1482	1562	1504	1456
1399434583104917649	1479	1561	1503	1457
1399434583124897171	1474	1557	1502	1455
1399434583139870931	1471	1559	1502	1456
1399434583159767922	1470	1555	1501	1455
1399434583174910454	1471	1553	1501	1455
1399434583204835136	1466	1551	1501	1454
1399434583219907604	1465	1548	1501	1454
1399434583239887644	1463	1544	1500	1454
1399434583259817137	1461	1540	1500	1453
1399434583274898630	1460	1538	1500	1452
1399434583304797195	1460	1531	1500	1451
1399434583339758782	1459	1527	1500	1452
1399434583359847295	1458	1521	1501	1450
1399434583374857212	1458	1519	1501	1451
1399434583389903427	1462	1514	1501	1451
1399434583409824415	1463	1510	1501	1449
1399434583424903611	1464	1506	1502	1450
1399434583454841937	1466	1500	1502	1448
1399434583469861120	1467	1499	1503	1449
1399434583489913142	1469	1493	1503	1448
1399434583509824622	1472	1486	1504	1447
1399434583524886498	1472	1487	1504	1448
1399434583554929310	1475	1482	1505	1447
1399434583589815246	1480	1479	1505	1447
1399434583609835693	1486	1475	1506	1446
1399434583624881000	1487	1473	1506	1445
1399434583639874893	1490	1472	1506	1445
1399434583659848576	1492	1471	1507	1446
1399434583674886149	1495	1469	1507	1446
1399434583704822389	1500	1471	1507	1446
1399434583719890533	1502	1471	1507	1446
1399434583739863470	1505	1470	1508	1446
1399434583759862624	1507	1473	1508	1447
1399434583774806026	1510	1474	1508	1448
1399434583804834743	1513	1471	1509	1447
1399434583839844322	1517	1475	1510	1447
1399434583859840737	1518	1479	1510	1448
1399434583874859682	1521	1479	1511	1447
1399434583889865880	1521	1482	1511	1448
1399434583909803741	1522	1484	1511	1449
1399434583924825193	1522	1485	1512	1449
1399434583954846356	1523	1490	1512	1448
1399434583969846585	1525	1490	1512	1448
1399434583989809444	1523	1492	1513	1449
1399434584009812747	1522	1497	1513	1449
1399434584024885138	1523	1496	1513	1448
1399434584054865984	1520	1500	1514	1449
1399434584089791468	1517	1507	1514	1449
1399434584109802313	1516	1510	1515	1449
1399434584124780419	1514	1512	1515	1450
1399434584139901475	1513	1512	1515	1449
1399434584159902738	1509	1514	1516	1450
1399434584174909710	1511	1518	1516	1449
1399434584204865045	1505	1520	1516	1450
1399434584219835515	1504	1522	1516	1450
1399434584239894992	1502	1523	1517	1449
1399434584267062579	1502	1529	1517	1450
1399434584274800298	1501	1530	1517	1450
1399434584304826844	1498	1532	1517	1450
1399434584339903800	1494	1534	1517	1450
1399434584359866783	1492	1537	1516	1450
1399434584374838208	1489	1538	1516	1451
1399434584389788611	1488	1537	1516	1450
1399434584409941817	1483	1539	1516	1450
1399434584424812502	1482	1542	1516	1450
1399434584454825409	1478	1540	1515	1451
1399434584469827460	1477	1540	1515	1450
1399434584490208192	1474	1543	1514	1452
1399434584510200393	1472	1542	1514	1452
1399434584540136002	1470	1545	1514	1452
1399434584569873315	1468	1545	1513	1452
1399434584590204143	1467	1545	1513	1453
1399434584610057479	1465	1547	1512	1453
1399434584624856278	1466	1544	1512	1453
1399434584639856957	1462	1545	1512	1453
1399434584659918511	1461	1545	1511	1453
1399434584689867757	1461	1543	1511	1454
1399434584709886143	1461	1543	1511	1454
1399434584739862805	1459	1541	1510	1454
1399434584759769543	1456	1539	1510	1453
1399434584789851832	1460	1539	1510	1454
1399434584809827368	1462	1537	1510	1454
1399434584839893211	1465	1535	1509	1454
1399434584859796621	1467	1532	1509	1453
1399434584874895807	1467	1531	1509	1453
1399434584889918743	1469	1531	1508	1454
1399434584909837765	1471	1529	1508	1455
1399434584924856691	1473	1528	1508	1456
1399434584939875871	1473	1526	1508	1456
1399434584959801998	1476	1522	1507	1455
1399434584974849274	1476	1522	1507	1455
1399434585004836228	1479	1520	1507	1456
1399434585019898524	1482	1518	1507	1455
1399434585054890335	1484	1517	1506	1456
1399434585074769189	1489	1514	1506	1456
1399434585089852840	1490	1514	1506	1456
1399434585109853285	1493	1512	1506	1456
1399434585124882015	1495	1511	1506	1456
1399434585155009927	1498	1509	1506	1455
1399434585169897898	1500	1509	1506	1457
1399434585189862256	1502	1508	1506	1456
1399434585209926280	1503	1506	1506	1456
1399434585224960280	1506	1507	1506	1456
1399434585254836086	1508	1506	1507	1455
1399434585289801567	1511	1504	1507	1455
1399434585309953231	1514	1504	1507	1454
1399434585324839633	1515	1506	1507	1455
1399434585339890054	1517	1504	1507	1455
1399434585359867564	1519	1505	1507	1455
1399434585374789325	1518	1505	1507	1454
1399434585404850143	1520	1506	1507	1454
1399434585419949380	1523	1507	1507	1455
1399434585439955642	1521	1508	1507	1454
1399434585459949047	1522	1508	1507	1454
1399434585475051529	1522	1509	1507	1455
1399434585504987450	1523	1510	1507	1454
1399434585539901462	1520	1510	1507	1454
1399434585560141270	1520	1510	1508	1453
1399434585575168722	1517	1511	1508	1454
1399434585590166030	1518	1510	1508	1453
1399434585610121545	1518	1511	1508	1453
1399434585625231320	1514	1512	1509	1453
1399434585655063328	1514	1511	1509	1453
1399434585670047278	1513	1512	1509	1453
1399434585689891784	1512	1513	1510	1452
1399434585709916112	1510	1513	1510	1451
1399434585725192496	1509	1512	1510	1451
1399434585755150766	1508	1513	1511	1450
1399434585789907107	1506	1514	1511	1450
1399434585810025680	1503	1514	1511	1450
1399434585824994988	1502	1515	1511	1450
1399434585840043369	1501	1515	1511	1450
1399434585860054238	1501	1516	1511	1450
1399434585874906331	1501	1515	1511	1450
1399434585904857174	1499	1516	1511	1449
1399434585924897057	1498	1515	1511	1450
1399434585954905034	1497	1514	1511	1450
1399434585974957616	1497	1515	1511	1450
1399434586004837001	1496	1514	1511	1450
1399434586039809287	1496	1513	1511	1450
1399434586059912804	1494	1512	1511	1450
1399434586074907809	1494	1512	1510	1450
1399434586089920851	1494	1511	1510	1450
1399434586109840329	1494	1513	1510	1450
1399434586124836345	1492	1511	1510	1450
1399434586154796401	1493	1511	1510	1451
1399434586169869361	1492	1512	1510	1451
1399434586189915882	1492	1510	1509	1451
1399434586209866815	1493	1511	1509	1451
1399434586224836420	1493	1510	1509	1452
1399434586254855164	1492	1507	1509	1452
1399434586289878190	1493	1505	1509	1452
1399434586310100688	1494	1505	1508	1452
1399434586324796828	1495	1505	1508	1452
1399434586339789944	1495	1503	1508	1453
1399434586359810748	1497	1502	1508	1453
1399434586389889506	1497	1501	1507	1452
1399434586409845187	1498	1499	1507	1451
1399434586439832448	1501	1499	1507	1452
1399434586459791706	1502	1498	1506	1453
1399434586489917336	1504	1496	1506	1452
1399434586509828119	1505	1495	1506	1452
1399434586539873763	1507	1494	1506	1452
1399434586559826334	1510	1492	1506	1452
1399434586574813369	1510	1494	1506	1453
1399434586590023309	1511	1494	1506	1453
1399434586609919532	1512	1493	1506	1453
1399434586624906981	1512	1492	1505	1452
1399434586654920769	1512	1492	1505	1452
1399434586669892873	1514	1493	1505	1453
1399434586689855367	1515	1490	1505	1451
1399434586709773699	1516	1490	1505	1451
1399434586739857018	1517	1491	1505	1451
1399434586769823152	1518	1490	1505	1452
1399434586799861684	1520	1488	1505	1452
1399434586814873939	1518	1490	1505	1452
1399434586834883533	1518	1491	1505	1451
1399434586854879862	1520	1490	1505	1451
1399434586869892984	1518	1490	1505	1452
1399434586890028568	1518	1491	1505	1452
1399434586909816806	1519	1492	1506	1451
1399434586924844699	1518	1490	1506	1452
1399434586954846084	1517	1492	1506	1452
1399434586969864940	1518	1493	1506	1451
1399434587004905294	1517	1495	1507	1451
1399434587024817752	1515	1495	1507	1452
1399434587039896190	1515	1496	1508	1451
1399434587059962132	1514	1496	1508	1451
1399434587074857664	1513	1498	1508	1451
1399434587104858378	1512	1498	1509	1450
1399434587124923300	1511	1498	1509	1451
1399434587154824971	1510	1500	1510	1451
1399434587169895809	1509	1501	1510	1450
1399434587189818097	1507	1502	1510	1450
1399434587219832310	1507	1505	1510	1450
1399434587239884691	1505	1506	1511	1450
1399434587259830889	1503	1508	1511	1450
1399434587274877716	1502	1508	1511	1449
1399434587289887157	1502	1510	1511	1450
1399434587309884390	1500	1511	1511	1450
1399434587324839368	1500	1511	1511	1449
1399434587363944649	1499	1513	1511	1450
1399434587374931684	1497	1513	1511	1449
1399434587404760024	1497	1515	1511	1449
1399434587419831853	1497	1516	1511	1449
1399434587439939239	1496	1517	1511	1449
1399434587469852904	1493	1518	1512	1450
1399434587504804383	1492	1519	1511	1449
1399434587519825970	1492	1522	1511	1450
1399434587534866672	1490	1521	1511	1450
1399434587549920710	1491	1521	1511	1449
1399434587564833279	1491	1521	1511	1449
1399434587589787778	1490	1524	1511	1451
1399434587609760883	1489	1522	1511	1450
1399434587624792994	1489	1524	1510	1450
1399434587654802076	1488	1523	1510	1451
1399434587669923860	1489	1524	1510	1450
1399434587689957005	1487	1525	1510	1451
1399434587719969451	1487	1526	1509	1451
1399434587739841987	1487	1526	1509	1452
1399434587759886181	1486	1526	1508	1451
1399434587774880444	1486	1524	1508	1451
1399434587789928320	1487	1527	1508	1452
1399434587809797076	1489	1526	1508	1452
1399434587839808275	1487	1526	1508	1452
1399434587859818497	1488	1524	1507	1451
1399434587889870190	1488	1525	1507	1451
1399434587909764117	1489	1524	1507	1451
1399434587939798059	1489	1523	1507	1451
1399434587974909932	1489	1524	1507	1451
1399434588004842579	1489	1523	1507	1451
1399434588019835140	1490	1523	1507	1451
1399434588034947618	1491	1522	1507	1451
1399434588049892449	1490	1521	1507	1451
1399434588069868308	1490	1521	1507	1451
1399434588089889156	1490	1521	1507	1451
1399434588109831243	1491	1521	1507	1451
1399434588124922755	1490	1521	1507	1452
1399434588154826134	1491	1520	1507	1451
1399434588169909772	1491	1520	1507	1452
1399434588189894734	1490	1520	1507	1452
1399434588219828885	1491	1520	1507	1452
1399434588254829805	1491	1519	1508	1452
1399434588264815378	1491	1518	1508	1453
1399434588284825449	1491	1518	1508	1453
1399434588299875777	1492	1517	1508	1452
1399434588319869888	1492	1517	1508	1452
1399434588339833071	1492	1517	1509	1453
1399434588359831852	1493	1516	1509	1453
1399434588374897795	1493	1516	1509	1452
1399434588404831641	1494	1515	1510	1453
1399434588419835004	1494	1515	1510	1453
1399434588454777228	1494	1514	1510	1453
1399434588474817806	1495	1514	1511	1453
1399434588489857209	1495	1514	1511	1453
1399434588509849706	1496	1514	1511	1453
1399434588524853772	1497	1513	1511	1453
1399434588539887115	1498	1512	1512	1454
1399434588559790459	1499	1511	1512	1453
1399434588574779824	1499	1511	1512	1453
1399434588604795562	1500	1510	1513	1453
1399434588619874935	1501	1509	1513	1453
1399434588639898991	1501	1509	1513	1453
1399434588659869592	1503	1508	1513	1454
1399434588689840402	1504	1507	1513	1453
1399434588719862648	1506	1507	1513	1453
1399434588734937223	1507	1505	1513	1453
1399434588749871259	1507	1506	1513	1453
1399434588764902342	1509	1506	1513	1453
1399434588784832743	1510	1504	1513	1452
1399434588804850422	1510	1505	1513	1453
1399434588819930465	1512	1504	1513	1453
1399434588839933596	1512	1502	1513	1453
1399434588859778168	1514	1502	1513	1453
1399434588874812204	1515	1502	1512	1453
1399434588904792451	1516	1499	1512	1452
1399434588939873473	1519	1501	1512	1452
1399434588959803483	1519	1501	1511	1453
1399434588974837824	1521	1497	1511	1452
1399434588989831020	1522	1499	1511	1453
1399434589009846482	1523	1499	1511	1452
1399434589025019444	1524	1501	1510	1453
1399434589054800228	1525	1497	1510	1452
1399434589074895921	1525	1497	1509	1452
1399434589104833816	1528	1498	1508	1453
1399434589124857103	1528	1498	1508	1453
1399434589154889732	1531	1496	1507	1453
1399434589189853959	1531	1496	1506	1454
1399434589219991024	1530	1497	1505	1454
1399434589234935112	1531	1496	1504	1453
1399434589249962428	1530	1497	1504	1454
1399434589265011994	1530	1497	1504	1454
1399434589289917615	1530	1496	1503	1454
1399434589309843669	1530	1497	1503	1454
1399434589324840525	1528	1496	1502	1454
1399434589354850514	1528	1496	1502	1453
1399434589369909899	1527	1497	1502	1453
1399434589389878494	1528	1496	1502	1453
1399434589419900604	1527	1496	1502	1453
1399434589454861168	1524	1497	1502	1453
1399434589474839049	1523	1496	1502	1452
1399434589489895642	1523	1496	1502	1452
1399434589509822837	1521	1496	1503	1452
1399434589524887456	1521	1496	1503	1452
1399434589554955351	1519	1496	1504	1451
1399434589569823138	1518	1496	1504	1452
1399434589589945888	1516	1496	1504	1452
1399434589609872238	1516	1496	1505	1453
1399434589625047780	1515	1497	1505	1453
1399434589654861061	1514	1495	1506	1453
1399434589689832943	1511	1496	1506	1454
1399434589734850282	1508	1498	1507	1454
1399434589749781498	1507	1497	1508	1455
1399434589769815968	1507	1498	1508	1454
1399434589789868256	1506	1499	1508	1455
1399434589809930937	1505	1500	1508	1454
1399434589824886720	1503	1501	1509	1455
1399434589854883006	1503	1501	1509	1454
1399434589869865353	1501	1503	1509	1455
1399434589884918514	1503	1502	1509	1454
1399434589919868127	1501	1503	1510	1454
1399434589949826631	1502	1504	1510	1453
1399434589964918016	1501	1505	1510	1453
1399434589984866430	1501	1504	1511	1454
1399434589999890955	1501	1505	1511	1454
1399434590024854177	1502	1506	1511	1454
1399434590054849733	1500	1506	1511	1453
1399434590074801450	1502	1506	1512	1454
1399434590104847685	1502	1505	1513	1454
1399434590124857776	1502	1506	1513	1453
1399434590154827464	1501	1507	1513	1453
1399434590169809464	1501	1506	1514	1453
1399434590204833143	1503	1505	1515	1452
1399434590214792470	1502	1505	1515	1452
1399434590234890051	1502	1505	1515	1452
1399434590249860063	1502	1505	1516	1453
1399434590269804994	1502	1504	1516	1453
1399434590289838377	1502	1504	1517	1452
1399434590309756581	1503	1503	1517	1452
1399434590324827140	1503	1503	1517	1452
1399434590354851835	1502	1503	1518	1452
1399434590369835514	1503	1503	1518	1451
1399434590404825640	1504	1502	1518	1451
1399434590424850351	1503	1503	1518	1451
1399434590439822445	1504	1503	1518	1451
1399434590459818851	1505	1502	1518	1451
1399434590474962037	1504	1503	1518	1451
1399434590489939662	1504	1502	1518	1451
1399434590509852047	1504	1503	1518	1450
1399434590539882631	1505	1504	1517	1450
1399434590559840720	1505	1506	1517	1451
1399434590589865394	1505	1506	1517	1449
1399434590609968965	1506	1506	1516	1449
1399434590639829100	1506	1507	1516	1449
1399434590659850220	1506	1510	1515	1449
1399434590674936685	1506	1510	1515	1450
1399434590689918627	1506	1509	1515	1449
1399434590709915553	1506	1510	1514	1449
1399434590725016207	1505	1511	1514	1448
1399434590739918375	1505	1512	1513	1448
1399434590759754780	1504	1512	1513	1448
1399434590789904278	1505	1514	1512	1449
1399434590809803413	1506	1515	1511	1449
1399434590839959714	1503	1515	1510	1449
1399434590875116606	1504	1517	1510	1450
1399434590905175469	1505	1517	1509	1450
1399434590925146117	1504	1518	1508	1450
1399434590940126858	1504	1518	1508	1451
1399434590960191763	1504	1518	1508	1451
1399434590975306047	1505	1518	1507	1451
1399434591005223545	1503	1517	1507	1451
1399434591020090190	1504	1518	1507	1452
1399434591039840617	1504	1517	1506	1452
1399434591059815694	1505	1516	1506	1452
1399434591074905845	1504	1515	1506	1452
1399434591104856481	1505	1515	1505	1453
1399434591139864244	1504	1514	1505	1453
1399434591159762245	1505	1513	1505	1454
1399434591174879610	1504	1513	1505	1455
1399434591189901394	1505	1511	1505	1455
1399434591209909081	1506	1510	1505	1455
1399434591224838312	1506	1510	1505	1455
1399434591254828455	1506	1508	1505	1456
1399434591269885300	1505	1507	1505	1456
1399434591289855426	1505	1506	1505	1456
1399434591309802549	1505	1505	1505	1456
1399434591324857676	1506	1504	1506	1456
1399434591354832090	1504	1502	1506	1456
1399434591389912760	1505	1500	1506	1457
1399434591409829803	1504	1498	1507	1457
1399434591424875971	1505	1498	1507	1457
1399434591439879480	1506	1496	1507	1457
1399434591459800574	1505	1496	1507	1457
1399434591474873830	1506	1496	1507	1458
1399434591504847494	1506	1494	1508	1456
1399434591519917817	1507	1494	1508	1457
1399434591539833643	1507	1495	1508	1457
1399434591559782481	1508	1493	1509	1456
1399434591574866031	1507	1493	1509	1456
1399434591604839206	1508	1494	1509	1457
1399434591639875633	1509	1494	1510	1456
1399434591659834599	1510	1494	1510	1457
1399434591674872648	1511	1494	1510	1456
1399434591689869460	1512	1494	1511	1455
1399434591709847644	1512	1494	1511	1454
1399434591739873594	1515	1495	1512	1455
1399434591759824289	1514	1497	1512	1455
1399434591789847586	1516	1498	1513	1455
1399434591809854518	1517	1498	1513	1455
1399434591840034809	1516	1500	1514	1455
1399434591874807722	1516	1502	1515	1455
1399434591905043286	1516	1505	1516	1455
1399434591920184716	1517	1506	1516	1454
1399434591934866306	1516	1506	1516	1454
1399434591949824218	1516	1509	1517	1454
1399434591969864347	1517	1510	1517	1454
1399434591989888738	1517	1512	1518	1453
1399434592009765986	1516	1513	1518	1453
1399434592024846861	1516	1515	1518	1454
1399434592055088271	1515	1517	1518	1453
1399434592070159486	1516	1518	1518	1453
1399434592090073474	1515	1521	1519	1454
1399434592120011040	1513	1523	1519	1453
1399434592140067984	1513	1526	1519	1453
1399434592160074357	1512	1527	1519	1453
1399434592175075768	1512	1530	1519	1453
1399434592190096091	1512	1532	1519	1453
1399434592210088206	1512	1531	1519	1453
1399434592245038913	1510	1533	1519	1453
1399434592260220638	1509	1535	1519	1454
1399434592290060019	1508	1538	1518	1454
1399434592310093417	1508	1541	1518	1454
1399434592340100995	1505	1540	1518	1454
1399434592360073960	1504	1541	1518	1454
1399434592390169426	1502	1543	1517	1453
1399434592410087053	1501	1544	1517	1454
1399434592425222280	1500	1544	1517	1454
1399434592440179085	1499	1543	1517	1453
1399434592460018727	1499	1545	1517	1453
1399434592475041740	1498	1545	1516	1453
1399434592505060547	1494	1544	1516	1453
1399434592520301248	1494	1544	1516	1453
1399434592540255446	1493	1544	1516	1454
1399434592560031125	1492	1544	1515	1453
1399434592590173900	1490	1543	1515	1453
1399434592620069268	1489	1541	1515	1453
1399434592635142411	1488	1542	1515	1454
1399434592650271687	1488	1540	1514	1454
1399434592665252733	1486	1540	1514	1453
1399434592685176150	1487	1538	1514	1452
1399434592705148046	1487	1540	1514	1453
1399434592720175792	1486	1538	1513	1453
1399434592740032486	1485	1536	1513	1454
1399434592760172075	1485	1535	1513	1453
1399434592775200199	1484	1534	1513	1453
1399434592804883054	1483	1531	1512	1453
1399434592840126406	1482	1529	1512	1454
1399434592860011588	1483	1528	1512	1454
1399434592875093030	1485	1527	1511	1453
1399434592890137054	1484	1526	1511	1454
1399434592910158808	1483	1525	1511	1455
1399434592925093394	1485	1522	1511	1455
1399434592954950472	1485	1522	1510	1455
1399434592974768523	1486	1520	1510	1455
1399434593004885345	1486	1517	1510	1456
1399434593024900302	1487	1515	1510	1455
1399434593054852845	1488	1515	1510	1456
1399434593089837369	1491	1511	1509	1455
1399434593119813631	1493	1509	1509	1455
1399434593134908964	1494	1508	1509	1456
1399434593149864652	1496	1507	1509	1455
1399434593164912472	1497	1507	1509	1456
1399434593184867670	1499	1505	1509	1456
1399434593204905252	1500	1503	1508	1455
1399434593220052297	1502	1503	1509	1456
1399434593234885920	1503	1501	1509	1455
1399434593254885698	1503	1502	1509	1455
1399434593269840056	1504	1500	1508	1455
1399434593284848608	1506	1500	1508	1456
1399434593304882038	1508	1498	1508	1456
1399434593334790754	1509	1497	1508	1455
1399434593354837033	1512	1495	1508	1455
1399434593364789282	1514	1494	1509	1455
1399434593384835746	1514	1493	1509	1455
1399434593399848731	1517	1492	1509	1455
1399434593414852791	1519	1490	1508	1455
1399434593439923431	1520	1490	1508	1455
1399434593459792691	1521	1490	1508	1455
1399434593489792976	1524	1489	1508	1455
1399434593509765887	1526	1490	1508	1456
1399434593539809478	1528	1488	1508	1456
1399434593574764890	1530	1487	1507	1455
1399434593604816082	1532	1487	1507	1455
1399434593619923614	1531	1485	1507	1455
1399434593634847552	1533	1486	1507	1455
1399434593649835087	1536	1487	1506	1454
1399434593669837635	1534	1491	1506	1455
1399434593689848121	1536	1490	1506	1455
1399434593709769999	1535	1491	1506	1455
1399434593724846045	1536	1492	1505	1455
1399434593754785480	1536	1492	1505	1455
1399434593769888112	1537	1493	1505	1454
1399434593789792245	1537	1495	1504	1455
1399434593819792228	1537	1497	1504	1456
1399434593854790871	1536	1499	1503	1455
1399434593864876526	1535	1502	1503	1455
1399434593884876743	1535	1502	1503	1455
1399434593899882205	1534	1503	1503	1456
1399434593919871693	1533	1505	1503	1455
1399434593939829523	1533	1506	1502	1455
1399434593959885342	1532	1507	1502	1455
1399434593974867740	1531	1508	1502	1454
1399434594004950822	1530	1511	1502	1456
1399434594019852032	1530	1512	1502	1456
1399434594054858464	1528	1514	1503	1455
1399434594074858225	1528	1518	1503	1454
1399434594099774317	1525	1517	1504	1455
1399434594114829295	1523	1520	1504	1455
1399434594134862340	1522	1520	1504	1454
1399434594154958282	1521	1522	1505	1455
1399434594174940731	1520	1522	1505	1455
1399434594204887351	1519	1524	1506	1454
1399434594224824547	1518	1524	1507	1454
1399434594254844460	1514	1523	1508	1454
1399434594274880613	1514	1525	1508	1455
1399434594304827145	1513	1525	1509	1454
1399434594319920147	1512	1525	1509	1455
1399434594354793396	1510	1525	1510	1455
1399434594364795542	1510	1522	1510	1454
1399434594384899596	1508	1523	1511	1453
1399434594404888508	1507	1524	1511	1453
1399434594419912984	1505	1524	1511	1454
1399434594439822769	1505	1522	1512	1454
1399434594459787374	1506	1522	1513	1453
1399434594474835675	1504	1521	1513	1453
1399434594504868043	1503	1519	1514	1453
1399434594519914841	1503	1519	1514	1453
1399434594554872032	1501	1518	1515	1453
1399434594574835403	1500	1517	1516	1453
1399434594589908768	1500	1516	1517	1453
1399434594609843282	1500	1516	1517	1453
1399434594624898287	1500	1516	1517	1454
1399434594639863424	1500	1514	1517	1454
1399434594659893951	1500	1515	1518	1454
1399434594674964425	1500	1513	1518	1453
1399434594704913965	1501	1512	1518	1454
1399434594719919127	1501	1511	1518	1454
1399434594739902243	1502	1510	1518	1454
1399434594769865537	1503	1510	1518	1455
1399434594809667380	1506	1508	1518	1455
1399434594819836225	1506	1509	1517	1456
1399434594834925555	1509	1508	1517	1456
1399434594849874977	1511	1507	1517	1455
1399434594864842038	1513	1506	1517	1455
1399434594889863280	1513	1506	1516	1455
1399434594909804932	1515	1507	1516	1456
1399434594939834431	1518	1505	1515	1455
1399434594959828662	1521	1503	1514	1454
1399434594989816806	1523	1504	1514	1454
1399434595024851503	1526	1503	1513	1454
1399434595054804593	1530	1502	1512	1452
1399434595064826022	1532	1503	1512	1453
1399434595084878025	1532	1504	1512	1454
1399434595099860964	1534	1502	1511	1453
1399434595114841234	1535	1503	1511	1455
1399434595139904418	1537	1503	1510	1453
1399434595159874537	1538	1503	1510	1454
1399434595189881850	1540	1502	1510	1454
1399434595209835008	1541	1502	1510	1454
1399434595239913016	1540	1502	1509	1453
1399434595274930098	1542	1501	1509	1453
1399434595304850370	1541	1501	1509	1453
1399434595324891374	1542	1500	1509	1452
1399434595339897342	1542	1499	1509	1451
1399434595359851940	1540	1499	1509	1452
1399434595374869857	1540	1499	1510	1452
1399434595389859271	1540	1498	1510	1452
1399434595409872363	1540	1498	1510	1452
1399434595424908776	1540	1498	1510	1451
1399434595454889515	1539	1495	1511	1451
1399434595469894562	1538	1497	1511	1452
1399434595484934291	1538	1497	1511	1451
1399434595519823297	1537	1495	1512	1452
1399434595554781527	1535	1494	1512	1452
1399434595564775973	1534	1494	1513	1452
1399434595584872687	1534	1493	1513	1451
1399434595599903759	1532	1495	1514	1452
1399434595614993865	1530	1494	1514	1452
1399434595639939844	1529	1493	1514	1452
1399434595659803816	1528	1494	1514	1452
1399434595689852488	1525	1493	1515	1453
1399434595709794050	1523	1495	1515	1454
1399434595739842880	1521	1492	1515	1453
1399434595774855969	1519	1494	1515	1454
1399434595799815207	1516	1494	1514	1455
1399434595814818551	1514	1493	1514	1454
1399434595834890312	1513	1495	1514	1454
1399434595849888488	1510	1497	1514	1454
1399434595874873331	1508	1496	1513	1454
1399434595904816904	1504	1498	1513	1456
1399434595924908563	1503	1499	1513	1455
1399434595954859805	1498	1499	1513	1454
1399434595974855999	1495	1501	1512	1455
1399434596004905661	1495	1502	1512	1455
1399434596019875660	1493	1501	1511	1455
1399434596039792448	1491	1503	1511	1455
1399434596059822937	1489	1505	1511	1455
1399434596074833565	1488	1504	1510	1455
1399434596089904159	1489	1506	1510	1455
1399434596109859886	1485	1508	1510	1455
1399434596124916128	1484	1509	1509	1455
1399434596154815324	1482	1510	1509	1454
1399434596169816458	1483	1511	1509	1455
1399434596189832498	1481	1510	1508	1454
1399434596209792926	1479	1512	1508	1454
1399434596239750675	1481	1512	1508	1455
1399434596269840007	1480	1513	1508	1454
1399434596284855950	1478	1512	1508	1454
1399434596299909151	1481	1514	1508	1455
1399434596314854798	1481	1513	1508	1454
1399434596334805831	1482	1515	1508	1454
1399434596354863818	1482	1514	1508	1454
1399434596369892883	1483	1513	1508	1454
1399434596389870042	1484	1514	1508	1454
1399434596409776966	1484	1515	1507	1454
1399434596424937948	1484	1515	1507	1454
1399434596454886771	1485	1514	1507	1453
1399434596469869162	1487	1514	1507	1453
1399434596504846393	1490	1516	1507	1454
1399434596524813718	1490	1514	1507	1454
1399434596554890623	1493	1513	1506	1453
1399434596574832334	1494	1512	1506	1452
1399434596589895306	1496	1513	1506	1453
1399434596609830214	1496	1514	1506	1454
1399434596624890371	1497	1513	1506	1454
1399434596639895869	1499	1512	1506	1453
1399434596659822856	1499	1512	1505	1453
1399434596674948497	1500	1512	1505	1453
1399434596689829366	1501	1511	1505	1453
1399434596719864533	1502	1510	1505	1453
1399434596739789033	1502	1510	1505	1452
1399434596769862775	1505	1508	1506	1452
1399434596784884652	1505	1510	1506	1452
1399434596799878084	1505	1508	1506	1452
1399434596815236129	1506	1508	1506	1453
1399434596840198891	1506	1506	1507	1452
1399434596860069167	1507	1505	1507	1452
1399434596875241778	1507	1505	1507	1452
1399434596890123888	1507	1505	1508	1452
1399434596909842354	1508	1505	1508	1452
1399434596925132029	1509	1504	1509	1453
1399434596940206573	1510	1503	1509	1452
1399434596970123008	1510	1501	1510	1452
1399434596990030336	1509	1501	1510	1452
1399434597020054703	1511	1500	1511	1452
1399434597035055722	1511	1500	1511	1452
1399434597050256959	1512	1499	1512	1452
1399434597065172620	1513	1500	1512	1452
1399434597085269889	1514	1498	1513	1452
1399434597105132459	1513	1498	1513	1452
1399434597120196675	1514	1497	1513	1452
1399434597134906917	1515	1495	1514	1452
1399434597154913851	1514	1495	1514	1452
1399434597169869044	1515	1495	1514	1451
1399434597189873310	1516	1494	1515	1452
1399434597219793634	1516	1494	1515	1452
1399434597254871792	1518	1491	1515	1451
1399434597264821943	1518	1492	1515	1453
1399434597284923362	1518	1492	1516	1452
1399434597299904866	1519	1491	1516	1450
1399434597314874848	1520	1491	1516	1451
1399434597339870132	1520	1492	1516	1452
1399434597359755047	1520	1492	1516	1451
1399434597390000817	1522	1491	1516	1452
1399434597409874321	1523	1490	1516	1452
1399434597439817277	1524	1490	1517	1451
1399434597474835367	1525	1490	1516	1451
1399434597504853224	1525	1490	1517	1451
1399434597519829633	1525	1492	1517	1451
1399434597534848505	1527	1490	1517	1450
1399434597549831150	1526	1492	1516	1452
1399434597569936670	1528	1491	1517	1451
1399434597589918479	1528	1491	1517	1451
1399434597609855349	1528	1493	1517	1451
1399434597624948178	1530	1493	1517	1451
1399434597654856927	1530	1493	1517	1451
1399434597669904714	1531	1493	1517	1451
1399434597689977040	1530	1495	1517	1451
1399434597719789770	1531	1495	1517	1451
1399434597739874954	1533	1496	1517	1451
1399434597759793366	1532	1497	1517	1452
1399434597774883230	1533	1497	1517	1452
1399434597789876287	1533	1499	1517	1453
1399434597809860223	1533	1498	1517	1453
1399434597824887487	1535	1499	1517	1452
1399434597854936125	1533	1501	1516	1453
1399434597869819245	1534	1502	1516	1453
1399434597889870692	1533	1503	1516	1453
1399434597909907126	1533	1503	1516	1454
1399434597939821756	1534	1505	1515	1454
1399434597969846907	1533	1505	1515	1454
1399434597984832570	1534	1505	1514	1453
1399434597999892509	1533	1506	1514	1453
1399434598014913569	1534	1506	1514	1453
1399434598034894684	1534	1508	1513	1454
1399434598054825716	1534	1509	1513	1455
1399434598074841046	1533	1507	1512	1454
1399434598104851373	1533	1509	1512	1456
1399434598124909840	1532	1507	1511	1455
1399434598154852016	1532	1509	1511	1455
1399434598174815614	1530	1508	1510	1455
1399434598204882514	1530	1509	1509	1456
1399434598219887522	1529	1507	1509	1456
1399434598239994136	1527	1507	1508	1456
1399434598260002279	1527	1508	1508	1456
1399434598274883384	1526	1507	1508	1456
1399434598289846638	1525	1508	1507	1456
1399434598309799537	1524	1507	1507	1456
1399434598324900216	1523	1507	1507	1457
1399434598355048339	1521	1506	1507	1456
1399434598369920768	1520	1505	1507	1456
1399434598384912302	1520	1505	1506	1456
1399434598404912220	1519	1504	1506	1457
1399434598419926681	1518	1504	1506	1457
1399434598439821197	1517	1505	1506	1457
1399434598469810105	1515	1503	1506	1457
1399434598499891620	1515	1502	1506	1457
1399434598514911385	1513	1501	1506	1457
1399434598534899745	1513	1499	1507	1457
1399434598554888694	1512	1500	1507	1457
1399434598569945787	1513	1499	1507	1457
1399434598589922807	1512	1497	1508	1457
1399434598609838441	1512	1497	1508	1456
1399434598624994982	1512	1496	1508	1457
1399434598639894718	1512	1496	1509	1457
1399434598659901854	1512	1496	1509	1457
1399434598684930783	1512	1495	1509	1458
1399434598704861136	1514	1494	1510	1457
1399434598724789461	1515	1495	1511	1457
1399434598739831039	1514	1494	1511	1458
1399434598759858322	1514	1493	1511	1457
1399434598774970376	1515	1493	1511	1457
1399434598805008506	1517	1492	1512	1458
1399434598819941798	1517	1492	1512	1457
1399434598839888203	1519	1493	1513	1457
1399434598859789515	1521	1492	1513	1458
1399434598909934620	1524	1494	1514	1457
1399434598934831343	1524	1494	1514	1456
1399434598954874603	1526	1495	1515	1456
1399434598964790515	1527	1497	1515	1456
1399434598984904850	1528	1497	1515	1456
1399434598999863537	1529	1498	1515	1456
1399434599014984323	1530	1499	1515	1455
1399434599039824698	1531	1501	1516	1456
1399434599059796646	1533	1502	1516	1455
1399434599089874884	1533	1505	1515	1455
1399434599109873311	1534	1505	1515	1455
1399434599139885008	1534	1508	1515	1455
1399434599174900821	1536	1510	1515	1454
1399434599204916770	1535	1511	1515	1453
1399434599219975023	1535	1511	1514	1453
1399434599234872118	1535	1512	1514	1453
1399434599249958428	1537	1516	1514	1452
1399434599269896269	1535	1515	1514	1453
1399434599284923033	1536	1518	1514	1453
1399434599304893018	1535	1516	1514	1452
1399434599319953420	1534	1518	1514	1452
1399434599339862621	1534	1519	1514	1451
1399434599359859289	1534	1521	1514	1452
1399434599374873724	1531	1520	1514	1452
1399434599404860882	1533	1519	1514	1450
1399434599434923792	1530	1521	1514	1449
1399434599454863237	1530	1521	1514	1449
1399434599469867566	1528	1519	1514	1449
1399434599484879972	1528	1520	1514	1448
1399434599499883111	1527	1522	1514	1449
1399434599519852140	1525	1520	1514	1449
1399434599534785284	1524	1519	1514	1449
1399434599554812233	1526	1521	1513	1449
1399434599569894562	1524	1519	1513	1450
1399434599589962433	1523	1518	1513	1449
1399434599609802952	1521	1520	1513	1450
1399434599624879860	1521	1517	1513	1450
1399434599654829384	1519	1518	1513	1451
1399434599684857771	1518	1517	1512	1451
1399434599699899279	1517	1516	1513	1452
1399434599714877882	1515	1518	1512	1453
1399434599734881493	1516	1515	1512	1453
1399434599749838463	1515	1514	1512	1453
1399434599774972512	1514	1514	1512	1453
1399434599804931900	1513	1512	1511	1453
1399434599824899386	1513	1512	1511	1453
1399434599854817821	1513	1512	1511	1452
1399434599874821556	1512	1511	1511	1453
1399434599904865985	1511	1511	1511	1453
1399434599919894031	1511	1510	1511	1453
1399434599939854680	1510	1509	1511	1452
1399434599959812608	1510	1509	1511	1453
1399434599974895695	1510	1508	1511	1453
1399434599989873763	1510	1506	1511	1452
1399434600009775198	1509	1508	1511	1452
1399434600024867690	1510	1508	1511	1452
1399434600055002786	1512	1505	1512	1452
1399434600069902723	1512	1505	1512	1452
1399434600089894220	1511	1505	1513	1452
1399434600109862229	1512	1504	1513	1452
1399434600139918492	1512	1505	1514	1452
1399434600169862698	1511	1504	1515	1453
1399434600184901560	1511	1503	1515	1453
1399434600199796534	1513	1502	1516	1453
1399434600215102742	1512	1500	1516	1453
1399434600234815117	1512	1501	1517	1453
1399434600254910643	1513	1501	1517	1453
1399434600269932034	1513	1500	1517	1453
1399434600289919508	1513	1498	1518	1452
1399434600309816079	1514	1499	1518	1453
1399434600324825964	1514	1498	1519	1452
1399434600354871440	1512	1498	1519	1452
1399434600369918456	1511	1499	1519	1453
1399434600404913959	1509	1498	1520	1452
1399434600424835404	1509	1498	1520	1452
1399434600439826715	1508	1500	1520	1453
1399434600459852466	1507	1499	1520	1453
1399434600474869610	1506	1500	1520	1452
1399434600489900445	1506	1501	1520	1453
1399434600509782312	1504	1503	1520	1454
1399434600524907059	1503	1502	1520	1453
1399434600554824373	1503	1504	1520	1453
1399434600569937273	1501	1505	1519	1454
1399434600589878226	1499	1506	1519	1453
1399434600619789349	1496	1507	1518	1454
1399434600654879340	1493	1510	1518	1455
1399434600669928206	1494	1509	1517	1455
1399434600684962025	1493	1510	1517	1455
1399434600699898694	1489	1512	1516	1456
1399434600714910977	1488	1512	1516	1455
1399434600739889678	1487	1515	1515	1456
1399434600759782711	1486	1517	1514	1456
1399434600789840679	1484	1518	1513	1457
1399434600809957978	1482	1518	1513	1457
1399434600839856891	1480	1520	1512	1457
1399434600874888884	1477	1522	1511	1458
1399434600904861221	1477	1522	1510	1457
1399434600924867406	1475	1523	1509	1458
1399434600939873859	1474	1522	1509	1458
1399434600959842167	1473	1522	1509	1458
1399434600974832268	1473	1523	1508	1459
1399434600990022477	1472	1523	1508	1460
1399434601009769674	1473	1522	1508	1459
1399434601024861269	1473	1521	1508	1458
1399434601039973504	1471	1522	1507	1459
1399434601059795480	1472	1523	1507	1460
1399434601074927757	1471	1520	1507	1459
1399434601104834668	1473	1522	1507	1461
1399434601139992519	1473	1521	1506	1460
1399434601159825286	1474	1519	1506	1461
1399434601174868017	1477	1520	1506	1461
1399434601189884258	1476	1519	1507	1461
1399434601209843122	1476	1520	1506	1461
1399434601224882658	1478	1518	1506	1461
1399434601254855341	1479	1518	1506	1461
1399434601269847610	1482	1518	1506	1462
1399434601289905662	1483	1517	1506	1462
1399434601309872396	1483	1516	1506	1461
1399434601324834415	1485	1516	1506	1462
1399434601354822591	1489	1514	1506	1461
1399434601389833844	1493	1514	1507	1462
1399434601409790098	1496	1513	1507	1463
1399434601424896738	1499	1512	1507	1462
1399434601439875771	1502	1510	1507	1462
1399434601459872327	1504	1510	1507	1461
1399434601474885561	1506	1510	1507	1461
1399434601504817456	1510	1510	1507	1462
1399434601519880549	1511	1511	1508	1462
1399434601539906627	1516	1508	1508	1461
1399434601559869307	1518	1508	1508	1461
1399434601574896543	1520	1506	1508	1460
1399434601604908118	1522	1507	1509	1461
1399434601639840851	1528	1504	1509	1461
1399434601659926069	1529	1505	1509	1461
1399434601675011080	1531	1503	1510	1460
1399434601689865245	1534	1502	1510	1460
1399434601709851999	1535	1501	1510	1460
1399434601724876838	1537	1502	1510	1459
1399434601754892869	1538	1501	1510	1461
1399434601769922756	1540	1501	1511	1459
1399434601789963316	1540	1499	1511	1459
1399434601809787489	1542	1498	1511	1458
1399434601839824514	1542	1498	1512	1459
1399434601869836578	1542	1498	1512	1459
1399434601884860184	1543	1497	1512	1459
1399434601899882176	1541	1498	1513	1460
1399434601914887472	1543	1496	1513	1458
1399434601934958284	1543	1495	1513	1459
1399434601954927802	1544	1496	1514	1459
1399434601974838357	1543	1495	1514	1458
