#Time	 Roll 	 Pitch 	 Yaw 	 Thrust
1399094856449430293	1507	1516	1514	1378
1399094856459461437	1507	1517	1514	1378
1399094856474487553	1507	1517	1514	1378
1399094856489428313	1507	1516	1514	1378
1399094856494474394	1507	1515	1514	1378
1399094856509504803	1506	1516	1514	1378
1399094856519529619	1507	1516	1514	1378
1399094856524415764	1506	1516	1514	1378
1399094856539586509	1507	1516	1514	1378
1399094856544398743	1507	1516	1514	1378
1399094856554582841	1506	1516	1514	1378
1399094856569427855	1508	1515	1514	1378
1399094856574364827	1507	1515	1514	1378
1399094856584424932	1507	1515	1514	1378
1399094856594460592	1507	1516	1514	1378
1399094856599438117	1507	1515	1514	1378
1399094856609515192	1508	1515	1514	1378
1399094856619577510	1507	1515	1514	1378
1399094856624423913	1508	1515	1514	1378
1399094856634513444	1508	1515	1514	1378
1399094856644443087	1507	1516	1514	1378
1399094856649394493	1507	1515	1514	1378
1399094856659456506	1507	1515	1514	1378
1399094856669437236	1507	1516	1514	1378
1399094856674391548	1507	1516	1514	1378
1399094856684504479	1507	1516	1514	1378
1399094856694390041	1507	1516	1514	1378
1399094856709465266	1507	1516	1514	1378
1399094856724578496	1507	1516	1514	1378
1399094856734430800	1507	1516	1514	1378
1399094856744473205	1508	1516	1514	1378
1399094856759541889	1507	1516	1514	1378
1399094856774443475	1507	1516	1514	1378
1399094856789459882	1507	1515	1514	1378
1399094856794344270	1506	1516	1514	1378
1399094856814413257	1507	1516	1514	1378
1399094856819487356	1507	1515	1514	1378
1399094856824375384	1507	1516	1514	1378
1399094856839455923	1506	1515	1514	1378
1399094856844360248	1507	1515	1514	1378
1399094856869506524	1507	1515	1514	1378
1399094856874387319	1507	1516	1514	1378
1399094856889553727	1507	1515	1514	1378
1399094856894505778	1507	1516	1514	1378
1399094856899491569	1507	1515	1514	1378
1399094856909490586	1506	1514	1514	1377
1399094856919415367	1507	1516	1514	1378
1399094856929502657	1507	1515	1514	1377
1399094856939362138	1506	1516	1514	1378
1399094856944516423	1507	1514	1514	1377
1399094856954475839	1507	1515	1514	1434
1399094856959496370	1508	1514	1514	1426
1399094856974477294	1507	1515	1514	1427
1399094856989426292	1507	1514	1514	1427
1399094856994450553	1507	1516	1514	1427
1399094857004441090	1506	1514	1514	1427
1399094857009397460	1506	1516	1514	1428
1399094857019381295	1508	1515	1514	1428
1399094857039429638	1507	1516	1514	1428
1399094857044370464	1508	1515	1514	1428
1399094857054410002	1508	1515	1514	1428
1399094857059403570	1507	1514	1514	1428
1399094857074424287	1508	1514	1514	1429
1399094857089418907	1508	1515	1514	1429
1399094857094357307	1509	1513	1514	1429
1399094857099386402	1509	1515	1514	1430
1399094857119492744	1509	1514	1514	1430
1399094857124396576	1509	1515	1514	1430
1399094857134197120	1510	1515	1514	1430
1399094857144313127	1509	1515	1514	1430
1399094857154391584	1511	1514	1514	1430
1399094857159360345	1510	1515	1514	1431
1399094857169433430	1511	1514	1514	1430
1399094857174464835	1509	1514	1514	1431
1399094857189478624	1509	1514	1514	1431
1399094857194488055	1509	1512	1514	1431
1399094857199404225	1507	1511	1514	1430
1399094857209406925	1508	1511	1514	1431
1399094857219407316	1507	1510	1514	1431
1399094857224592006	1508	1510	1514	1431
1399094857239395690	1507	1509	1514	1431
1399094857244502031	1508	1507	1514	1431
1399094857259482051	1507	1508	1514	1432
1399094857269401707	1508	1507	1514	1432
1399094857279484606	1509	1507	1514	1431
1399094857289352451	1508	1508	1514	1433
1399094857294359042	1507	1504	1514	1432
1399094857304459924	1507	1505	1514	1433
1399094857309401366	1506	1505	1514	1432
1399094857319406641	1506	1505	1514	1433
1399094857324347613	1505	1504	1514	1433
1399094857339425912	1507	1505	1514	1433
1399094857344364708	1503	1502	1514	1433
1399094857354454003	1505	1501	1514	1433
1399094857359405364	1504	1502	1514	1434
1399094857369440435	1505	1499	1514	1433
1399094857384427488	1505	1500	1514	1434
1399094857389386350	1505	1500	1514	1434
1399094857404496386	1506	1496	1514	1435
1399094857409438905	1507	1496	1514	1435
1399094857419517258	1506	1495	1514	1436
1399094857424440939	1508	1495	1514	1434
1399094857434475656	1504	1496	1514	1437
1399094857444468008	1509	1493	1514	1435
1399094857454392899	1507	1493	1514	1436
1399094857459382527	1507	1494	1514	1436
1399094857469434121	1509	1493	1514	1436
1399094857474355056	1508	1493	1514	1436
1399094857489423910	1508	1495	1514	1436
1399094857494507128	1508	1490	1514	1436
1399094857504469204	1509	1491	1514	1436
1399094857509386885	1509	1491	1514	1437
1399094857524753308	1511	1491	1514	1436
1399094857539614906	1510	1490	1514	1437
1399094857544377732	1511	1486	1514	1437
1399094857554463661	1512	1486	1514	1438
1399094857559391997	1510	1485	1514	1437
1399094857569347879	1511	1485	1514	1438
1399094857574544439	1511	1485	1514	1437
1399094857584448704	1510	1485	1514	1438
1399094857594593031	1514	1483	1514	1439
1399094857599441787	1513	1481	1514	1438
1399094857609773703	1514	1482	1514	1439
1399094857619480076	1513	1481	1514	1438
1399094857624448481	1513	1481	1514	1439
1399094857639374271	1512	1481	1514	1438
1399094857644332152	1515	1477	1514	1439
1399094857649429763	1513	1477	1514	1438
1399094857659485834	1514	1476	1514	1438
1399094857674422633	1514	1475	1514	1438
1399094857689521897	1513	1475	1514	1439
1399094857694462735	1513	1470	1514	1438
1399094857709509043	1514	1471	1514	1438
1399094857724609128	1515	1470	1514	1439
1399094857739479480	1514	1472	1514	1439
1399094857744387679	1515	1469	1514	1439
1399094857749531609	1515	1470	1514	1439
1399094857769531174	1516	1469	1514	1439
1399094857774442361	1515	1468	1514	1439
1399094857789475511	1515	1468	1514	1440
1399094857794442942	1515	1471	1514	1438
1399094857804505107	1515	1472	1514	1440
1399094857809366390	1514	1471	1514	1439
1399094857819462705	1516	1471	1514	1440
1399094857824400992	1515	1471	1514	1440
1399094857834391901	1516	1468	1514	1439
1399094857849455787	1517	1473	1514	1440
1399094857859500169	1516	1472	1514	1440
1399094857869437659	1516	1471	1514	1439
1399094857874414187	1516	1470	1514	1440
1399094857889471736	1515	1469	1514	1439
1399094857894459117	1514	1473	1514	1439
1399094857899359289	1512	1471	1514	1439
1399094857909434210	1512	1473	1514	1440
1399094857924534117	1513	1470	1514	1439
1399094857939500163	1513	1468	1514	1438
1399094857944423897	1512	1471	1514	1439
1399094857954412598	1514	1470	1514	1439
1399094857959455187	1514	1469	1514	1439
1399094857974524558	1513	1470	1514	1438
1399094857989481095	1513	1469	1514	1438
1399094857994501316	1514	1472	1514	1437
1399094857999462874	1512	1473	1514	1439
1399094858019517810	1512	1472	1514	1438
1399094858024421037	1513	1471	1514	1437
1399094858039475413	1512	1471	1514	1438
1399094858044406316	1518	1477	1514	1438
1399094858054431510	1519	1477	1514	1437
1399094858059378647	1517	1476	1514	1438
1399094858069443304	1517	1478	1514	1438
1399094858074420982	1516	1475	1514	1438
1399094858089522001	1518	1476	1514	1437
1399094858104483028	1521	1479	1514	1438
1399094858109436672	1521	1478	1514	1437
1399094858119477928	1521	1479	1514	1439
1399094858124518901	1521	1476	1514	1436
1399094858134509027	1520	1476	1514	1437
1399094858144516782	1520	1476	1514	1437
1399094858154459976	1520	1474	1514	1438
1399094858159478467	1520	1473	1514	1437
1399094858169439197	1520	1472	1514	1437
1399094858174415139	1520	1473	1514	1438
1399094858184356758	1521	1470	1514	1435
1399094858194383917	1517	1469	1514	1438
1399094858204369173	1516	1468	1514	1437
1399094858209452863	1517	1468	1514	1438
1399094858224505923	1517	1468	1514	1437
1399094858239455964	1516	1467	1514	1437
1399094858244433360	1516	1468	1514	1437
1399094858254479141	1514	1466	1514	1438
1399094858259453536	1515	1464	1514	1436
1399094858269519661	1514	1465	1514	1438
1399094858274393366	1515	1465	1514	1437
1399094858289463028	1513	1464	1514	1438
1399094858294444225	1510	1467	1514	1437
1399094858304495272	1510	1465	1514	1436
1399094858309382735	1511	1466	1514	1438
1399094858319418219	1510	1466	1514	1437
1399094858324349415	1511	1466	1514	1438
1399094858334413848	1509	1467	1514	1438
1399094858344473414	1510	1470	1514	1438
1399094858354465328	1509	1471	1514	1438
1399094858359450750	1509	1468	1514	1437
1399094858369446807	1509	1471	1514	1439
1399094858374454473	1510	1471	1514	1437
1399094858389439349	1510	1471	1514	1440
1399094858394442051	1512	1472	1514	1438
1399094858409479048	1512	1472	1514	1438
1399094858424561191	1512	1471	1514	1438
1399094858439486574	1513	1471	1514	1438
1399094858444368523	1515	1473	1514	1440
1399094858459545166	1514	1473	1514	1439
1399094858469569484	1514	1473	1514	1439
1399094858474476018	1515	1473	1514	1440
1399094858489455362	1515	1475	1514	1440
1399094858494453905	1517	1478	1514	1439
1399094858504466629	1516	1479	1514	1441
1399094858519492623	1516	1478	1514	1439
1399094858524366306	1516	1478	1514	1439
1399094858539535781	1516	1479	1514	1441
1399094858544516902	1515	1478	1514	1439
1399094858554553637	1516	1479	1514	1441
1399094858559498922	1516	1479	1514	1440
1399094858569517115	1516	1479	1514	1440
1399094858574464036	1516	1479	1514	1441
1399094858584453611	1516	1478	1514	1440
1399094858594565953	1513	1477	1514	1442
1399094858599431485	1515	1477	1514	1440
1399094858609512973	1514	1478	1514	1443
1399094858624502526	1515	1478	1514	1442
1399094858634490881	1515	1478	1514	1442
1399094858644576621	1516	1478	1514	1442
1399094858649449403	1516	1478	1514	1443
1399094858659536989	1518	1479	1514	1443
1399094858674481144	1518	1478	1514	1442
1399094858694522704	1520	1475	1514	1443
1399094858704469731	1519	1476	1514	1444
1399094858709434126	1520	1475	1514	1443
1399094858719477170	1519	1475	1514	1444
1399094858724412933	1520	1475	1514	1443
1399094858739495792	1521	1476	1514	1444
1399094858744482387	1521	1475	1514	1444
1399094858754445077	1522	1475	1514	1444
1399094858759442118	1521	1475	1514	1444
1399094858769508863	1522	1475	1514	1444
1399094858774455071	1520	1476	1514	1445
1399094858789505883	1522	1476	1514	1445
1399094858794446218	1518	1476	1514	1446
1399094858804524142	1519	1476	1514	1446
1399094858809463565	1519	1475	1514	1446
1399094858819537122	1519	1474	1514	1446
1399094858824383590	1520	1474	1514	1446
1399094858834516363	1520	1474	1514	1447
1399094858849362967	1520	1472	1514	1447
1399094858854444828	1519	1471	1514	1447
1399094858859415380	1520	1472	1514	1448
1399094858869470353	1520	1471	1514	1447
1399094858874386157	1520	1474	1514	1448
1399094858884466890	1520	1471	1514	1448
1399094858894452118	1517	1472	1514	1448
1399094858904478639	1517	1472	1514	1448
1399094858909437257	1517	1471	1514	1449
1399094858919561225	1517	1471	1514	1449
1399094858924455217	1517	1471	1514	1449
1399094858939447286	1516	1472	1514	1449
1399094858944294347	1517	1471	1514	1450
1399094858954392072	1517	1473	1514	1450
1399094858959427369	1517	1472	1514	1450
1399094858969461528	1517	1473	1514	1450
1399094858974434645	1517	1472	1514	1450
1399094858989409974	1518	1472	1514	1450
1399094858994449008	1519	1473	1514	1449
1399094859004477844	1521	1473	1514	1451
1399094859009414147	1520	1474	1514	1450
1399094859019473525	1521	1473	1514	1450
1399094859024426715	1520	1475	1514	1451
1399094859039457546	1521	1474	1514	1451
1399094859044458868	1521	1475	1514	1452
1399094859054428278	1522	1476	1514	1451
1399094859059458485	1523	1475	1514	1452
1399094859069493700	1522	1476	1514	1452
1399094859089478321	1523	1476	1514	1452
1399094859094507922	1523	1479	1514	1451
1399094859104474479	1522	1477	1514	1451
1399094859109396468	1523	1479	1514	1451
1399094859119449438	1523	1477	1514	1451
1399094859129513039	1523	1478	1514	1452
1399094859139463647	1524	1478	1514	1452
1399094859144457949	1528	1475	1514	1452
1399094859159529525	1527	1476	1514	1452
1399094859169453544	1526	1477	1514	1452
1399094859174502445	1527	1475	1514	1452
1399094859189479008	1528	1477	1514	1452
1399094859194326269	1521	1478	1514	1453
1399094859209475781	1521	1478	1514	1453
1399094859219434186	1521	1478	1514	1453
1399094859224456181	1520	1478	1514	1452
1399094859239568689	1522	1479	1514	1453
1399094859244391537	1517	1477	1514	1453
1399094859254424325	1518	1476	1514	1453
1399094859259446730	1518	1477	1514	1452
1399094859269491329	1518	1476	1514	1452
1399094859274436201	1518	1476	1514	1453
1399094859289436833	1518	1475	1514	1452
1399094859294472259	1520	1473	1514	1452
1399094859304472709	1518	1473	1514	1452
1399094859309420309	1519	1473	1514	1453
1399094859319514209	1518	1472	1514	1452
1399094859324385683	1519	1473	1514	1452
1399094859334461880	1518	1472	1514	1453
1399094859344479091	1513	1474	1514	1452
1399094859354432631	1513	1474	1514	1453
1399094859359369475	1513	1473	1514	1453
1399094859369454040	1512	1474	1514	1453
1399094859374407612	1513	1473	1514	1453
1399094859384471178	1512	1473	1514	1454
1399094859394123898	1514	1470	1514	1453
1399094859404443178	1515	1472	1514	1454
1399094859409394330	1514	1471	1514	1453
1399094859419502747	1515	1472	1514	1454
1399094859424366243	1513	1472	1514	1454
1399094859439536981	1514	1472	1514	1455
1399094859454508582	1516	1472	1514	1455
1399094859459416198	1516	1471	1514	1455
1399094859469459802	1516	1472	1514	1454
1399094859474352059	1517	1472	1514	1455
1399094859489452743	1515	1472	1514	1455
1399094859504482538	1517	1476	1514	1455
1399094859509466887	1518	1477	1514	1455
1399094859519484312	1516	1476	1514	1455
1399094859524441034	1516	1477	1514	1456
1399094859549595733	1518	1480	1514	1455
1399094859559167668	1517	1481	1514	1455
1399094859569469829	1518	1481	1514	1455
1399094859589515067	1517	1481	1514	1456
1399094859594368050	1517	1481	1514	1456
1399094859604425732	1515	1484	1514	1455
1399094859609344566	1515	1484	1514	1455
1399094859619413130	1516	1483	1514	1455
1399094859624438220	1515	1484	1514	1455
1399094859634245722	1515	1484	1514	1455
1399094859644195924	1512	1485	1514	1456
1399094859654244585	1514	1484	1514	1455
1399094859659182484	1513	1484	1514	1456
1399094859674305215	1513	1484	1514	1455
1399094859689244303	1513	1484	1514	1455
1399094859694256369	1513	1485	1514	1456
1399094859704246423	1515	1483	1514	1456
1399094859709536052	1516	1482	1514	1455
1399094859724528752	1515	1483	1514	1455
1399094859739486956	1515	1484	1514	1456
1399094859744468763	1516	1480	1514	1455
1399094859754459611	1515	1482	1514	1456
1399094859759452962	1514	1481	1514	1455
1399094859784497088	1515	1482	1514	1456
1399094859794555565	1515	1482	1514	1456
1399094859799451947	1517	1482	1514	1455
1399094859814465155	1517	1482	1514	1456
1399094859819453561	1516	1482	1514	1455
1399094859824390846	1517	1481	1514	1455
1399094859839502080	1515	1482	1514	1455
1399094859844427040	1517	1479	1514	1456
1399094859849411682	1515	1480	1514	1456
1399094859864516013	1516	1479	1514	1456
1399094859869407110	1516	1480	1514	1456
1399094859874503371	1515	1479	1514	1455
1399094859889447997	1516	1480	1514	1457
1399094859894465960	1515	1478	1514	1455
1399094859904482837	1516	1479	1514	1456
1399094859909401451	1513	1476	1514	1456
1399094859919459786	1514	1477	1514	1456
1399094859939446098	1514	1477	1514	1456
1399094859944503998	1516	1475	1514	1456
1399094859954546761	1515	1476	1514	1456
1399094859959411125	1515	1475	1514	1457
1399094859969481766	1514	1474	1514	1456
1399094859974394921	1514	1475	1514	1457
1399094859989537300	1514	1474	1514	1456
1399094859994460584	1515	1475	1514	1456
1399094860004527972	1514	1475	1514	1457
1399094860009392714	1514	1476	1514	1457
1399094860019481894	1514	1475	1514	1457
1399094860024406623	1514	1476	1514	1457
1399094860039468451	1513	1475	1514	1457
1399094860044456239	1516	1475	1514	1458
1399094860054510018	1515	1477	1514	1457
1399094860059437862	1515	1476	1514	1457
1399094860074471655	1515	1477	1514	1457
1399094860084440151	1516	1477	1514	1458
1399094860094541807	1515	1477	1514	1456
1399094860104563604	1515	1477	1514	1458
1399094860109489351	1515	1477	1514	1457
1399094860119444105	1517	1481	1514	1458
1399094860124437295	1516	1484	1514	1458
1399094860144511738	1516	1482	1514	1457
1399094860154438703	1517	1485	1514	1456
1399094860159411146	1518	1485	1514	1458
1399094860169453997	1517	1485	1514	1457
1399094860174432159	1518	1484	1514	1458
1399094860189427088	1518	1485	1514	1457
1399094860204444343	1517	1487	1514	1457
1399094860209463866	1517	1487	1514	1456
1399094860219497348	1517	1488	1514	1458
1399094860224398428	1517	1488	1514	1456
1399094860239547170	1517	1489	1514	1458
1399094860244401959	1515	1488	1514	1456
1399094860254471456	1516	1488	1514	1457
1399094860259467973	1515	1488	1514	1457
1399094860269492870	1516	1490	1514	1457
1399094860274469496	1515	1490	1514	1457
1399094860289514262	1515	1490	1514	1457
1399094860294427584	1515	1490	1514	1458
1399094860304482463	1512	1489	1514	1456
1399094860309436439	1513	1489	1514	1457
1399094860319479706	1512	1489	1514	1457
1399094860324395125	1512	1490	1514	1456
1399094860339387193	1512	1489	1514	1457
1399094860344370155	1510	1490	1514	1458
1399094860354478312	1509	1489	1514	1456
1399094860359414471	1509	1489	1514	1456
1399094860374495950	1508	1489	1514	1456
1399094860389476017	1508	1490	1514	1457
1399094860394415937	1508	1487	1514	1457
1399094860404469918	1508	1488	1514	1456
1399094860409412516	1507	1487	1514	1456
1399094860424413255	1506	1488	1514	1456
1399094860439405604	1506	1487	1514	1456
1399094860454444054	1507	1485	1514	1455
1399094860459390663	1507	1485	1514	1455
1399094860469512283	1506	1484	1514	1456
1399094860474360805	1506	1485	1514	1456
1399094860484473645	1505	1486	1514	1455
1399094860494390440	1507	1484	1514	1455
1399094860499354822	1506	1485	1514	1455
1399094860509401127	1508	1481	1514	1456
1399094860519132746	1508	1482	1514	1456
1399094860534543382	1507	1481	1514	1455
1399094860539476784	1509	1482	1514	1457
1399094860544470552	1507	1482	1514	1455
1399094860549501934	1510	1479	1514	1455
1399094860569490646	1509	1480	1514	1456
1399094860574466400	1508	1481	1514	1456
1399094860589532757	1509	1480	1514	1456
1399094860594414848	1511	1478	1514	1455
1399094860604462673	1510	1477	1514	1455
1399094860609434233	1511	1477	1514	1456
1399094860619456308	1510	1478	1514	1456
1399094860624491697	1511	1477	1514	1456
1399094860639440326	1510	1477	1514	1456
1399094860644370509	1514	1476	1514	1456
1399094860654403363	1514	1474	1514	1456
1399094860659391625	1514	1476	1514	1457
1399094860669381814	1514	1476	1514	1457
1399094860689550537	1514	1475	1514	1456
1399094860694440118	1514	1474	1514	1457
1399094860704385616	1516	1473	1514	1458
1399094860709462349	1518	1472	1514	1457
1399094860719153946	1516	1473	1514	1458
1399094860724393909	1517	1472	1514	1457
1399094860739411266	1517	1473	1514	1458
1399094860744510753	1514	1475	1514	1458
1399094860749417352	1516	1474	1514	1458
1399094860759463795	1514	1473	1514	1458
1399094860769560171	1516	1473	1514	1458
1399094860774416803	1514	1473	1514	1458
1399094860784469834	1514	1474	1514	1458
1399094860799499442	1512	1476	1514	1458
1399094860804434252	1513	1477	1514	1458
1399094860809378582	1513	1475	1514	1457
1399094860819464052	1513	1475	1514	1459
1399094860824380367	1512	1477	1514	1459
1399094860839413231	1512	1475	1514	1459
1399094860844370882	1510	1480	1514	1459
1399094860854495253	1510	1479	1514	1458
1399094860859378321	1510	1480	1514	1459
1399094860869395988	1510	1479	1514	1458
1399094860874372893	1510	1480	1514	1460
1399094860889483430	1510	1479	1514	1458
1399094860894434766	1509	1478	1514	1460
1399094860904471005	1506	1483	1514	1459
1399094860909448552	1507	1483	1514	1459
1399094860919464150	1507	1482	1514	1459
1399094860924376234	1507	1482	1514	1459
1399094860939443434	1506	1483	1514	1460
1399094860944436897	1506	1483	1514	1459
1399094860954483067	1509	1484	1514	1460
1399094860959497202	1507	1484	1514	1459
1399094860969458115	1508	1484	1514	1459
1399094860974456900	1508	1484	1514	1460
1399094860984431436	1509	1485	1514	1459
1399094861004462967	1507	1482	1514	1460
1399094861009378262	1507	1482	1514	1460
1399094861034493701	1507	1483	1514	1460
1399094861039429280	1507	1482	1514	1459
1399094861044488360	1509	1482	1514	1459
1399094861054447824	1507	1483	1514	1460
1399094861059419845	1508	1481	1514	1460
1399094861069411008	1508	1482	1514	1460
1399094861074440232	1507	1483	1514	1461
1399094861089545125	1508	1482	1514	1460
1399094861094465903	1508	1480	1514	1460
1399094861104228989	1509	1480	1514	1461
1399094861109392734	1508	1481	1514	1460
1399094861119236192	1509	1479	1514	1460
1399094861124372204	1508	1480	1514	1461
1399094861139440892	1507	1478	1514	1460
1399094861154413799	1510	1478	1514	1461
1399094861159522103	1512	1476	1514	1460
1399094861169513661	1510	1476	1514	1459
1399094861174433829	1511	1475	1514	1459
1399094861189439356	1510	1476	1514	1459
1399094861194383328	1507	1474	1514	1460
1399094861204444138	1508	1475	1514	1461
1399094861209446855	1507	1474	1514	1460
1399094861219508543	1507	1474	1514	1461
1399094861224477937	1506	1475	1514	1460
1399094861239438763	1507	1474	1514	1460
1399094861244457955	1506	1476	1514	1461
1399094861259499684	1505	1472	1514	1460
1399094861269416488	1504	1473	1514	1460
1399094861274376528	1505	1473	1514	1461
1399094861289576732	1504	1473	1514	1460
1399094861294519391	1505	1473	1514	1460
1399094861314489029	1503	1472	1514	1460
1399094861319431492	1503	1473	1514	1461
1399094861324473980	1502	1473	1514	1460
1399094861339449138	1504	1473	1514	1461
1399094861344516281	1504	1476	1514	1460
1399094861354419003	1505	1475	1514	1460
1399094861359410013	1505	1476	1514	1460
1399094861369464363	1504	1474	1514	1460
1399094861374424266	1505	1476	1514	1461
1399094861389426199	1504	1477	1514	1460
1399094861394450872	1507	1479	1514	1461
1399094861404490564	1507	1478	1514	1460
1399094861409450484	1507	1477	1514	1461
1399094861419502407	1506	1480	1514	1461
1399094861424462689	1506	1478	1514	1460
1399094861439506517	1506	1480	1514	1461
1399094861444458802	1505	1479	1514	1461
1399094861454426608	1506	1483	1514	1462
1399094861459386359	1506	1483	1514	1461
1399094861469378114	1505	1484	1514	1462
1399094861474369928	1506	1485	1514	1461
1399094861484476763	1505	1484	1514	1462
1399094861499407489	1505	1486	1514	1462
1399094861509404421	1505	1487	1514	1462
1399094861519477055	1504	1488	1514	1462
1399094861524380420	1504	1487	1514	1462
1399094861534337612	1505	1487	1514	1462
1399094861544450339	1503	1487	1514	1462
1399094861549352095	1505	1488	1514	1463
1399094861559463408	1503	1488	1514	1462
1399094861569361012	1502	1488	1514	1463
1399094861574454190	1502	1489	1514	1463
1399094861589433301	1501	1488	1514	1463
1399094861594452251	1503	1483	1514	1463
1399094861604390309	1502	1485	1514	1463
1399094861609392411	1503	1485	1514	1464
1399094861619493916	1501	1486	1514	1463
1399094861624538062	1501	1485	1514	1463
1399094861639421911	1502	1484	1514	1464
1399094861644426786	1502	1481	1514	1463
1399094861654336323	1503	1481	1514	1464
1399094861669479280	1502	1481	1514	1464
1399094861674379139	1501	1482	1514	1465
1399094861689535715	1501	1481	1514	1464
1399094861694432425	1502	1476	1514	1465
1399094861709509342	1502	1475	1514	1464
1399094861734459312	1502	1476	1514	1465
1399094861744530193	1504	1472	1514	1465
1399094861754420877	1504	1473	1514	1465
1399094861759391292	1504	1471	1514	1465
1399094861769471025	1505	1472	1514	1465
1399094861779561837	1503	1472	1514	1466
1399094861789448515	1505	1472	1514	1465
1399094861794411007	1505	1472	1514	1466
1399094861804503729	1505	1472	1514	1466
1399094861809399312	1505	1472	1514	1466
1399094861819408231	1505	1471	1514	1466
1399094861824388330	1506	1471	1514	1466
1399094861834357248	1505	1469	1514	1465
1399094861844343839	1506	1471	1514	1466
1399094861854329474	1506	1471	1514	1466
1399094861859366308	1507	1472	1514	1467
1399094861869371433	1507	1473	1514	1466
1399094861874393565	1506	1472	1514	1467
1399094861889371586	1507	1472	1514	1466
1399094861894485834	1505	1473	1514	1466
1399094861904505405	1506	1474	1514	1466
1399094861909423873	1506	1474	1514	1466
1399094861919356253	1506	1475	1514	1467
1399094861924493133	1506	1474	1514	1466
1399094861939425788	1506	1473	1514	1467
1399094861944577582	1506	1475	1514	1467
1399094861954439487	1502	1478	1514	1467
1399094861959397428	1502	1479	1514	1467
1399094861969480646	1503	1478	1514	1466
1399094861989523417	1503	1478	1514	1466
1399094861994414927	1506	1477	1514	1467
1399094861999392643	1505	1478	1514	1467
1399094862009428777	1505	1477	1514	1466
1399094862019536972	1505	1479	1514	1468
1399094862024396877	1505	1477	1514	1467
1399094862039465125	1505	1478	1514	1467
1399094862044405850	1503	1480	1514	1466
1399094862054437861	1503	1480	1514	1467
1399094862059344884	1503	1480	1514	1467
1399094862074538372	1503	1480	1514	1467
1399094862089163832	1502	1480	1514	1467
1399094862094455542	1504	1478	1514	1467
1399094862104428929	1503	1478	1514	1467
1399094862109327114	1504	1477	1514	1467
1399094862124412987	1504	1478	1514	1467
1399094862139439876	1504	1478	1514	1467
1399094862144419151	1501	1476	1514	1467
1399094862154430627	1502	1476	1514	1468
1399094862159437968	1501	1477	1514	1467
1399094862169467579	1502	1476	1514	1467
1399094862174420565	1502	1477	1514	1467
1399094862184422042	1501	1476	1514	1466
1399094862194476716	1503	1475	1514	1467
1399094862204428530	1502	1475	1514	1467
1399094862209477952	1504	1475	1514	1468
1399094862219476361	1503	1475	1514	1467
1399094862224381012	1502	1476	1514	1468
1399094862239498141	1503	1475	1514	1468
1399094862254472851	1505	1478	1514	1467
1399094862259413255	1505	1478	1514	1467
1399094862269448196	1505	1477	1514	1468
1399094862274388945	1505	1477	1514	1467
1399094862289387565	1505	1478	1514	1467
1399094862294371375	1507	1479	1514	1468
1399094862299367493	1507	1478	1514	1467
1399094862309333154	1508	1478	1514	1468
1399094862324432420	1508	1478	1514	1467
1399094862339431628	1508	1479	1514	1468
1399094862344402426	1509	1480	1514	1467
1399094862354495286	1510	1480	1514	1468
1399094862359390996	1510	1479	1514	1467
1399094862374462594	1511	1480	1514	1468
1399094862379375722	1510	1479	1514	1468
1399094862389432765	1511	1479	1514	1467
1399094862404488807	1513	1477	1514	1467
1399094862409454174	1515	1477	1514	1468
1399094862419442489	1514	1477	1514	1467
1399094862424387391	1515	1477	1514	1468
1399094862434413864	1514	1478	1514	1468
1399094862444426242	1516	1476	1514	1467
1399094862449391013	1515	1478	1514	1468
1399094862459421385	1516	1476	1514	1467
1399094862469422011	1517	1477	1514	1468
1399094862484546049	1516	1477	1514	1467
1399094862489429961	1518	1476	1514	1468
1399094862494424220	1516	1478	1514	1468
1399094862504488997	1517	1477	1514	1468
1399094862509415616	1517	1478	1514	1468
1399094862519502541	1517	1477	1514	1467
1399094862524413637	1518	1477	1514	1468
1399094862539537362	1518	1478	1514	1467
1399094862544472458	1522	1474	1514	1468
1399094862554550745	1522	1475	1514	1468
1399094862559409442	1521	1474	1514	1468
1399094862569461198	1523	1476	1514	1468
1399094862574429789	1523	1474	1514	1467
1399094862589497382	1523	1476	1514	1469
1399094862594273805	1521	1478	1514	1467
1399094862604401332	1521	1478	1514	1468
1399094862609405919	1522	1478	1514	1467
1399094862619353161	1522	1478	1514	1467
1399094862624429485	1522	1478	1514	1468
1399094862639582945	1523	1477	1514	1467
1399094862644209996	1520	1479	1514	1468
1399094862654516913	1519	1478	1514	1467
1399094862659465908	1520	1478	1514	1468
1399094862669392820	1520	1478	1514	1467
1399094862674438071	1520	1477	1514	1468
1399094862689474596	1522	1479	1514	1468
1399094862694253789	1517	1477	1514	1468
1399094862704443064	1519	1477	1514	1468
1399094862709351789	1518	1477	1514	1467
1399094862719465502	1518	1477	1514	1468
1399094862724393867	1521	1477	1514	1468
1399094862734280282	1519	1477	1514	1468
1399094862744270389	1520	1475	1514	1468
1399094862754277470	1519	1476	1514	1468
1399094862759268116	1520	1474	1514	1468
1399094862769469613	1522	1475	1514	1468
1399094862779244757	1520	1475	1514	1468
1399094862789269913	1522	1475	1514	1468
1399094862794209858	1525	1474	1514	1468
1399094862804205668	1525	1473	1514	1468
1399094862809142043	1524	1474	1514	1468
1399094862819170098	1526	1473	1514	1468
1399094862824122397	1526	1474	1514	1469
1399094862839165536	1526	1474	1514	1468
1399094862844397223	1526	1476	1514	1469
1399094862854221168	1526	1476	1514	1469
1399094862859111300	1528	1476	1514	1468
1399094862869180851	1526	1476	1514	1469
1399094862874209251	1529	1475	1514	1468
1399094862889232898	1528	1476	1514	1469
1399094862894129224	1525	1477	1514	1468
1399094862904214068	1527	1477	1514	1468
1399094862909182088	1527	1476	1514	1468
1399094862919283044	1529	1477	1514	1468
1399094862924436162	1527	1476	1514	1468
1399094862939532294	1528	1476	1514	1468
1399094862944370518	1529	1476	1514	1468
1399094862954354712	1529	1475	1514	1467
1399094862969380039	1530	1476	1514	1468
1399094862974566099	1532	1475	1514	1467
1399094862984252514	1531	1475	1514	1466
1399094862994248255	1531	1476	1514	1468
1399094862999383591	1530	1476	1514	1468
1399094863019522574	1530	1477	1514	1467
1399094863024459537	1529	1478	1514	1467
1399094863039512694	1530	1477	1514	1468
1399094863044576845	1530	1476	1514	1467
1399094863049450725	1531	1476	1514	1467
1399094863059463152	1529	1476	1514	1468
1399094863069520024	1531	1474	1514	1466
1399094863074429698	1530	1475	1514	1466
1399094863089507315	1530	1476	1514	1466
1399094863094581505	1527	1475	1514	1468
1399094863109501722	1528	1473	1514	1466
1399094863119444099	1528	1474	1514	1467
1399094863124380407	1529	1474	1514	1466
1399094863139410182	1528	1475	1514	1467
1399094863154398753	1524	1476	1514	1466
1399094863159448410	1523	1476	1514	1466
1399094863169373988	1524	1476	1514	1466
1399094863174418125	1523	1476	1514	1466
1399094863189394806	1524	1476	1514	1466
1399094863194353181	1522	1476	1514	1466
1399094863204430145	1523	1476	1514	1465
1399094863209421346	1524	1477	1514	1466
1399094863219385465	1521	1477	1514	1466
1399094863224535968	1524	1477	1514	1466
1399094863234471705	1523	1477	1514	1465
1399094863244397844	1524	1478	1514	1466
1399094863254481668	1524	1478	1514	1466
1399094863259217837	1525	1478	1514	1465
1399094863274417761	1523	1479	1514	1466
1399094863284425771	1525	1478	1514	1465
1399094863294387176	1522	1479	1514	1466
1399094863304420161	1522	1481	1514	1466
1399094863309439640	1522	1479	1514	1466
1399094863324475138	1523	1480	1514	1466
1399094863329420334	1522	1481	1514	1466
1399094863339398619	1523	1480	1514	1466
1399094863344468206	1522	1483	1514	1465
1399094863354440217	1520	1482	1514	1466
1399094863359468738	1521	1484	1514	1467
1399094863374501596	1521	1482	1514	1465
1399094863389493579	1521	1483	1514	1467
1399094863394437672	1523	1482	1514	1467
1399094863404442665	1523	1483	1514	1465
1399094863409402526	1522	1482	1514	1466
1399094863419405976	1523	1484	1514	1467
1399094863424420966	1522	1482	1514	1466
1399094863434425463	1522	1482	1514	1467
1399094863444431425	1523	1487	1514	1465
1399094863449385254	1522	1486	1514	1467
1399094863459480689	1523	1486	1514	1466
1399094863469605858	1522	1485	1514	1466
1399094863479479958	1522	1487	1514	1467
1399094863489708043	1521	1486	1514	1466
1399094863494256643	1521	1486	1514	1467
1399094863499405150	1519	1484	1514	1465
1399094863509138397	1518	1485	1514	1467
1399094863519104948	1519	1485	1514	1465
1399094863524409018	1518	1484	1514	1466
1399094863539593601	1518	1485	1514	1467
1399094863544417897	1516	1480	1514	1465
1399094863549447795	1514	1482	1514	1466
1399094863559519515	1514	1483	1514	1465
1399094863569493742	1514	1482	1514	1466
1399094863574431743	1514	1484	1514	1466
1399094863589501553	1513	1482	1514	1465
1399094863594381592	1512	1478	1514	1466
1399094863604462322	1512	1477	1514	1465
1399094863619479713	1510	1479	1514	1466
1399094863624524086	1509	1478	1514	1465
1399094863639558170	1509	1479	1514	1465
1399094863644471320	1512	1474	1514	1465
1399094863654475901	1511	1475	1514	1465
1399094863659469662	1509	1474	1514	1465
1399094863669486934	1509	1475	1514	1466
1399094863674455247	1508	1475	1514	1465
1399094863689475785	1509	1474	1514	1465
1399094863694438760	1509	1475	1514	1465
1399094863699415353	1509	1473	1514	1465
1399094863709594474	1509	1474	1514	1465
1399094863719421755	1507	1473	1514	1465
1399094863724442844	1507	1473	1514	1466
1399094863739466651	1506	1474	1514	1464
1399094863744523892	1510	1472	1514	1465
1399094863749428649	1509	1473	1514	1464
1399094863764561335	1508	1472	1514	1464
1399094863769426060	1509	1473	1514	1465
1399094863774413319	1507	1472	1514	1464
1399094863789441749	1508	1471	1514	1464
1399094863794478061	1509	1476	1514	1463
1399094863809472197	1509	1476	1514	1464
1399094863819400895	1508	1476	1514	1463
1399094863824417225	1509	1476	1514	1464
1399094863839427610	1508	1475	1514	1463
1399094863844411314	1509	1478	1514	1464
1399094863854484152	1507	1478	1514	1462
1399094863859437174	1508	1477	1514	1463
1399094863869384577	1507	1478	1514	1463
1399094863874433784	1508	1477	1514	1462
1399094863889438920	1508	1479	1514	1464
1399094863894390670	1508	1483	1514	1462
1399094863904513567	1508	1483	1514	1463
1399094863919526890	1508	1482	1514	1463
1399094863924413968	1508	1483	1514	1463
1399094863939483886	1508	1482	1514	1462
1399094863954404747	1511	1485	1514	1463
1399094863959434554	1512	1485	1514	1463
1399094863969491210	1511	1486	1514	1463
1399094863979440760	1512	1485	1514	1463
1399094863984492065	1510	1486	1514	1463
1399094864004518687	1511	1486	1514	1462
1399094864009395445	1510	1486	1514	1462
1399094864019457963	1510	1487	1514	1463
1399094864024439865	1510	1486	1514	1462
1399094864034163530	1511	1486	1514	1462
1399094864044471187	1507	1488	1514	1462
1399094864054181520	1509	1486	1514	1462
1399094864059516603	1507	1488	1514	1463
1399094864074525965	1508	1487	1514	1462
1399094864089539377	1507	1487	1514	1462
1399094864094572796	1508	1488	1514	1463
1399094864104471331	1507	1488	1514	1463
1399094864109514214	1508	1488	1514	1463
1399094864119185545	1506	1488	1514	1462
1399094864139173039	1504	1484	1514	1462
1399094864144155539	1504	1484	1514	1462
1399094864154418695	1506	1483	1514	1463
1399094864159170574	1504	1482	1514	1462
1399094864169359436	1505	1482	1514	1462
1399094864174390416	1504	1483	1514	1462
1399094864189402058	1505	1483	1514	1462
1399094864194399145	1505	1480	1514	1462
1399094864204424605	1504	1481	1514	1464
1399094864209330144	1504	1480	1514	1463
1399094864219465054	1503	1480	1514	1462
1399094864224339640	1504	1481	1514	1463
1399094864239409185	1504	1477	1514	1462
1399094864244412785	1506	1475	1514	1464
1399094864254472738	1505	1474	1514	1463
1399094864259433000	1504	1474	1514	1464
1399094864274504889	1504	1473	1514	1462
1399094864289420411	1504	1474	1514	1463
1399094864294439719	1504	1472	1514	1463
1399094864304416644	1503	1472	1514	1465
1399094864319468143	1503	1470	1514	1464
1399094864324482750	1503	1469	1514	1463
1399094864339504782	1503	1468	1514	1464
1399094864344466201	1501	1469	1514	1464
1399094864354602280	1501	1467	1514	1463
1399094864359537831	1500	1465	1514	1464
1399094864369522007	1501	1467	1514	1464
1399094864374441767	1500	1466	1514	1464
1399094864389498752	1499	1467	1514	1465
1399094864394398310	1498	1466	1514	1464
1399094864419520901	1499	1464	1514	1464
1399094864424376817	1498	1465	1514	1465
1399094864434469436	1499	1464	1514	1464
1399094864444405460	1502	1464	1514	1465
1399094864449343648	1500	1464	1514	1464
1399094864464412098	1501	1464	1514	1465
1399094864469437431	1500	1463	1514	1465
1399094864474375463	1502	1464	1514	1465
1399094864484475832	1501	1464	1514	1466
1399094864494455281	1501	1463	1514	1465
1399094864499365150	1505	1469	1514	1465
1399094864509158623	1505	1470	1514	1465
1399094864524482516	1505	1469	1514	1466
1399094864539494179	1505	1470	1514	1466
1399094864544528963	1506	1472	1514	1466
1399094864559484705	1507	1472	1514	1466
1399094864574590458	1506	1472	1514	1466
1399094864589483159	1506	1472	1514	1467
1399094864594506021	1507	1478	1514	1467
1399094864609473127	1508	1477	1514	1467
1399094864624469319	1508	1476	1514	1467
1399094864634445439	1509	1478	1514	1467
1399094864644506893	1509	1475	1514	1467
1399094864654493429	1510	1479	1514	1468
1399094864659554037	1510	1477	1514	1467
1399094864669547919	1511	1478	1514	1468
1399094864674460661	1510	1478	1514	1468
1399094864684515561	1510	1478	1514	1469
1399094864699482345	1509	1476	1514	1467
1399094864704416036	1510	1475	1514	1468
1399094864709386931	1510	1476	1514	1468
1399094864719478469	1511	1475	1514	1468
1399094864724499208	1511	1477	1514	1469
1399094864739507203	1510	1476	1514	1468
1399094864744498862	1510	1477	1514	1470
1399094864754477301	1511	1473	1514	1469
1399094864759429438	1512	1472	1514	1469
1399094864769508873	1511	1473	1514	1469
1399094864774463802	1511	1472	1514	1469
1399094864789487576	1511	1474	1514	1470
1399094864794422313	1508	1473	1514	1469
1399094864804425216	1509	1474	1514	1470
1399094864809504316	1508	1473	1514	1469
1399094864819415348	1509	1473	1514	1470
1399094864824419393	1508	1474	1514	1470
1399094864839397761	1508	1474	1514	1470
1399094864844423807	1506	1475	1514	1470
1399094864854484286	1505	1474	1514	1470
1399094864859450321	1507	1474	1514	1470
1399094864869423921	1505	1474	1514	1470
1399094864874467687	1506	1474	1514	1470
1399094864889547878	1505	1474	1514	1470
1399094864894489245	1505	1475	1514	1470
1399094864904544379	1505	1481	1514	1470
1399094864909485123	1503	1480	1514	1470
1399094864919444155	1505	1481	1514	1470
1399094864939411091	1504	1481	1514	1470
1399094864944493660	1502	1484	1514	1470
1399094864964485441	1502	1484	1514	1470
1399094864969374754	1502	1484	1514	1470
1399094864974364530	1503	1484	1514	1471
1399094864989433306	1502	1485	1514	1470
1399094864994398104	1500	1488	1514	1470
1399094864999399588	1501	1488	1514	1470
1399094865009420946	1500	1487	1514	1470
1399094865019462859	1502	1488	1514	1470
1399094865024427827	1501	1488	1514	1470
1399094865039450488	1501	1488	1514	1470
1399094865044435594	1500	1488	1514	1470
1399094865054409217	1505	1486	1514	1470
1399094865059460477	1507	1486	1514	1470
1399094865074456904	1506	1486	1514	1470
1399094865089507355	1506	1486	1514	1470
1399094865094350235	1510	1483	1514	1469
1399094865104445196	1510	1482	1514	1469
1399094865109344032	1511	1483	1514	1470
1399094865119444255	1511	1483	1514	1470
1399094865124458118	1510	1483	1514	1470
1399094865134421549	1510	1484	1514	1470
1399094865154486119	1514	1480	1514	1470
1399094865159491280	1514	1479	1514	1470
1399094865169380376	1514	1480	1514	1470
1399094865174436771	1513	1481	1514	1470
1399094865189477016	1514	1480	1514	1470
1399094865204491436	1515	1480	1514	1470
1399094865209491146	1516	1481	1514	1471
1399094865219491555	1516	1479	1514	1470
1399094865224507678	1517	1480	1514	1471
1399094865244547924	1518	1480	1514	1470
1399094865254517700	1519	1481	1514	1470
1399094865259457580	1520	1479	1514	1470
1399094865269526899	1519	1481	1514	1471
1399094865274508542	1519	1480	1514	1469
1399094865289447145	1520	1481	1514	1471
1399094865294391796	1520	1487	1514	1470
1399094865304471922	1521	1487	1514	1472
1399094865309482551	1522	1488	1514	1470
1399094865319458483	1522	1487	1514	1471
1399094865324416587	1522	1487	1514	1471
1399094865339458296	1523	1487	1514	1470
1399094865344487266	1524	1490	1514	1472
1399094865354535107	1525	1489	1514	1470
1399094865359416865	1526	1489	1514	1471
1399094865369419952	1525	1488	1514	1470
1399094865374439317	1526	1488	1514	1471
1399094865399543156	1527	1491	1514	1471
1399094865404409704	1527	1491	1514	1472
1399094865409373761	1528	1491	1514	1470
1399094865419376643	1529	1490	1514	1471
1399094865429440882	1530	1491	1514	1470
1399094865439459070	1531	1489	1514	1470
1399094865444479265	1531	1490	1514	1471
1399094865454481859	1533	1486	1514	1470
1399094865459471793	1531	1487	1514	1471
1399094865469444193	1533	1487	1514	1470
1399094865474170652	1533	1487	1514	1471
1399094865484340576	1534	1487	1514	1470
1399094865494474400	1534	1480	1514	1470
1399094865504419484	1532	1481	1514	1470
1399094865509424067	1534	1481	1514	1470
1399094865524359972	1534	1482	1514	1470
1399094865539468238	1535	1482	1514	1470
1399094865544432344	1535	1482	1514	1470
1399094865554470928	1531	1473	1514	1469
1399094865559353121	1532	1474	1514	1470
1399094865574416197	1531	1473	1514	1469
1399094865579516034	1531	1475	1514	1470
1399094865589518405	1531	1475	1514	1470
1399094865594332459	1528	1473	1514	1469
1399094865604508414	1529	1474	1514	1469
1399094865609388928	1528	1473	1514	1469
1399094865624444339	1527	1474	1514	1469
1399094865639462645	1529	1474	1514	1469
1399094865644286766	1523	1476	1514	1468
1399094865664469643	1524	1476	1514	1468
1399094865669399116	1523	1475	1514	1468
1399094865674390967	1524	1476	1514	1469
1399094865689427874	1523	1476	1514	1467
1399094865694489954	1520	1476	1514	1468
1399094865699281345	1519	1477	1514	1467
1399094865714527381	1520	1476	1514	1467
1399094865719502092	1519	1477	1514	1468
1399094865724392805	1518	1476	1514	1467
1399094865739413236	1520	1476	1514	1468
1399094865744432429	1520	1479	1514	1466
1399094865754466736	1522	1479	1514	1468
1399094865759393310	1522	1480	1514	1467
1399094865774407776	1522	1480	1514	1467
1399094865789460529	1522	1479	1514	1467
1399094865794355642	1524	1477	1514	1467
1399094865804411227	1525	1477	1514	1466
1399094865809382568	1525	1479	1514	1467
1399094865819404270	1524	1476	1514	1466
1399094865839447973	1525	1477	1514	1467
1399094865844388583	1529	1473	1514	1466
1399094865854385038	1528	1474	1514	1467
1399094865859501311	1530	1473	1514	1467
1399094865869413624	1529	1474	1514	1467
1399094865874385658	1529	1472	1514	1467
1399094865889459837	1529	1473	1514	1466
1399094865894328919	1530	1470	1514	1466
1399094865899451437	1531	1471	1514	1467
1399094865909464259	1531	1471	1514	1466
1399094865924465183	1531	1471	1514	1467
1399094865934436537	1531	1470	1514	1467
1399094865944548423	1528	1469	1514	1466
1399094865954502082	1529	1469	1514	1466
1399094865959406598	1528	1469	1514	1467
1399094865969475366	1530	1470	1514	1466
1399094865974437685	1528	1469	1514	1467
1399094865989524284	1529	1468	1514	1465
1399094865994528086	1525	1473	1514	1467
1399094866004509187	1524	1473	1514	1466
1399094866009417162	1526	1473	1514	1467
1399094866019499056	1524	1473	1514	1467
1399094866024444320	1525	1473	1514	1467
1399094866039468539	1524	1473	1514	1467
1399094866044444074	1518	1478	1514	1466
1399094866054532767	1519	1478	1514	1466
1399094866069518526	1518	1478	1514	1466
1399094866074505291	1518	1479	1514	1466
1399094866089464596	1519	1479	1514	1466
1399094866094452554	1516	1485	1514	1467
1399094866104554461	1515	1484	1514	1466
1399094866109442771	1516	1484	1514	1466
1399094866119524833	1514	1485	1514	1466
1399094866139551017	1515	1484	1514	1466
1399094866144453298	1512	1489	1514	1466
1399094866154499563	1513	1490	1514	1467
1399094866159490126	1513	1489	1514	1465
1399094866169498847	1513	1489	1514	1467
1399094866189420476	1512	1491	1514	1467
1399094866194454222	1511	1491	1514	1467
1399094866204436799	1513	1492	1514	1466
1399094866209411583	1514	1493	1514	1467
1399094866219485254	1513	1493	1514	1466
1399094866224402557	1513	1493	1514	1468
1399094866239484361	1513	1494	1514	1467
1399094866244458002	1513	1491	1514	1467
1399094866254533351	1514	1492	1514	1467
1399094866259386337	1513	1492	1514	1467
1399094866269488438	1513	1493	1514	1468
1399094866274375419	1512	1493	1514	1468
1399094866289466767	1512	1493	1514	1468
1399094866294378237	1513	1494	1514	1468
1399094866304455062	1513	1492	1514	1468
1399094866309374167	1513	1491	1514	1469
1399094866319380932	1513	1492	1514	1468
1399094866324414886	1514	1492	1514	1469
1399094866339461183	1513	1494	1514	1469
1399094866344477420	1511	1491	1514	1469
1399094866354535173	1511	1492	1514	1469
1399094866359441329	1511	1492	1514	1469
1399094866369517127	1512	1492	1514	1469
1399094866374523396	1512	1493	1514	1469
1399094866384461676	1511	1493	1514	1469
1399094866394550737	1512	1494	1514	1470
1399094866399433174	1512	1492	1514	1469
1399094866409554849	1513	1494	1514	1470
1399094866424425437	1512	1494	1514	1470
1399094866439528130	1511	1495	1514	1471
1399094866444380831	1514	1492	1514	1470
1399094866459298138	1514	1494	1514	1471
1399094866474353334	1513	1494	1514	1471
1399094866489333547	1512	1493	1514	1471
1399094866494340511	1514	1493	1514	1471
1399094866509475478	1512	1492	1514	1472
1399094866524410403	1512	1493	1514	1472
1399094866539528579	1513	1493	1514	1472
1399094866544406129	1511	1492	1514	1473
1399094866549406180	1512	1491	1514	1472
1399094866559491546	1511	1493	1514	1473
1399094866569492165	1511	1491	1514	1472
1399094866574406859	1510	1493	1514	1472
1399094866589394951	1510	1492	1514	1472
1399094866594431778	1511	1492	1514	1473
1399094866599440306	1506	1493	1514	1473
1399094866619541663	1506	1493	1514	1473
1399094866624494063	1504	1493	1514	1473
1399094866649556084	1504	1495	1514	1473
1399094866654470224	1503	1493	1514	1474
1399094866659465414	1503	1494	1514	1473
1399094866669439884	1501	1494	1514	1473
1399094866674510442	1503	1495	1514	1474
1399094866689411970	1502	1494	1514	1473
1399094866694385010	1499	1497	1514	1474
1399094866699414577	1499	1497	1514	1474
1399094866709418942	1498	1496	1514	1474
1399094866719425359	1500	1496	1514	1473
1399094866724365077	1498	1497	1514	1474
1399094866739438355	1498	1496	1514	1474
1399094866744426197	1497	1496	1514	1474
1399094866759502944	1495	1496	1514	1473
1399094866769461495	1496	1498	1514	1474
1399094866774487468	1496	1496	1514	1474
1399094866789446821	1496	1498	1514	1474
1399094866794513548	1500	1495	1514	1473
1399094866804452448	1500	1495	1514	1474
1399094866809393583	1500	1497	1514	1473
1399094866819486679	1499	1496	1514	1474
1399094866824458267	1500	1498	1514	1474
1399094866839573985	1500	1496	1514	1474
1399094866844450352	1506	1496	1514	1474
1399094866854502941	1507	1498	1514	1473
1399094866859449949	1505	1498	1514	1475
1399094866884334969	1505	1498	1514	1474
1399094866889152916	1506	1499	1514	1474
1399094866904222790	1512	1502	1514	1473
1399094866909176644	1512	1502	1514	1473
1399094866919155902	1511	1502	1514	1474
1399094866924209713	1513	1501	1514	1473
1399094866934264975	1512	1503	1514	1474
1399094866944244490	1520	1504	1514	1474
1399094866954474784	1519	1505	1514	1473
1399094866959473416	1518	1504	1514	1473
1399094866969482848	1519	1506	1514	1474
1399094866974528953	1519	1506	1514	1473
1399094866989494023	1519	1504	1514	1473
1399094866994463437	1519	1508	1514	1473
1399094867004469914	1519	1506	1514	1473
1399094867009374408	1520	1507	1514	1473
1399094867019246984	1521	1505	1514	1472
1399094867024367371	1520	1508	1514	1474
1399094867039371738	1520	1507	1514	1472
1399094867054449748	1520	1506	1514	1473
1399094867059446982	1521	1506	1514	1473
1399094867069508716	1522	1507	1514	1473
1399094867074421212	1522	1506	1514	1472
1399094867084455353	1522	1507	1514	1473
1399094867094454737	1520	1508	1514	1472
1399094867099459567	1520	1509	1514	1473
1399094867119479112	1520	1510	1514	1472
1399094867124471183	1521	1510	1514	1472
1399094867139485303	1521	1509	1514	1472
1399094867144430513	1519	1510	1514	1472
1399094867154432577	1520	1511	1514	1472
1399094867159356202	1520	1511	1514	1472
1399094867169431521	1520	1510	1514	1471
1399094867174384886	1520	1509	1514	1472
1399094867189474023	1522	1510	1514	1471
1399094867194321845	1522	1506	1514	1471
1399094867204393382	1524	1508	1514	1471
1399094867209326969	1522	1506	1514	1471
1399094867219436269	1522	1506	1514	1471
1399094867224447259	1524	1507	1514	1471
1399094867239256324	1523	1507	1514	1471
1399094867244189083	1527	1504	1514	1470
1399094867254233747	1526	1503	1514	1470
1399094867259110649	1527	1503	1514	1470
1399094867274525964	1527	1502	1514	1470
1399094867289485323	1529	1503	1514	1470
1399094867294416595	1528	1503	1514	1471
1399094867304418841	1530	1499	1514	1469
1399094867309406074	1531	1499	1514	1470
1399094867324484133	1532	1501	1514	1470
1399094867334438958	1533	1499	1514	1470
1399094867349423525	1535	1496	1514	1470
1399094867359419404	1536	1495	1514	1469
1399094867369401525	1535	1496	1514	1469
1399094867374423371	1535	1496	1514	1470
1399094867389462195	1535	1495	1514	1469
1399094867394445218	1533	1495	1514	1469
1399094867399431792	1532	1495	1514	1469
1399094867419269407	1533	1494	1514	1469
1399094867424367526	1533	1492	1514	1469
1399094867439482822	1534	1494	1514	1469
1399094867444414914	1526	1494	1514	1469
1399094867449469808	1527	1495	1514	1469
1399094867459425993	1526	1495	1514	1470
1399094867469406379	1528	1493	1514	1469
1399094867474454318	1527	1493	1514	1469
1399094867489483792	1526	1493	1514	1470
1399094867494423963	1520	1492	1514	1469
1399094867504453744	1520	1491	1514	1470
1399094867519506223	1520	1491	1514	1469
1399094867524341642	1521	1490	1514	1470
1399094867539592693	1520	1491	1514	1469
1399094867544586921	1517	1489	1514	1470
1399094867554507510	1518	1489	1514	1469
1399094867559409954	1517	1488	1514	1469
1399094867569420233	1519	1488	1514	1470
1399094867574458298	1518	1488	1514	1469
1399094867584447522	1519	1486	1514	1469
1399094867604478065	1519	1486	1514	1470
1399094867609485143	1519	1486	1514	1470
1399094867619453434	1518	1486	1514	1469
1399094867624881431	1519	1485	1514	1470
1399094867639224051	1517	1486	1514	1470
1399094867644484983	1521	1482	1514	1470
1399094867654461439	1521	1483	1514	1470
1399094867659535093	1521	1481	1514	1469
1399094867669192560	1520	1481	1514	1470
1399094867674495995	1520	1482	1514	1469
1399094867684443183	1520	1481	1514	1471
1399094867694106496	1521	1483	1514	1470
1399094867704365508	1522	1482	1514	1470
1399094867709510712	1521	1482	1514	1470
1399094867719455336	1521	1480	1514	1469
1399094867724466859	1521	1481	1514	1470
1399094867739421649	1521	1479	1514	1469
1399094867754426395	1520	1481	1514	1469
1399094867759369837	1521	1479	1514	1469
1399094867769429438	1520	1480	1514	1469
1399094867774437690	1520	1479	1514	1469
1399094867789461399	1520	1480	1514	1470
1399094867794385524	1517	1478	1514	1469
1399094867804507237	1518	1478	1514	1470
1399094867809412797	1517	1478	1514	1469
1399094867819509916	1518	1476	1514	1469
1399094867824450213	1517	1478	1514	1469
1399094867839357865	1517	1476	1514	1469
1399094867844391462	1517	1476	1514	1469
1399094867849370625	1516	1474	1514	1468
1399094867859428974	1518	1474	1514	1469
1399094867869441461	1516	1475	1514	1468
1399094867874481500	1517	1474	1514	1469
1399094867884410466	1516	1474	1514	1468
1399094867894423055	1514	1475	1514	1468
1399094867899319233	1515	1475	1514	1469
1399094867909441704	1513	1473	1514	1467
1399094867919461276	1514	1474	1514	1469
1399094867924484240	1513	1473	1514	1468
1399094867939489866	1514	1472	1514	1469
1399094867944498370	1513	1473	1514	1468
1399094867954467936	1511	1474	1514	1468
1399094867959443826	1512	1474	1514	1469
1399094867974468004	1510	1473	1514	1468
1399094867989522815	1511	1472	1514	1468
1399094867994452684	1513	1474	1514	1469
1399094868004439510	1511	1475	1514	1468
1399094868009410673	1511	1475	1514	1468
1399094868019447176	1511	1475	1514	1469
1399094868024398040	1511	1475	1514	1468
1399094868039487127	1512	1474	1514	1468
1399094868044528088	1510	1475	1514	1468
1399094868054473084	1511	1476	1514	1468
1399094868059505603	1510	1475	1514	1468
1399094868069543214	1517	1486	1514	1468
1399094868074382813	1517	1485	1514	1468
1399094868084424921	1516	1485	1514	1469
1399094868094348172	1519	1488	1514	1468
1399094868099542816	1517	1487	1514	1468
1399094868109492200	1517	1488	1514	1468
1399094868124485638	1517	1488	1514	1468
1399094868134481626	1517	1488	1514	1468
1399094868144486765	1516	1491	1514	1468
1399094868154502624	1516	1491	1514	1468
1399094868159406109	1515	1491	1514	1468
1399094868174378169	1516	1492	1514	1468
1399094868189434077	1516	1491	1514	1467
1399094868194432417	1512	1490	1514	1467
1399094868204508357	1511	1490	1514	1467
1399094868209401580	1512	1491	1514	1467
1399094868224509558	1511	1491	1514	1467
1399094868229403323	1512	1492	1514	1467
1399094868239327414	1511	1492	1514	1467
1399094868254393379	1512	1492	1514	1467
1399094868259167361	1513	1488	1514	1467
1399094868269484481	1513	1488	1514	1466
1399094868274510089	1513	1489	1514	1467
1399094868289244931	1513	1489	1514	1466
1399094868294148606	1513	1489	1514	1467
1399094868304422849	1513	1490	1514	1467
1399094868309356959	1513	1489	1514	1466
1399094868319500065	1517	1489	1514	1467
1399094868334414831	1518	1487	1514	1466
1399094868339310592	1518	1488	1514	1466
1399094868344411604	1520	1489	1514	1466
1399094868354508572	1520	1488	1514	1466
1399094868359449882	1520	1489	1514	1466
1399094868369339416	1519	1487	1514	1466
1399094868379430515	1520	1489	1514	1466
1399094868389459641	1520	1488	1514	1465
1399094868394349844	1523	1491	1514	1466
1399094868404439561	1522	1490	1514	1465
1399094868409418495	1523	1490	1514	1466
1399094868419583977	1521	1490	1514	1465
1399094868424444323	1521	1490	1514	1466
1399094868439448333	1522	1490	1514	1465
1399094868444315786	1521	1489	1514	1466
1399094868454430477	1519	1492	1514	1466
1399094868459347920	1519	1491	1514	1466
1399094868469544753	1519	1492	1514	1466
1399094868489487741	1519	1491	1514	1465
1399094868494397463	1520	1491	1514	1465
1399094868504562619	1517	1488	1514	1466
1399094868509438394	1519	1489	1514	1465
1399094868519515933	1517	1487	1514	1465
1399094868524464971	1518	1488	1514	1465
1399094868539710521	1517	1488	1514	1465
1399094868544411449	1517	1483	1514	1466
1399094868554467256	1518	1483	1514	1465
1399094868559464359	1518	1483	1514	1466
1399094868569464142	1519	1483	1514	1465
1399094868574412754	1517	1482	1514	1465
1399094868584376575	1518	1483	1514	1465
1399094868594459164	1518	1483	1514	1465
1399094868604403386	1517	1479	1514	1466
1399094868609409673	1518	1479	1514	1465
1399094868619382881	1516	1478	1514	1466
1399094868629462444	1518	1478	1514	1465
1399094868639424785	1516	1477	1514	1465
1399094868644483478	1519	1476	1514	1466
1399094868654406916	1518	1475	1514	1465
1399094868659309700	1518	1476	1514	1466
1399094868669535103	1518	1475	1514	1465
1399094868674348333	1518	1475	1514	1466
1399094868689432905	1519	1474	1514	1465
1399094868694319966	1518	1473	1514	1466
1399094868709420826	1519	1473	1514	1466
1399094868719520389	1519	1472	1514	1466
1399094868724477822	1519	1471	1514	1465
1399094868739553674	1519	1472	1514	1466
1399094868744442419	1521	1473	1514	1466
1399094868754420271	1521	1473	1514	1466
1399094868759404738	1521	1472	1514	1465
1399094868769435783	1520	1471	1514	1466
1399094868774385283	1521	1472	1514	1465
1399094868789367130	1520	1471	1514	1466
1399094868794384113	1522	1476	1514	1466
1399094868804468158	1521	1475	1514	1466
1399094868809328324	1521	1475	1514	1466
1399094868819769245	1521	1475	1514	1466
1399094868824318859	1520	1475	1514	1466
1399094868849525433	1521	1477	1514	1466
1399094868854526331	1521	1477	1514	1466
1399094868869553890	1520	1476	1514	1466
1399094868874431421	1521	1476	1514	1466
1399094868894576907	1518	1479	1514	1467
1399094868904444463	1517	1479	1514	1467
1399094868909346447	1518	1479	1514	1467
1399094868919393750	1517	1479	1514	1467
1399094868924432757	1517	1479	1514	1468
1399094868939492243	1518	1479	1514	1467
1399094868944354790	1511	1480	1514	1467
1399094868954435358	1512	1480	1514	1467
1399094868959353637	1511	1480	1514	1467
1399094868969358752	1512	1479	1514	1468
1399094868974352461	1512	1480	1514	1468
1399094868989380531	1511	1480	1514	1468
1399094868994449721	1509	1480	1514	1468
1399094869004416890	1507	1480	1514	1468
1399094869009450891	1509	1479	1514	1468
1399094869019525277	1507	1480	1514	1469
1399094869029426218	1508	1479	1514	1469
1399094869034425972	1507	1481	1514	1469
1399094869049465664	1506	1475	1514	1469
1399094869059432586	1505	1476	1514	1468
1399094869069810968	1506	1475	1514	1470
1399094869074372298	1505	1476	1514	1469
1399094869084519219	1506	1475	1514	1469
1399094869094481745	1507	1477	1514	1470
1399094869104643815	1506	1476	1514	1470
1399094869109445062	1506	1477	1514	1471
1399094869119546539	1504	1476	1514	1470
1399094869124470799	1506	1477	1514	1471
1399094869139445723	1505	1477	1514	1470
1399094869144417547	1506	1477	1514	1471
1399094869154537458	1505	1479	1514	1472
1399094869159420919	1504	1478	1514	1470
1399094869174463243	1505	1479	1514	1472
1399094869179403518	1504	1478	1514	1471
1399094869189512238	1505	1479	1514	1473
1399094869194405983	1508	1485	1514	1472
1399094869204462804	1508	1483	1514	1472
1399094869209319120	1506	1484	1514	1472
1399094869224435013	1507	1484	1514	1472
1399094869229406479	1508	1484	1514	1473
1399094869239443641	1506	1484	1514	1471
1399094869244342867	1509	1484	1514	1472
1399094869254393863	1508	1486	1514	1473
1399094869259385944	1509	1485	1514	1472
1399094869284437306	1508	1485	1514	1472
1399094869294498454	1508	1484	1514	1471
1399094869299524696	1509	1484	1514	1472
1399094869309494533	1508	1485	1514	1472
1399094869319458891	1508	1486	1514	1473
1399094869329468600	1508	1487	1514	1473
1399094869339364621	1506	1486	1514	1472
1399094869344389810	1508	1482	1514	1473
1399094869354430902	1506	1481	1514	1472
1399094869359455305	1507	1481	1514	1472
1399094869369386943	1506	1481	1514	1472
1399094869374489993	1506	1482	1514	1472
1399094869389394319	1508	1481	1514	1472
1399094869394385050	1508	1480	1514	1472
1399094869404457523	1509	1482	1514	1473
1399094869409422601	1508	1481	1514	1472
1399094869419489836	1507	1482	1514	1473
1399094869424485473	1507	1481	1514	1472
1399094869439473729	1507	1482	1514	1472
1399094869444372863	1512	1481	1514	1472
1399094869454421346	1510	1482	1514	1473
1399094869469429333	1510	1482	1514	1472
1399094869474385303	1510	1482	1514	1473
1399094869489476502	1510	1482	1514	1472
1399094869494466563	1511	1482	1514	1472
1399094869504502166	1508	1486	1514	1472
1399094869509452025	1507	1484	1514	1472
1399094869519421845	1508	1485	1514	1472
1399094869524355381	1507	1485	1514	1472
1399094869534549618	1507	1485	1514	1472
1399094869544565954	1508	1485	1514	1472
1399094869549425427	1508	1485	1514	1472
1399094869569513595	1508	1485	1514	1472
1399094869574465667	1509	1486	1514	1472
1399094869599482740	1511	1486	1514	1472
1399094869604487568	1512	1485	1514	1471
1399094869609320728	1512	1485	1514	1472
1399094869619383482	1512	1486	1514	1472
1399094869624340408	1511	1485	1514	1472
1399094869644490875	1515	1485	1514	1472
1399094869654235779	1515	1485	1514	1472
1399094869659398721	1516	1484	1514	1471
1399094869669449306	1516	1484	1514	1472
1399094869674403523	1517	1485	1514	1472
1399094869689475876	1516	1484	1514	1471
1399094869694453685	1517	1480	1514	1472
1399094869704491419	1517	1480	1514	1471
1399094869719509493	1517	1480	1514	1472
1399094869724449828	1518	1481	1514	1472
1399094869739513851	1518	1480	1514	1471
1399094869744456805	1520	1476	1514	1472
1399094869754493123	1520	1476	1514	1471
1399094869759335523	1519	1475	1514	1471
1399094869769444850	1520	1477	1514	1472
1399094869774380206	1521	1475	1514	1471
1399094869789415438	1521	1476	1514	1472
1399094869794419778	1520	1475	1514	1471
1399094869804440427	1520	1474	1514	1472
1399094869809469685	1520	1475	1514	1471
1399094869819478879	1521	1473	1514	1471
1399094869824449234	1521	1474	1514	1471
1399094869834463149	1521	1472	1514	1471
1399094869844483398	1519	1473	1514	1472
1399094869859474780	1518	1472	1514	1471
1399094869869440112	1518	1473	1514	1471
1399094869879472797	1519	1471	1514	1471
1399094869889447274	1519	1472	1514	1471
1399094869894430008	1520	1470	1514	1471
1399094869904481246	1518	1472	1514	1472
1399094869909364039	1518	1471	1514	1471
1399094869919490581	1518	1472	1514	1473
1399094869924563338	1518	1472	1514	1471
1399094869939462135	1519	1470	1514	1472
1399094869954454907	1516	1471	1514	1471
1399094869959438109	1517	1472	1514	1472
1399094869969442457	1516	1471	1514	1471
1399094869974438542	1517	1471	1514	1472
1399094869989501243	1516	1471	1514	1471
1399094869994412425	1519	1468	1514	1472
1399094870004467067	1518	1469	1514	1471
1399094870009400767	1518	1468	1514	1471
1399094870034478023	1519	1469	1514	1472
1399094870044493431	1520	1468	1514	1471
1399094870049415707	1521	1468	1514	1472
1399094870059522454	1520	1468	1514	1472
1399094870069394600	1520	1468	1514	1472
1399094870074447403	1521	1468	1514	1472
1399094870089477137	1521	1467	1514	1471
1399094870094137669	1522	1469	1514	1472
1399094870099401533	1521	1469	1514	1471
1399094870109522012	1522	1470	1514	1472
1399094870124529933	1522	1469	1514	1472
1399094870139394107	1523	1468	1514	1472
1399094870144471409	1524	1468	1514	1472
1399094870154518915	1524	1467	1514	1471
1399094870159467379	1524	1469	1514	1472
1399094870174487482	1525	1470	1514	1472
1399094870179414784	1526	1467	1514	1471
1399094870189434562	1526	1468	1514	1472
