#Time	 Roll 	 Pitch 	 Yaw 	 Thrust
1399577454087368502	1522	1521	1512	1378
1399577454107269517	1527	1520	1512	1378
1399577454117257020	1520	1521	1512	1378
1399577454122231850	1523	1522	1512	1378
1399577454137272958	1524	1521	1512	1378
1399577454152231874	1529	1521	1512	1378
1399577454157334548	1516	1521	1512	1378
1399577454167258874	1524	1521	1512	1378
1399577454172229634	1527	1521	1512	1378
1399577454182277848	1524	1521	1512	1434
1399577454192420676	1524	1520	1512	1389
1399577454197257425	1524	1523	1512	1388
1399577454207290929	1528	1517	1512	1389
1399577454212270913	1525	1523	1512	1389
1399577454222273099	1526	1519	1512	1389
1399577454232263865	1520	1524	1512	1389
1399577454237287725	1524	1522	1512	1388
1399577454247263648	1524	1518	1512	1389
1399577454262377349	1524	1521	1512	1389
1399577454267241234	1524	1524	1512	1389
1399577454272254283	1522	1520	1512	1388
1399577454282296167	1524	1521	1512	1434
1399577454292285845	1525	1523	1512	1399
1399577454302287820	1523	1521	1512	1399
1399577454307222191	1523	1520	1512	1399
1399577454317250694	1530	1521	1512	1399
1399577454322224833	1521	1523	1512	1399
1399577454337282234	1524	1522	1512	1399
1399577454352311577	1525	1518	1512	1399
1399577454357255537	1524	1523	1512	1399
1399577454367288958	1527	1521	1512	1400
1399577454372257738	1524	1518	1512	1399
1399577454387267425	1525	1521	1512	1435
1399577454402277342	1530	1518	1512	1409
1399577454407245046	1521	1522	1512	1410
1399577454417214821	1524	1519	1512	1410
1399577454422333940	1524	1523	1512	1410
1399577454432260956	1524	1520	1512	1409
1399577454437254590	1524	1520	1512	1410
1399577454447266193	1525	1521	1512	1410
1399577454457324645	1527	1520	1512	1410
1399577454462267298	1522	1520	1512	1410
1399577454472242076	1526	1521	1512	1409
1399577454482291034	1524	1521	1512	1435
1399577454492305228	1520	1522	1512	1420
1399577454502240536	1524	1515	1512	1420
1399577454507242667	1526	1522	1512	1421
1399577454512259209	1524	1522	1512	1421
1399577454527262567	1523	1519	1512	1420
1399577454537228662	1524	1521	1512	1420
1399577454552280414	1522	1521	1512	1420
1399577454557265589	1523	1522	1512	1421
1399577454567256686	1523	1520	1513	1421
1399577454572216543	1524	1520	1512	1421
1399577454587335270	1522	1521	1512	1436
1399577454602277489	1519	1522	1512	1431
1399577454607234702	1525	1519	1512	1432
1399577454617225927	1522	1526	1512	1431
1399577454622332826	1519	1520	1512	1432
1399577454637318267	1522	1519	1512	1432
1399577454652299157	1522	1524	1512	1430
1399577454657340643	1520	1514	1512	1433
1399577454667269470	1525	1528	1512	1430
1399577454672225660	1516	1512	1512	1434
1399577454682228311	1523	1533	1512	1430
1399577454687276678	1518	1511	1512	1434
1399577454697267855	1521	1531	1512	1431
1399577454712289334	1518	1521	1512	1432
1399577454737279971	1520	1517	1512	1433
1399577454752301367	1518	1521	1512	1432
1399577454757281689	1523	1516	1512	1432
1399577454767280049	1515	1514	1512	1432
1399577454772247268	1524	1524	1512	1431
1399577454787284718	1517	1521	1512	1431
1399577454802316894	1522	1508	1512	1432
1399577454807245865	1516	1530	1512	1429
1399577454812225012	1518	1511	1512	1431
1399577454822275407	1512	1526	1512	1430
1399577454837235943	1510	1520	1512	1429
1399577454852258044	1504	1527	1512	1428
1399577454857228322	1512	1520	1513	1429
1399577454867257139	1499	1523	1513	1427
1399577454887560491	1504	1520	1513	1427
1399577454902646407	1495	1517	1513	1426
1399577454907573519	1498	1523	1512	1425
1399577454912555409	1500	1512	1512	1425
1399577454922654234	1505	1508	1512	1425
1399577454932613362	1503	1505	1512	1424
1399577454937494645	1505	1504	1512	1424
1399577454947550511	1506	1515	1512	1422
1399577454957551714	1505	1501	1512	1423
1399577454962500411	1502	1512	1512	1422
1399577454972508142	1500	1515	1513	1421
1399577454982564338	1504	1500	1513	1424
1399577454992637253	1499	1515	1513	1420
1399577455002589028	1492	1487	1513	1421
1399577455007552401	1493	1516	1513	1419
1399577455022624609	1514	1499	1513	1420
1399577455037541715	1497	1498	1513	1419
1399577455047533423	1518	1508	1513	1417
1399577455057534567	1517	1487	1513	1419
1399577455072585674	1507	1504	1513	1418
1399577455087595835	1512	1504	1513	1418
1399577455092579492	1504	1515	1513	1416
1399577455102587353	1495	1496	1513	1417
1399577455107586144	1512	1492	1512	1416
1399577455122534643	1508	1497	1513	1415
1399577455132560200	1500	1505	1512	1414
1399577455152603750	1515	1497	1513	1415
1399577455157588449	1513	1497	1513	1414
1399577455182478551	1524	1483	1512	1414
1399577455187426608	1529	1494	1512	1411
1399577455197527395	1527	1474	1512	1412
1399577455207558923	1531	1491	1512	1412
1399577455212549278	1540	1505	1512	1411
1399577455227584382	1530	1487	1512	1411
1399577455237631996	1530	1488	1512	1411
1399577455252623722	1534	1488	1512	1411
1399577455257527973	1546	1505	1512	1410
1399577455262548888	1530	1485	1512	1410
1399577455272623417	1533	1498	1512	1410
1399577455287595293	1532	1487	1512	1409
1399577455302580126	1538	1505	1513	1409
1399577455307492605	1545	1473	1513	1410
1399577455317543374	1530	1516	1513	1408
1399577455322551847	1510	1499	1513	1411
1399577455337501407	1516	1503	1513	1408
1399577455352606370	1525	1508	1513	1407
1399577455357554811	1520	1507	1513	1409
1399577455367551334	1512	1528	1513	1410
1399577455372291453	1518	1503	1513	1406
1399577455387551527	1517	1515	1513	1408
1399577455397617559	1508	1516	1513	1409
1399577455407325320	1506	1525	1513	1407
1399577455412447772	1513	1518	1513	1409
1399577455422554657	1520	1523	1513	1408
1399577455432491289	1489	1525	1513	1407
1399577455437483052	1491	1538	1513	1408
1399577455447575831	1497	1529	1514	1407
1399577455457517994	1498	1529	1514	1409
1399577455462606625	1493	1547	1514	1407
1399577455472554300	1488	1521	1514	1409
1399577455487570616	1491	1535	1514	1407
1399577455507553573	1478	1532	1514	1407
1399577455512495065	1483	1533	1514	1408
1399577455522586381	1480	1528	1513	1408
1399577455537594628	1476	1545	1513	1407
1399577455552578328	1482	1522	1514	1408
1399577455557518167	1468	1532	1513	1407
1399577455572621254	1480	1538	1514	1407
1399577455587577672	1476	1528	1514	1408
1399577455602583311	1472	1528	1513	1407
1399577455607622012	1473	1533	1513	1408
1399577455617554986	1478	1522	1513	1408
1399577455622597013	1469	1525	1513	1408
1399577455637683974	1489	1518	1513	1408
1399577455652714150	1486	1519	1513	1408
1399577455657623262	1485	1518	1513	1410
1399577455667709356	1493	1521	1513	1407
1399577455672625250	1494	1510	1513	1410
1399577455682618754	1498	1526	1513	1408
1399577455697676733	1495	1516	1513	1409
1399577455707635890	1489	1507	1513	1409
1399577455717571998	1511	1506	1513	1409
1399577455722580185	1520	1493	1512	1409
1399577455737636463	1514	1499	1513	1408
1399577455747649044	1512	1481	1512	1411
1399577455757614989	1524	1509	1512	1409
1399577455767685696	1529	1488	1512	1411
1399577455772604790	1525	1497	1512	1408
1399577455787717407	1525	1480	1512	1410
1399577455797547192	1524	1496	1512	1410
1399577455807550477	1527	1487	1512	1411
1399577455817207183	1537	1493	1512	1409
1399577455822336874	1546	1478	1512	1411
1399577455837298049	1537	1478	1512	1411
1399577455852327903	1538	1483	1512	1411
1399577455857287723	1550	1492	1512	1410
1399577455867305754	1554	1475	1512	1412
1399577455872283543	1555	1487	1512	1412
1399577455882335282	1556	1475	1512	1413
1399577455887307858	1554	1489	1512	1412
1399577455897298098	1557	1484	1512	1411
1399577455907374273	1567	1483	1512	1413
1399577455912357486	1562	1495	1512	1412
1399577455937320035	1558	1486	1512	1414
1399577455947382091	1566	1503	1512	1411
1399577455957351741	1564	1484	1512	1414
1399577455967307363	1551	1505	1512	1413
1399577455972347061	1555	1491	1512	1415
1399577455982330217	1560	1511	1512	1414
1399577455992338913	1559	1504	1512	1414
1399577456002322657	1546	1499	1512	1415
1399577456007370956	1550	1511	1512	1415
1399577456017371255	1542	1503	1512	1415
1399577456022368745	1534	1510	1512	1413
1399577456037381023	1542	1512	1512	1416
1399577456052345157	1538	1512	1512	1416
1399577456057272952	1532	1514	1512	1416
1399577456072400398	1529	1516	1512	1416
1399577456087346240	1534	1525	1512	1416
1399577456102366167	1519	1526	1512	1416
1399577456107319783	1534	1523	1511	1417
1399577456117344663	1516	1524	1511	1418
1399577456122331599	1512	1538	1511	1417
1399577456132283587	1515	1527	1511	1418
1399577456137549091	1519	1549	1512	1418
1399577456147568992	1512	1521	1511	1419
1399577456157591309	1513	1546	1511	1418
1399577456162485193	1481	1533	1511	1418
1399577456172569995	1493	1544	1511	1418
1399577456182323594	1480	1538	1511	1419
1399577456187567132	1479	1542	1511	1419
1399577456197618131	1482	1547	1511	1418
1399577456207584492	1479	1538	1511	1420
1399577456212587445	1480	1556	1511	1418
1399577456227622424	1471	1533	1511	1420
1399577456237518025	1465	1538	1511	1420
1399577456247496347	1461	1554	1511	1420
1399577456257603774	1469	1541	1511	1420
1399577456262529292	1466	1547	1511	1420
1399577456272567997	1457	1556	1511	1420
1399577456287659117	1459	1540	1511	1420
1399577456292609199	1457	1547	1511	1420
1399577456297595766	1444	1540	1511	1420
1399577456307500086	1450	1556	1511	1421
1399577456317576986	1464	1550	1511	1421
1399577456322540618	1463	1547	1511	1421
1399577456337582781	1460	1546	1511	1420
1399577456352562281	1460	1545	1511	1420
1399577456357585847	1460	1545	1511	1420
1399577456372622346	1466	1537	1511	1421
1399577456382575920	1454	1528	1511	1421
1399577456387616867	1461	1530	1511	1421
1399577456397612558	1460	1523	1511	1422
1399577456407596283	1455	1531	1511	1421
1399577456412606241	1469	1532	1511	1421
1399577456422575146	1477	1518	1511	1422
1399577456432556300	1484	1521	1511	1422
1399577456442543874	1471	1517	1511	1422
1399577456447564592	1475	1509	1511	1422
1399577456462602312	1486	1515	1511	1422
1399577456467504869	1484	1512	1511	1423
1399577456472542639	1485	1518	1511	1421
1399577456487541557	1494	1517	1511	1423
1399577456497582726	1487	1503	1512	1424
1399577456507510563	1484	1521	1512	1422
1399577456517579708	1510	1500	1512	1424
1399577456522582062	1518	1505	1512	1423
1399577456537627705	1513	1499	1511	1423
1399577456552598607	1511	1513	1511	1422
1399577456557578643	1518	1494	1511	1424
1399577456567462393	1536	1512	1512	1422
1399577456572537070	1533	1489	1512	1425
1399577456587516981	1542	1499	1512	1423
1399577456602363993	1545	1502	1512	1423
1399577456607356852	1545	1502	1512	1422
1399577456617610251	1562	1481	1512	1425
1399577456622571026	1566	1495	1512	1422
1399577456637636021	1566	1481	1512	1424
1399577456652564514	1569	1481	1512	1424
1399577456657494886	1565	1480	1512	1423
1399577456662561415	1581	1490	1512	1423
1399577456672647297	1578	1480	1512	1424
1399577456682618834	1580	1486	1512	1424
1399577456687536720	1585	1488	1512	1423
1399577456697547119	1582	1484	1512	1423
1399577456707599297	1591	1486	1512	1423
1399577456722561812	1578	1497	1512	1424
1399577456737613504	1580	1498	1511	1424
1399577456757630447	1587	1497	1511	1424
1399577456762597333	1589	1514	1511	1422
1399577456772559712	1593	1506	1511	1424
1399577456787526993	1591	1506	1511	1424
1399577456802596188	1590	1526	1511	1423
1399577456807585980	1588	1503	1511	1425
1399577456817295933	1571	1523	1511	1423
1399577456837534291	1580	1518	1511	1423
1399577456852604684	1575	1498	1511	1425
1399577456857383955	1581	1524	1511	1423
1399577456867666327	1555	1516	1511	1426
1399577456872567699	1561	1533	1511	1424
1399577456882584423	1567	1515	1511	1425
1399577456887551814	1569	1533	1511	1424
1399577456897477318	1562	1521	1511	1424
1399577456917531366	1541	1553	1511	1425
1399577456922521044	1542	1539	1511	1425
1399577456932511444	1534	1554	1511	1423
1399577456937486048	1533	1546	1511	1426
1399577456952624536	1518	1557	1511	1425
1399577456957510821	1534	1543	1511	1425
1399577456962708646	1525	1554	1511	1425
1399577456977556803	1510	1569	1511	1425
1399577456987601683	1513	1570	1511	1425
1399577457007695230	1506	1566	1511	1425
1399577457017605290	1463	1557	1511	1426
1399577457022572256	1464	1565	1511	1426
1399577457037630064	1463	1570	1511	1426
1399577457052630121	1461	1581	1511	1425
1399577457057591312	1465	1562	1511	1426
1399577457067653859	1456	1573	1511	1425
1399577457072637159	1454	1555	1511	1427
1399577457087585179	1442	1563	1511	1426
1399577457102540566	1448	1570	1511	1425
1399577457107432802	1442	1574	1511	1425
1399577457112566866	1434	1565	1511	1426
1399577457122458581	1431	1565	1511	1425
1399577457132461461	1428	1565	1511	1425
1399577457137548429	1417	1571	1511	1425
1399577457147627108	1409	1555	1511	1425
1399577457162679095	1416	1561	1511	1425
1399577457172583986	1431	1577	1511	1423
1399577457187640100	1417	1566	1511	1425
1399577457197612153	1408	1559	1511	1424
1399577457207550242	1401	1560	1511	1425
1399577457217639393	1426	1551	1511	1424
1399577457222509981	1422	1535	1511	1425
1399577457232632890	1419	1559	1511	1422
1399577457242448347	1415	1540	1511	1425
1399577457252564208	1416	1541	1510	1424
1399577457257599236	1417	1546	1511	1424
1399577457267552547	1447	1523	1510	1424
1399577457272519967	1436	1527	1511	1422
1399577457287571054	1428	1522	1510	1424
1399577457302528401	1435	1507	1511	1425
1399577457307505771	1441	1528	1510	1424
1399577457317530213	1458	1507	1511	1424
1399577457322517378	1458	1505	1511	1425
1399577457332634037	1447	1509	1511	1424
1399577457337528614	1456	1496	1511	1426
1399577457352548972	1451	1513	1511	1425
1399577457357534212	1455	1494	1511	1425
1399577457362531587	1467	1507	1511	1423
1399577457372648990	1501	1482	1511	1425
1399577457382546787	1506	1487	1511	1425
1399577457397486578	1497	1472	1511	1425
1399577457407533745	1505	1474	1511	1425
1399577457412557066	1528	1465	1511	1426
1399577457422620923	1521	1461	1511	1425
1399577457432560077	1524	1464	1511	1426
1399577457442563034	1525	1472	1511	1425
1399577457452541117	1528	1461	1511	1425
1399577457457456259	1528	1458	1512	1425
1399577457462554823	1582	1444	1512	1425
1399577457477530202	1577	1436	1512	1426
1399577457487536140	1580	1436	1511	1426
1399577457502591266	1588	1427	1511	1428
1399577457507515563	1591	1446	1511	1424
1399577457517585131	1599	1426	1511	1427
1399577457522488919	1600	1438	1511	1426
1399577457537529102	1598	1428	1511	1427
1399577457552500645	1606	1437	1511	1427
1399577457557469906	1612	1429	1511	1427
1399577457567551587	1637	1456	1511	1426
1399577457572543721	1639	1443	1511	1427
1399577457587339801	1643	1447	1511	1426
1399577457602363045	1646	1447	1511	1427
1399577457607316834	1645	1452	1511	1427
1399577457632371662	1652	1452	1511	1427
1399577457637311537	1650	1446	1511	1428
1399577457647324115	1650	1466	1511	1425
1399577457657337765	1664	1446	1511	1428
1399577457662285876	1643	1485	1511	1427
1399577457672334592	1627	1479	1511	1428
1399577457687332756	1646	1490	1512	1427
1399577457697338370	1642	1466	1512	1429
1399577457707316020	1641	1499	1512	1426
1399577457717259857	1629	1501	1512	1429
1399577457722319862	1633	1507	1512	1426
1399577457737353467	1625	1500	1512	1428
1399577457757365346	1628	1504	1512	1429
1399577457767344820	1594	1532	1512	1428
1399577457772325919	1598	1536	1512	1428
1399577457787344298	1589	1542	1513	1428
1399577457802280411	1587	1546	1513	1429
1399577457807169416	1590	1540	1513	1429
1399577457812268218	1523	1572	1513	1429
1399577457822288444	1525	1576	1513	1429
1399577457832257322	1523	1578	1513	1429
1399577457852240048	1527	1578	1513	1429
1399577457857251159	1521	1587	1513	1430
1399577457862210059	1449	1602	1513	1430
1399577457872214890	1445	1606	1513	1429
1399577457882234243	1436	1601	1513	1430
1399577457887237648	1436	1610	1513	1430
1399577457902266713	1435	1613	1513	1429
1399577457907246059	1428	1612	1513	1431
1399577457917200748	1409	1623	1513	1430
1399577457922239838	1403	1608	1513	1431
1399577457942241457	1394	1623	1512	1430
1399577457952264282	1387	1618	1512	1431
1399577457957306894	1385	1637	1512	1429
1399577457967280667	1367	1603	1512	1432
1399577457972333573	1360	1637	1511	1430
1399577457987256458	1358	1617	1511	1431
1399577458002278544	1341	1630	1511	1432
1399577458007199473	1342	1617	1511	1431
1399577458017237409	1354	1598	1511	1429
1399577458022283560	1346	1581	1511	1431
1399577458037335688	1345	1594	1510	1431
1399577458052325853	1336	1591	1510	1432
1399577458057241530	1336	1601	1510	1432
1399577458067267475	1363	1550	1510	1431
1399577458072256848	1362	1559	1510	1431
1399577458097298082	1355	1557	1510	1431
1399577458107272862	1348	1547	1510	1432
1399577458112296613	1375	1542	1509	1430
1399577458122299485	1371	1536	1510	1431
1399577458132333377	1372	1529	1510	1432
1399577458137251673	1376	1542	1510	1430
1399577458152313668	1368	1524	1510	1432
1399577458157251963	1372	1546	1510	1430
1399577458162323524	1425	1480	1510	1432
1399577458177274463	1433	1487	1510	1431
1399577458187340730	1433	1483	1510	1432
1399577458202294203	1435	1488	1510	1431
1399577458207251800	1442	1471	1511	1432
1399577458217290470	1570	1431	1511	1430
1399577458222248182	1558	1426	1511	1432
1399577458237280413	1565	1421	1511	1431
1399577458252308686	1561	1409	1511	1431
1399577458257244387	1578	1412	1511	1432
1399577458272293391	1615	1402	1512	1430
1399577458287282678	1625	1390	1512	1432
1399577458302280411	1641	1389	1512	1431
1399577458307272658	1648	1384	1512	1432
1399577458317322051	1703	1366	1511	1433
1399577458322257328	1703	1381	1511	1431
1399577458337239835	1703	1370	1511	1432
1399577458362399033	1703	1376	1510	1432
1399577458372301363	1703	1373	1510	1431
1399577458387408775	1703	1372	1510	1432
1399577458397235257	1703	1370	1510	1432
1399577458412315226	1703	1442	1510	1432
1399577458417290632	1703	1454	1509	1430
1399577458422258933	1703	1451	1509	1432
1399577458437357023	1703	1450	1509	1431
1399577458457362066	1703	1451	1509	1432
1399577458467289613	1703	1482	1510	1430
1399577458472226429	1703	1480	1510	1432
1399577458487249259	1703	1482	1510	1430
1399577458502281034	1703	1496	1510	1431
1399577458507284764	1703	1491	1510	1430
1399577458517257256	1630	1544	1511	1431
1399577458537271683	1633	1552	1511	1430
1399577458542288063	1622	1558	1512	1431
1399577458552287396	1636	1554	1512	1430
1399577458557280771	1620	1563	1512	1430
1399577458567291446	1518	1606	1513	1430
1399577458572238969	1507	1622	1513	1431
1399577458582398454	1499	1606	1513	1431
1399577458592246935	1505	1624	1513	1430
1399577458597215374	1495	1625	1514	1430
1399577458612285955	1397	1654	1514	1431
1399577458622242503	1389	1660	1513	1431
1399577458632252079	1393	1658	1514	1431
1399577458637242550	1384	1670	1514	1430
1399577458647301920	1367	1661	1513	1433
1399577458657296524	1367	1680	1513	1431
1399577458667275345	1336	1657	1513	1432
1399577458672230703	1336	1656	1513	1432
1399577458687292245	1336	1661	1512	1432
1399577458702209952	1336	1663	1512	1433
1399577458707240290	1336	1675	1512	1432
1399577458717283869	1336	1623	1512	1433
1399577458722232124	1336	1611	1512	1433
1399577458737264052	1336	1627	1511	1433
1399577458752281411	1336	1632	1511	1432
1399577458757324133	1336	1631	1511	1433
1399577458767307928	1336	1551	1511	1433
1399577458772238229	1336	1563	1511	1433
1399577458787316975	1336	1551	1511	1433
1399577458802258182	1336	1562	1511	1431
1399577458807232569	1336	1546	1511	1434
1399577458812264362	1336	1557	1511	1433
1399577458822277125	1397	1479	1511	1432
1399577458832255521	1398	1471	1512	1433
1399577458837238594	1399	1475	1512	1432
1399577458847273899	1395	1462	1512	1434
1399577458857274503	1395	1474	1513	1432
1399577458862233444	1593	1373	1513	1432
1399577458887275503	1586	1381	1514	1432
1399577458902250056	1594	1376	1515	1432
1399577458907216009	1606	1357	1515	1434
1399577458917282408	1649	1342	1516	1432
1399577458922250258	1654	1332	1516	1433
1399577458937258070	1656	1332	1516	1434
1399577458952279974	1665	1332	1517	1432
1399577458957242472	1669	1332	1516	1435
1399577458967306052	1703	1332	1516	1434
1399577458972255018	1703	1332	1516	1435
1399577458987308036	1703	1332	1516	1434
1399577459002344465	1703	1332	1516	1435
1399577459007285396	1703	1332	1515	1436
1399577459017306669	1703	1332	1515	1434
1399577459022256818	1703	1332	1515	1433
1399577459037247781	1703	1332	1514	1435
1399577459052257413	1703	1332	1514	1434
1399577459057266035	1703	1332	1513	1436
1399577459067289604	1682	1470	1513	1434
1399577459072339477	1677	1435	1513	1434
1399577459082331063	1692	1467	1512	1434
1399577459087278522	1688	1446	1512	1434
1399577459097306787	1697	1454	1512	1433
1399577459112386026	1686	1481	1511	1434
1399577459122294582	1690	1485	1512	1432
1399577459137332020	1697	1486	1512	1433
1399577459147315168	1702	1490	1512	1432
1399577459157282280	1703	1482	1512	1431
1399577459167342318	1561	1586	1512	1432
1399577459172338204	1565	1589	1513	1431
1399577459187301280	1562	1587	1514	1430
1399577459202281807	1562	1597	1514	1430
1399577459207254380	1547	1608	1514	1431
1399577459217531416	1433	1652	1515	1430
1399577459222482329	1452	1650	1515	1430
1399577459237306258	1429	1661	1516	1430
1399577459252353153	1436	1674	1516	1427
1399577459257256511	1417	1677	1517	1430
1399577459267267521	1367	1637	1517	1429
1399577459272266386	1383	1646	1517	1427
1399577459282281628	1354	1638	1517	1430
1399577459287355184	1354	1665	1516	1429
1399577459297268087	1344	1648	1516	1429
1399577459317327501	1336	1652	1516	1428
1399577459322288586	1336	1679	1515	1428
1399577459347298744	1336	1676	1513	1429
1399577459357237423	1336	1677	1513	1429
1399577459367240553	1356	1582	1512	1428
1399577459372291520	1342	1583	1512	1429
1399577459382238442	1342	1582	1511	1428
1399577459392267161	1336	1589	1511	1428
1399577459402244622	1336	1600	1510	1429
1399577459407261733	1336	1597	1510	1427
1399577459417275253	1409	1491	1509	1427
1399577459422251108	1386	1504	1508	1427
1399577459437281236	1388	1513	1508	1427
1399577459457266197	1370	1503	1507	1427
1399577459467266009	1468	1476	1507	1426
1399577459472350197	1466	1459	1507	1427
1399577459487287587	1458	1472	1507	1426
1399577459502378211	1457	1465	1507	1425
1399577459517285821	1488	1432	1507	1426
1399577459522266271	1503	1424	1507	1423
1399577459537245019	1485	1425	1508	1425
1399577459552308348	1500	1412	1508	1424
1399577459557378899	1490	1412	1508	1423
1399577459582310862	1575	1382	1509	1423
1399577459587263188	1591	1368	1509	1424
1399577459602376489	1599	1372	1509	1423
1399577459607264175	1582	1368	1509	1424
1399577459612339911	1605	1474	1509	1422
1399577459627327784	1622	1480	1509	1422
1399577459637248166	1624	1465	1509	1422
1399577459647249318	1618	1468	1509	1421
1399577459657255210	1642	1463	1509	1422
1399577459667286246	1554	1558	1509	1422
1399577459672257399	1573	1501	1509	1422
1399577459687261248	1572	1532	1509	1422
1399577459702304942	1579	1533	1508	1421
1399577459707288671	1579	1531	1509	1422
1399577459717312604	1488	1582	1509	1421
1399577459722279312	1487	1580	1509	1422
1399577459737368714	1490	1583	1509	1421
1399577459752315498	1491	1587	1509	1422
1399577459757262524	1488	1580	1510	1420
1399577459767271451	1458	1629	1510	1423
1399577459772273454	1450	1634	1510	1421
1399577459782239933	1460	1633	1510	1420
1399577459787227110	1451	1633	1511	1421
1399577459797229265	1457	1644	1511	1421
1399577459817217536	1421	1607	1512	1421
1399577459822233210	1417	1617	1512	1421
1399577459837274456	1409	1620	1512	1420
1399577459847234762	1419	1632	1512	1419
1399577459857258568	1404	1629	1512	1420
1399577459862316118	1388	1625	1512	1420
1399577459872263028	1388	1639	1512	1420
1399577459887268592	1378	1639	1512	1420
1399577459902260487	1368	1647	1512	1420
1399577459907268270	1384	1635	1512	1421
1399577459912233518	1453	1558	1512	1420
1399577459922243314	1458	1537	1512	1422
1399577459937433952	1445	1550	1512	1420
1399577459952304123	1441	1546	1512	1421
1399577459957217040	1444	1536	1512	1421
1399577459967264856	1469	1517	1512	1419
1399577459972277256	1462	1504	1512	1422
1399577459987391446	1460	1507	1512	1422
1399577460002265701	1457	1493	1512	1422
1399577460007234427	1458	1507	1512	1421
1399577460012211850	1505	1469	1512	1423
1399577460022234498	1513	1488	1512	1422
1399577460032258645	1500	1474	1513	1422
1399577460047324671	1508	1471	1513	1423
1399577460057227296	1507	1465	1513	1424
1399577460062287952	1513	1500	1513	1422
1399577460072249554	1536	1490	1513	1425
1399577460082227291	1543	1484	1513	1424
1399577460097235369	1536	1495	1513	1423
1399577460102312500	1539	1478	1513	1425
1399577460107267258	1540	1483	1513	1425
1399577460117249553	1543	1522	1513	1423
1399577460122251035	1554	1511	1512	1425
1399577460137309792	1560	1511	1512	1425
1399577460147235383	1559	1497	1512	1425
1399577460157242106	1566	1514	1512	1425
1399577460167270784	1546	1535	1512	1426
1399577460172256439	1544	1533	1511	1425
1399577460187277775	1555	1531	1511	1425
1399577460202308632	1551	1517	1510	1426
1399577460207338005	1557	1527	1510	1426
1399577460217254609	1542	1563	1510	1425
1399577460222264296	1542	1538	1510	1426
1399577460237198879	1557	1555	1509	1426
1399577460252284493	1549	1549	1509	1426
1399577460267408030	1495	1575	1509	1426
1399577460272279232	1499	1576	1509	1427
1399577460282233884	1496	1571	1509	1425
1399577460287276051	1503	1575	1509	1426
1399577460302261242	1498	1580	1509	1425
1399577460307261738	1506	1575	1509	1426
1399577460317228130	1483	1557	1509	1426
1399577460322251941	1479	1556	1509	1428
1399577460332262632	1494	1572	1509	1426
1399577460337356364	1486	1554	1509	1427
1399577460352331918	1481	1558	1508	1427
1399577460357287725	1490	1571	1508	1426
1399577460372419767	1514	1525	1508	1427
1399577460382261717	1514	1527	1508	1428
1399577460392251166	1510	1534	1508	1428
1399577460402256294	1512	1528	1508	1426
1399577460407243165	1518	1514	1508	1428
1399577460417229448	1542	1518	1508	1427
1399577460422223766	1543	1505	1508	1429
1399577460437279296	1534	1508	1508	1428
1399577460452229271	1548	1497	1507	1430
1399577460457249411	1538	1519	1507	1429
1399577460467259410	1535	1487	1507	1429
1399577460472269360	1539	1491	1507	1428
1399577460487282939	1539	1497	1507	1430
1399577460497238422	1535	1483	1507	1429
1399577460507251769	1546	1483	1507	1431
1399577460517228970	1557	1492	1507	1429
1399577460522190465	1562	1481	1507	1430
1399577460532245875	1561	1488	1507	1430
1399577460537257581	1566	1476	1507	1430
1399577460547238409	1571	1480	1506	1430
1399577460562291951	1561	1482	1506	1430
1399577460572314311	1576	1470	1506	1432
1399577460587275255	1575	1486	1506	1431
1399577460602286993	1586	1473	1506	1431
1399577460607310520	1578	1487	1506	1430
1399577460612264745	1570	1466	1506	1432
1399577460622263041	1570	1479	1506	1430
1399577460637272548	1580	1469	1506	1432
1399577460652274449	1578	1467	1506	1431
1399577460657239352	1585	1464	1506	1432
1399577460672275727	1544	1492	1506	1432
1399577460687362821	1551	1487	1506	1432
1399577460702291882	1546	1476	1506	1433
1399577460707243348	1553	1493	1506	1431
1399577460712258756	1543	1491	1506	1433
1399577460737287749	1538	1496	1507	1433
1399577460752331983	1536	1491	1507	1432
1399577460757257289	1541	1486	1507	1433
1399577460762224460	1536	1502	1507	1432
1399577460772259574	1531	1509	1507	1432
1399577460782270648	1522	1520	1507	1432
1399577460797286199	1521	1516	1508	1433
1399577460807321841	1521	1515	1508	1433
1399577460812293007	1518	1528	1508	1433
1399577460822229844	1508	1528	1508	1433
1399577460832275805	1509	1521	1508	1433
1399577460837254826	1519	1532	1508	1433
1399577460847280270	1509	1528	1509	1434
1399577460857232736	1508	1536	1509	1433
1399577460867249340	1515	1516	1509	1434
1399577460872238397	1514	1517	1509	1433
1399577460887210261	1517	1520	1509	1434
1399577460897243364	1511	1516	1509	1433
1399577460907269447	1514	1526	1509	1434
1399577460917237092	1517	1513	1509	1434
1399577460922245820	1521	1510	1510	1434
1399577460937280328	1518	1513	1510	1434
1399577460952274547	1514	1522	1510	1433
1399577460957289113	1518	1506	1510	1435
1399577460967258147	1522	1514	1510	1433
1399577460972332028	1524	1502	1510	1434
1399577460982214767	1522	1505	1510	1435
1399577460987275794	1512	1507	1510	1434
1399577460997253892	1515	1509	1510	1435
1399577461007290627	1522	1509	1511	1433
1399577461012262456	1532	1481	1511	1434
1399577461032274289	1527	1488	1511	1434
1399577461037273074	1528	1494	1511	1434
1399577461047270294	1522	1480	1511	1436
1399577461057252262	1530	1496	1511	1434
1399577461062257230	1533	1472	1511	1435
1399577461072273273	1537	1471	1511	1434
1399577461082255630	1537	1481	1511	1433
1399577461092264252	1530	1463	1511	1436
1399577461102245382	1535	1488	1511	1433
1399577461107226484	1530	1475	1511	1435
1399577461117242735	1535	1480	1512	1434
1399577461122307560	1536	1483	1511	1433
1399577461132302999	1527	1472	1512	1435
1399577461137286608	1531	1485	1512	1434
1399577461152234738	1529	1476	1512	1434
1399577461157225082	1533	1479	1512	1434
1399577461167274988	1528	1505	1512	1433
1399577461172207091	1532	1490	1512	1435
1399577461187240536	1525	1499	1512	1434
1399577461202258597	1524	1495	1512	1435
1399577461207233613	1523	1498	1512	1433
1399577461217225967	1525	1495	1512	1434
1399577461222283771	1527	1508	1512	1433
1399577461232268613	1526	1499	1512	1434
1399577461237254997	1525	1508	1512	1434
1399577461247291785	1529	1501	1512	1434
1399577461267280108	1520	1516	1512	1434
1399577461272237424	1517	1528	1512	1433
1399577461287278940	1517	1516	1513	1434
1399577461297254776	1520	1531	1512	1432
1399577461307236638	1511	1520	1512	1434
1399577461312247375	1510	1551	1512	1433
1399577461322293283	1513	1548	1512	1434
1399577461332289170	1511	1545	1513	1434
1399577461342324318	1504	1556	1512	1433
1399577461352257804	1502	1536	1512	1434
1399577461357313640	1509	1562	1512	1433
1399577461362286678	1496	1547	1512	1433
1399577461372261614	1505	1547	1512	1434
1399577461387328891	1501	1563	1512	1432
1399577461392265345	1496	1542	1512	1435
1399577461402274701	1501	1573	1512	1433
1399577461407301048	1498	1549	1512	1434
1399577461412182931	1493	1534	1512	1434
1399577461422227397	1483	1543	1511	1433
1399577461437306063	1486	1540	1511	1434
1399577461452281813	1483	1542	1511	1434
1399577461467310167	1490	1537	1511	1434
1399577461472233154	1483	1520	1511	1436
1399577461487313981	1482	1540	1511	1434
1399577461502300753	1479	1539	1510	1434
1399577461507224188	1486	1541	1510	1433
1399577461517246031	1483	1507	1510	1435
1399577461522249021	1476	1542	1510	1433
1399577461532245716	1484	1510	1510	1436
1399577461537253876	1480	1532	1510	1433
1399577461547235133	1484	1519	1510	1435
1399577461562320724	1476	1517	1510	1433
1399577461567264458	1474	1532	1509	1434
1399577461572197447	1477	1512	1509	1435
1399577461587285348	1476	1525	1509	1434
1399577461597272737	1485	1512	1509	1435
1399577461607281684	1471	1527	1509	1433
1399577461617224458	1478	1491	1509	1435
1399577461622220859	1478	1495	1509	1434
1399577461637262171	1478	1495	1508	1434
1399577461657288110	1480	1484	1508	1434
1399577461667239741	1479	1497	1508	1432
1399577461672219113	1488	1478	1508	1434
1399577461687283565	1481	1488	1508	1434
1399577461702270553	1484	1486	1507	1434
1399577461707248795	1486	1488	1507	1433
1399577461717264576	1501	1483	1507	1434
1399577461722217698	1494	1493	1507	1434
1399577461732213504	1504	1491	1507	1434
1399577461737288332	1496	1485	1507	1434
1399577461747330627	1507	1485	1507	1435
1399577461757260235	1491	1499	1507	1433
1399577461762267985	1514	1495	1507	1433
1399577461772262122	1513	1505	1507	1434
1399577461782293408	1517	1502	1507	1433
1399577461797276826	1511	1500	1507	1435
1399577461802257574	1510	1518	1507	1433
1399577461807226857	1511	1492	1507	1436
1399577461812248018	1523	1513	1507	1433
1399577461822261726	1528	1495	1507	1434
1399577461832253201	1522	1506	1507	1435
1399577461837217569	1518	1522	1507	1433
1399577461852285021	1520	1494	1507	1435
1399577461857292000	1530	1515	1507	1433
1399577461867254854	1518	1505	1507	1437
1399577461872256573	1523	1525	1507	1434
1399577461882302240	1526	1511	1507	1434
1399577461892263699	1525	1514	1507	1434
1399577461902292447	1528	1517	1507	1434
1399577461907305158	1531	1519	1507	1435
1399577461922302503	1535	1533	1507	1435
1399577461937275480	1535	1534	1507	1435
1399577461952308096	1538	1543	1507	1433
1399577461957267721	1540	1529	1507	1435
1399577461967250621	1541	1571	1507	1434
1399577461972247764	1533	1554	1507	1435
1399577461987286199	1534	1571	1507	1434
1399577461997282351	1540	1558	1507	1435
1399577462007282644	1544	1571	1507	1433
1399577462012250554	1538	1557	1507	1435
1399577462032269537	1543	1576	1507	1434
1399577462037304998	1544	1574	1507	1434
1399577462047247179	1542	1581	1507	1434
1399577462057244093	1543	1577	1507	1434
1399577462062197898	1527	1575	1507	1433
1399577462077279053	1531	1560	1507	1433
1399577462087255162	1525	1571	1507	1434
1399577462097244878	1531	1568	1507	1434
1399577462107249147	1540	1587	1507	1432
1399577462117231586	1510	1560	1507	1433
1399577462122250417	1514	1574	1507	1433
1399577462137286976	1518	1568	1507	1433
1399577462147222673	1521	1569	1507	1432
1399577462157215004	1512	1565	1507	1434
1399577462167227434	1493	1578	1507	1431
1399577462172193248	1496	1550	1507	1433
1399577462187256582	1493	1568	1507	1431
1399577462202246378	1498	1564	1507	1433
1399577462207235162	1488	1566	1507	1430
1399577462217256228	1482	1557	1506	1433
1399577462222221367	1489	1578	1506	1430
1399577462232252542	1487	1549	1506	1433
1399577462242239650	1488	1569	1506	1430
1399577462247291870	1492	1566	1506	1431
1399577462267268431	1482	1533	1506	1431
1399577462272268120	1479	1527	1506	1432
1399577462297266217	1478	1531	1505	1431
1399577462302289736	1481	1538	1505	1431
1399577462307275896	1479	1529	1505	1431
1399577462317285109	1476	1506	1505	1431
1399577462322275921	1469	1499	1505	1431
1399577462332265125	1464	1504	1505	1432
1399577462342274410	1467	1508	1505	1431
1399577462352263870	1469	1501	1505	1431
1399577462357272132	1469	1501	1505	1432
1399577462367202674	1468	1479	1504	1431
1399577462372245991	1459	1479	1504	1431
1399577462387266124	1460	1472	1504	1431
1399577462402323793	1459	1474	1504	1430
1399577462407284973	1465	1469	1504	1431
1399577462417251427	1466	1470	1504	1430
1399577462422247656	1470	1457	1504	1431
1399577462437262166	1461	1460	1504	1430
1399577462452240620	1461	1460	1504	1430
1399577462457245329	1457	1456	1504	1430
1399577462462260321	1469	1459	1505	1431
1399577462472243036	1469	1460	1505	1430
1399577462487233930	1472	1453	1505	1430
1399577462502242707	1475	1448	1505	1430
1399577462507311090	1472	1448	1505	1430
1399577462512242764	1472	1449	1505	1430
1399577462522290592	1477	1447	1505	1430
1399577462532236158	1478	1436	1505	1430
1399577462547255522	1477	1450	1505	1430
1399577462552218790	1480	1436	1506	1430
1399577462557234175	1475	1437	1506	1431
1399577462562199937	1496	1447	1506	1430
1399577462577288262	1490	1434	1506	1431
1399577462587261011	1493	1435	1506	1430
1399577462602286041	1501	1437	1507	1430
1399577462607285796	1495	1434	1507	1430
1399577462612239668	1503	1442	1507	1431
1399577462622268590	1515	1456	1507	1430
1399577462637270309	1511	1442	1507	1430
1399577462652310656	1511	1439	1508	1431
1399577462657198098	1508	1441	1508	1430
1399577462667233674	1524	1471	1508	1430
1399577462672282090	1528	1464	1508	1431
1399577462687324779	1520	1470	1508	1430
1399577462702263135	1531	1481	1508	1429
1399577462707255386	1528	1464	1508	1429
1399577462732310778	1550	1507	1509	1429
1399577462737240280	1557	1510	1509	1428
1399577462747291699	1548	1501	1509	1430
1399577462757217710	1556	1516	1509	1428
1399577462762296526	1570	1521	1509	1429
1399577462777292058	1575	1524	1509	1428
1399577462787239442	1567	1536	1510	1428
1399577462797271619	1573	1536	1510	1427
1399577462807220300	1574	1535	1510	1428
1399577462812235661	1582	1561	1510	1428
1399577462822187964	1581	1572	1510	1427
1399577462837281727	1584	1567	1510	1427
1399577462847289642	1588	1561	1510	1428
1399577462857239896	1591	1581	1511	1427
1399577462867279492	1570	1574	1511	1428
1399577462872228715	1576	1587	1511	1427
1399577462887263232	1579	1583	1511	1427
1399577462902177322	1582	1597	1511	1427
1399577462907272081	1583	1579	1511	1427
1399577462917436250	1561	1610	1511	1428
1399577462922264378	1564	1597	1511	1428
1399577462937296882	1567	1609	1511	1427
1399577462952277105	1575	1614	1511	1428
1399577462957205158	1560	1609	1511	1427
1399577462967271480	1565	1625	1511	1428
1399577462972268842	1573	1617	1511	1427
1399577462982246990	1556	1630	1511	1428
1399577462987269013	1577	1621	1511	1428
1399577462997258439	1568	1631	1511	1427
1399577463012283495	1558	1632	1511	1429
1399577463017229005	1546	1632	1511	1428
1399577463022256634	1562	1637	1511	1428
1399577463032242074	1557	1631	1511	1429
1399577463037252969	1556	1652	1511	1428
1399577463052270732	1561	1639	1511	1430
1399577463057292792	1563	1645	1511	1428
1399577463067342748	1538	1621	1511	1429
1399577463072260168	1539	1637	1511	1429
1399577463082268057	1534	1627	1511	1429
1399577463092219730	1539	1623	1511	1429
1399577463102244999	1529	1635	1511	1429
1399577463107247509	1537	1634	1511	1429
1399577463117256410	1505	1583	1511	1430
1399577463122241528	1503	1580	1511	1429
1399577463137294787	1499	1585	1511	1430
1399577463152326314	1495	1570	1511	1432
1399577463157242348	1502	1594	1511	1429
1399577463167256850	1463	1525	1511	1431
1399577463172299538	1465	1535	1511	1431
1399577463187303457	1454	1533	1511	1431
1399577463202294288	1454	1549	1510	1429
1399577463207255689	1451	1513	1510	1432
1399577463212238080	1439	1495	1510	1430
1399577463222259403	1431	1489	1510	1432
1399577463232277352	1435	1483	1510	1432
1399577463252288228	1430	1484	1510	1432
1399577463257260466	1425	1489	1510	1432
1399577463277321263	1425	1459	1510	1433
1399577463287312489	1421	1455	1510	1433
1399577463302324846	1417	1460	1510	1433
1399577463307219170	1415	1443	1510	1435
1399577463317227954	1423	1419	1510	1434
1399577463322249570	1411	1409	1510	1436
1399577463337243030	1415	1413	1510	1435
1399577463352300175	1407	1403	1510	1435
1399577463357282313	1412	1401	1510	1435
1399577463367293865	1405	1372	1509	1438
1399577463372243071	1422	1379	1510	1436
1399577463387318643	1410	1363	1510	1437
1399577463402273612	1407	1361	1510	1437
1399577463407262566	1400	1360	1509	1438
1399577463417265571	1417	1334	1510	1438
1399577463422219636	1404	1339	1510	1439
1399577463432271684	1401	1335	1510	1439
1399577463437221937	1404	1332	1509	1439
1399577463447265214	1402	1332	1510	1440
1399577463467270348	1406	1332	1509	1440
1399577463472252660	1406	1332	1510	1440
1399577463482311015	1399	1332	1510	1441
1399577463487233053	1398	1332	1510	1441
1399577463497289283	1404	1332	1510	1441
1399577463507243556	1387	1332	1509	1441
1399577463522352788	1414	1332	1509	1441
1399577463537295302	1413	1332	1509	1441
1399577463547262084	1411	1332	1509	1442
1399577463557269661	1419	1332	1508	1441
1399577463567290589	1439	1337	1508	1442
1399577463572193262	1455	1338	1508	1442
1399577463587311687	1450	1332	1507	1442
1399577463602329740	1457	1341	1507	1442
1399577463607270596	1445	1332	1507	1443
1399577463622266126	1483	1366	1506	1442
1399577463637339689	1486	1366	1506	1442
1399577463652256013	1484	1363	1505	1443
1399577463657275002	1495	1375	1505	1441
1399577463667244099	1548	1465	1505	1443
1399577463672276646	1554	1466	1504	1443
1399577463682265973	1563	1471	1504	1443
1399577463702330869	1556	1472	1504	1443
1399577463707242701	1557	1472	1503	1444
1399577463717252737	1591	1518	1503	1443
1399577463722255469	1571	1513	1503	1443
1399577463732311153	1579	1521	1503	1444
1399577463737256379	1589	1517	1502	1443
1399577463747252816	1575	1524	1502	1443
1399577463757250935	1593	1536	1502	1443
1399577463767251510	1608	1554	1502	1445
1399577463772235114	1598	1576	1502	1444
1399577463782222386	1601	1563	1501	1444
1399577463787238508	1612	1574	1501	1443
1399577463797245300	1599	1582	1501	1444
1399577463807270242	1614	1583	1501	1444
1399577463822277925	1635	1635	1501	1445
1399577463837274078	1638	1648	1501	1445
1399577463852337572	1637	1656	1501	1444
1399577463857259563	1650	1658	1501	1445
1399577463872263407	1638	1699	1500	1444
1399577463887269442	1655	1699	1501	1445
1399577463902276070	1646	1699	1501	1444
1399577463907228760	1671	1699	1501	1446
1399577463912251497	1648	1699	1501	1444
1399577463932308178	1661	1699	1501	1445
1399577463937304673	1678	1699	1501	1446
1399577463947236126	1661	1699	1501	1444
1399577463957256342	1675	1699	1501	1446
1399577463962277329	1655	1699	1501	1445
1399577463982313032	1663	1699	1501	1444
1399577463987243033	1676	1699	1501	1444
1399577464002321759	1673	1699	1502	1445
1399577464007263952	1668	1699	1502	1443
1399577464012267141	1645	1699	1502	1444
1399577464027294330	1654	1699	1502	1443
1399577464037277812	1656	1699	1502	1443
1399577464052270417	1652	1699	1502	1443
1399577464057237065	1655	1699	1502	1444
1399577464067284227	1620	1699	1502	1442
1399577464072203343	1621	1699	1502	1444
1399577464082276563	1618	1699	1502	1441
1399577464087252595	1626	1699	1502	1443
1399577464102274454	1613	1699	1501	1442
1399577464107272389	1613	1699	1501	1440
1399577464117298431	1578	1699	1501	1443
1399577464122252255	1571	1699	1501	1440
1399577464132255069	1567	1699	1501	1441
1399577464137202258	1567	1699	1501	1441
1399577464152287166	1561	1699	1500	1441
1399577464157280221	1561	1699	1500	1441
1399577464167248816	1527	1699	1500	1440
1399577464172287027	1533	1699	1500	1441
1399577464182258403	1528	1699	1500	1440
1399577464187237300	1519	1699	1499	1439
1399577464197236543	1521	1699	1499	1440
1399577464207294745	1521	1699	1499	1440
1399577464212274791	1419	1589	1499	1441
1399577464222309369	1423	1587	1499	1440
1399577464232295317	1424	1594	1498	1438
1399577464237288093	1418	1575	1499	1441
1399577464247305965	1410	1586	1499	1439
1399577464262271659	1399	1544	1499	1441
1399577464267266287	1375	1545	1499	1441
1399577464272280522	1388	1536	1499	1440
1399577464287315928	1377	1537	1499	1441
1399577464302288402	1364	1526	1500	1440
1399577464307265984	1358	1520	1500	1442
1399577464312266957	1336	1473	1500	1439
1399577464322233741	1336	1457	1501	1443
1399577464337292249	1336	1464	1501	1441
1399577464352246812	1336	1448	1501	1440
1399577464357319732	1336	1455	1501	1440
1399577464372234739	1336	1417	1502	1443
1399577464387320708	1336	1419	1503	1441
1399577464402278445	1336	1414	1502	1441
1399577464407203488	1336	1399	1503	1443
1399577464417241678	1336	1332	1503	1440
1399577464422254443	1336	1332	1503	1442
1399577464432295108	1336	1332	1504	1443
1399577464442257373	1336	1332	1504	1441
1399577464452259252	1336	1332	1504	1444
1399577464457270371	1336	1332	1504	1441
1399577464467268384	1336	1332	1505	1442
1399577464472244304	1336	1332	1505	1443
1399577464497292502	1336	1332	1506	1442
1399577464502246387	1336	1332	1506	1441
1399577464507242415	1336	1332	1507	1444
1399577464517214968	1336	1332	1507	1441
1399577464522287072	1336	1332	1508	1443
1399577464537281641	1336	1332	1508	1442
1399577464552312174	1336	1332	1509	1443
1399577464557282931	1336	1332	1509	1441
1399577464567318847	1336	1332	1510	1443
1399577464572306501	1336	1332	1510	1443
1399577464587272833	1336	1332	1511	1443
1399577464602285520	1336	1332	1511	1443
1399577464617278274	1365	1332	1512	1442
1399577464622268532	1364	1332	1512	1443
1399577464637330755	1364	1332	1512	1443
1399577464652306526	1360	1332	1512	1441
1399577464657258005	1359	1332	1512	1443
1399577464662289723	1410	1332	1512	1443
1399577464672308765	1410	1332	1512	1442
1399577464682253144	1402	1332	1512	1442
1399577464687257145	1419	1332	1512	1442
1399577464697274068	1402	1332	1511	1442
1399577464707301564	1420	1332	1511	1441
1399577464712265859	1519	1358	1511	1441
1399577464727246122	1503	1371	1511	1441
1399577464737293222	1522	1367	1511	1441
1399577464752351412	1529	1364	1511	1441
1399577464757260744	1538	1362	1510	1441
1399577464762263088	1616	1519	1510	1441
1399577464772238033	1621	1511	1510	1441
1399577464787313133	1629	1520	1510	1441
1399577464802273021	1637	1520	1510	1441
1399577464807199598	1658	1524	1511	1442
1399577464817282963	1656	1555	1510	1439
1399577464822255980	1676	1565	1511	1441
1399577464832276111	1678	1559	1511	1441
1399577464852241736	1685	1565	1511	1441
1399577464857310500	1701	1573	1511	1442
1399577464867295108	1685	1625	1511	1441
1399577464872254491	1691	1623	1511	1441
1399577464887310145	1697	1635	1512	1442
1399577464902280882	1703	1642	1512	1442
1399577464907283604	1703	1634	1512	1442
1399577464917244602	1666	1662	1512	1442
1399577464922257552	1670	1660	1512	1441
1399577464932264317	1678	1669	1513	1443
1399577464942289521	1689	1675	1513	1441
1399577464947230324	1691	1664	1513	1444
1399577464962301652	1622	1614	1513	1441
1399577464967217250	1630	1603	1513	1444
1399577464972227461	1639	1627	1513	1443
1399577464987304859	1642	1622	1513	1443
1399577465002281045	1664	1650	1514	1444
1399577465007295557	1660	1625	1514	1443
1399577465012268922	1653	1673	1514	1444
1399577465027276594	1668	1661	1514	1442
1399577465037280036	1668	1682	1515	1444
1399577465052273734	1677	1684	1515	1443
1399577465057226476	1684	1692	1515	1444
1399577465062274308	1574	1511	1515	1443
1399577465072261330	1569	1497	1515	1443
1399577465087303330	1586	1524	1515	1444
1399577465102296592	1590	1529	1516	1443
1399577465107249979	1591	1547	1516	1442
1399577465117220576	1553	1530	1516	1442
1399577465122232959	1549	1550	1516	1442
1399577465137284769	1559	1553	1516	1442
1399577465152233671	1565	1564	1516	1442
1399577465157249777	1563	1574	1516	1441
1399577465162223467	1553	1515	1515	1441
1399577465172246362	1566	1536	1515	1439
1399577465182295088	1558	1524	1515	1442
1399577465197264023	1565	1538	1514	1438
1399577465217278214	1515	1498	1512	1439
1399577465222243688	1512	1505	1512	1439
1399577465237216560	1512	1503	1510	1437
1399577465252329904	1516	1502	1510	1436
1399577465257256666	1499	1501	1509	1437
1399577465267289813	1574	1478	1508	1437
1399577465272258246	1562	1474	1507	1436
1399577465287294069	1568	1471	1506	1436
1399577465302326593	1558	1469	1505	1437
1399577465307244349	1560	1456	1505	1435
1399577465317309541	1531	1420	1504	1435
1399577465322342044	1529	1400	1504	1437
1399577465337219746	1525	1407	1503	1435
1399577465352268981	1509	1401	1503	1435
1399577465357236053	1517	1393	1503	1436
1399577465362258594	1497	1368	1503	1435
1399577465387342414	1498	1359	1503	1435
1399577465402344281	1474	1363	1503	1436
1399577465407304240	1486	1337	1504	1435
1399577465412286853	1474	1347	1504	1435
1399577465422324296	1550	1469	1504	1435
1399577465437326718	1548	1470	1505	1435
1399577465452285682	1538	1455	1505	1437
1399577465457257996	1522	1471	1505	1434
1399577465462220921	1565	1522	1506	1436
1399577465472236149	1570	1537	1506	1434
1399577465487299550	1565	1525	1506	1435
1399577465502294847	1550	1526	1506	1434
1399577465507268043	1551	1513	1507	1435
1399577465517310646	1574	1552	1507	1433
1399577465522253113	1569	1533	1507	1435
1399577465532313917	1583	1539	1507	1434
1399577465542213243	1564	1532	1508	1433
1399577465552275946	1565	1532	1508	1434
1399577465557337758	1567	1538	1508	1432
1399577465562258017	1547	1505	1508	1434
1399577465587288130	1553	1514	1509	1433
1399577465602304604	1548	1516	1509	1432
1399577465607242226	1542	1505	1509	1433
1399577465617319033	1560	1535	1510	1431
1399577465622271142	1557	1516	1510	1433
1399577465632291113	1566	1532	1510	1433
1399577465637240653	1560	1520	1510	1432
1399577465647264891	1561	1523	1511	1433
1399577465657288719	1565	1530	1511	1432
1399577465667298521	1524	1521	1511	1432
1399577465672233949	1519	1546	1512	1432
1399577465687297726	1528	1532	1512	1431
1399577465697340507	1525	1546	1513	1431
1399577465707324530	1531	1534	1513	1431
1399577465712260019	1519	1544	1513	1430
1399577465727262182	1524	1598	1514	1429
1399577465737306554	1526	1603	1515	1430
1399577465747327795	1528	1605	1515	1429
1399577465757317038	1533	1608	1515	1429
1399577465767258308	1499	1560	1515	1429
1399577465772250625	1507	1572	1516	1427
1399577465787326942	1502	1573	1516	1428
1399577465802307865	1499	1579	1516	1429
1399577465807272034	1502	1579	1517	1427
1399577465822329347	1487	1555	1516	1428
1399577465837279694	1486	1559	1517	1427
1399577465852377378	1494	1554	1517	1427
1399577465857315501	1482	1571	1517	1426
1399577465867340782	1457	1524	1518	1427
1399577465872271691	1471	1536	1518	1426
1399577465882240257	1454	1524	1518	1426
1399577465897263850	1457	1530	1518	1427
1399577465907259372	1448	1525	1518	1426
1399577465912218170	1461	1507	1518	1426
1399577465922270616	1465	1499	1518	1426
1399577465932305037	1466	1498	1518	1427
1399577465937257475	1452	1507	1518	1425
1399577465947307295	1452	1489	1518	1427
1399577465962284644	1459	1498	1518	1425
1399577465967263216	1450	1483	1518	1426
1399577465972250913	1462	1482	1518	1427
1399577465987356055	1450	1488	1518	1426
1399577465997268029	1440	1481	1518	1426
1399577466007280746	1455	1479	1518	1427
1399577466017272063	1482	1522	1518	1426
1399577466022302428	1485	1509	1518	1427
1399577466037251741	1481	1514	1518	1427
1399577466057376480	1483	1506	1518	1427
1399577466067255860	1507	1508	1518	1427
1399577466072404778	1510	1501	1518	1427
1399577466087331537	1509	1501	1518	1428
1399577466102487930	1509	1503	1517	1427
1399577466107610071	1507	1492	1517	1428
1399577466117389740	1506	1532	1517	1428
1399577466122470525	1508	1519	1517	1428
1399577466137451003	1515	1522	1516	1429
1399577466152550989	1512	1517	1516	1429
1399577466157535226	1518	1520	1516	1429
1399577466162554805	1529	1527	1516	1429
1399577466172580036	1526	1533	1515	1429
1399577466182532733	1533	1537	1515	1429
1399577466187564719	1528	1514	1515	1431
1399577466197581853	1540	1535	1515	1429
1399577466207599960	1540	1523	1515	1430
1399577466222538678	1478	1528	1514	1430
1399577466232518362	1488	1519	1514	1431
1399577466242540304	1489	1531	1514	1430
1399577466252381012	1492	1522	1514	1432
1399577466257475024	1487	1528	1513	1431
1399577466267569293	1489	1527	1513	1432
1399577466272507141	1500	1530	1513	1432
1399577466287471069	1500	1535	1513	1432
1399577466302529611	1502	1517	1512	1432
1399577466307531775	1500	1532	1512	1431
1399577466322449318	1481	1514	1512	1434
1399577466337536592	1489	1519	1511	1433
1399577466352611486	1491	1522	1511	1433
1399577466357365659	1497	1508	1511	1435
1399577466382575401	1480	1520	1510	1434
1399577466387543350	1480	1510	1510	1435
1399577466397524099	1484	1517	1510	1435
1399577466417376334	1483	1508	1509	1435
1399577466422564133	1484	1521	1509	1434
1399577466432478298	1481	1500	1509	1437
1399577466437559086	1487	1516	1509	1435
1399577466452460630	1490	1501	1508	1437
1399577466457520661	1499	1512	1508	1437
1399577466462461157	1525	1509	1508	1436
1399577466477584494	1521	1502	1508	1438
1399577466487663381	1528	1501	1508	1437
1399577466502567992	1537	1506	1507	1438
1399577466507469461	1531	1495	1507	1439
1399577466512502097	1524	1504	1507	1439
1399577466522513301	1544	1503	1507	1438
1399577466537560605	1550	1505	1507	1439
1399577466552576809	1551	1494	1506	1440
1399577466557538701	1554	1498	1506	1441
1399577466567448954	1546	1508	1506	1440
1399577466572547018	1546	1502	1506	1441
1399577466587584159	1551	1506	1506	1441
1399577466602598967	1557	1500	1506	1442
1399577466607509983	1551	1508	1506	1442
1399577466617427958	1555	1496	1505	1444
1399577466622535959	1558	1520	1506	1442
1399577466632535320	1553	1490	1506	1444
1399577466652562222	1561	1505	1506	1443
1399577466657469675	1565	1508	1506	1444
1399577466667506608	1559	1502	1506	1443
1399577466672530216	1557	1508	1506	1445
1399577466692523540	1556	1503	1506	1444
1399577466702650483	1556	1513	1506	1443
1399577466707554103	1566	1492	1506	1445
1399577466717582179	1554	1517	1506	1444
1399577466722607163	1545	1507	1506	1444
1399577466737601357	1552	1507	1506	1445
1399577466752555952	1560	1508	1506	1446
1399577466757582173	1554	1507	1506	1446
1399577466767635364	1560	1498	1506	1445
1399577466772615860	1549	1508	1507	1446
1399577466787619259	1552	1512	1506	1446
1399577466802660336	1556	1504	1507	1446
1399577466807571612	1558	1511	1507	1446
1399577466817524348	1539	1504	1507	1446
1399577466822569294	1543	1515	1507	1445
1399577466837548648	1534	1508	1507	1446
1399577466852511606	1542	1511	1507	1446
1399577466857485347	1535	1505	1507	1446
1399577466867543939	1543	1507	1507	1446
1399577466872569983	1535	1502	1507	1447
1399577466882509548	1538	1504	1507	1446
1399577466897572461	1537	1501	1507	1446
1399577466907381311	1540	1496	1507	1446
1399577466912555528	1525	1507	1507	1447
1399577466922540860	1522	1509	1507	1446
1399577466932537164	1529	1506	1507	1447
1399577466942574632	1524	1494	1507	1447
1399577466952535894	1531	1507	1507	1447
1399577466957488821	1517	1498	1507	1446
1399577466967602100	1564	1503	1507	1446
1399577466972592624	1563	1504	1507	1446
1399577466987625124	1563	1501	1507	1446
1399577467002467238	1564	1489	1507	1446
1399577467007542503	1564	1504	1507	1445
1399577467022647007	1560	1496	1507	1446
1399577467037581483	1559	1498	1508	1445
1399577467052634036	1552	1511	1508	1444
1399577467057618104	1560	1496	1508	1445
1399577467067657476	1555	1493	1508	1445
1399577467072598485	1552	1493	1508	1444
1399577467087577637	1550	1493	1508	1443
1399577467102412032	1557	1486	1508	1444
1399577467107483994	1550	1498	1508	1443
1399577467112556784	1546	1489	1508	1443
1399577467122525715	1548	1489	1508	1443
1399577467132319337	1544	1494	1508	1442
1399577467137573969	1539	1485	1508	1443
1399577467147494655	1541	1493	1508	1442
1399577467157549332	1541	1492	1508	1443
1399577467162429763	1527	1492	1508	1443
1399577467172571158	1525	1494	1508	1442
1399577467187577745	1526	1492	1508	1442
1399577467197549500	1522	1495	1508	1442
1399577467207535356	1520	1490	1509	1441
1399577467217595486	1518	1502	1509	1442
1399577467222554988	1516	1505	1509	1441
1399577467237320448	1514	1501	1509	1441
1399577467257323099	1508	1498	1509	1441
1399577467267314245	1517	1516	1509	1440
1399577467272277403	1513	1499	1509	1442
1399577467287318190	1508	1512	1509	1441
1399577467302431278	1504	1511	1509	1441
1399577467307404287	1505	1514	1509	1440
1399577467317318615	1512	1491	1509	1442
1399577467322282813	1512	1515	1509	1439
1399577467332300158	1504	1491	1509	1442
1399577467352330611	1512	1514	1509	1441
1399577467357285108	1510	1496	1509	1440
1399577467367333887	1516	1514	1509	1440
1399577467372518476	1512	1494	1510	1442
1399577467382288297	1517	1521	1509	1440
1399577467402484135	1516	1503	1510	1441
1399577467407496365	1510	1515	1510	1440
1399577467412471430	1522	1493	1510	1441
1399577467422552914	1519	1518	1510	1440
1399577467437527226	1522	1498	1510	1440
1399577467452308321	1522	1500	1510	1441
1399577467457472497	1517	1510	1510	1441
1399577467467531781	1526	1509	1510	1439
1399577467472518246	1525	1495	1510	1441
1399577467482525628	1524	1520	1510	1439
1399577467492594402	1526	1492	1510	1442
1399577467502495993	1528	1515	1510	1440
1399577467507360608	1523	1506	1511	1439
1399577467517495091	1506	1499	1511	1441
1399577467522426325	1503	1516	1511	1440
1399577467537632094	1510	1503	1511	1440
1399577467552588849	1504	1494	1511	1440
1399577467557622695	1509	1511	1511	1439
1399577467562689861	1505	1499	1511	1440
1399577467587636988	1508	1500	1511	1439
1399577467592612458	1511	1491	1511	1441
1399577467597595905	1508	1505	1511	1439
1399577467607533993	1509	1492	1511	1440
1399577467612550907	1490	1502	1511	1440
1399577467622370684	1499	1498	1511	1440
1399577467632561550	1496	1488	1512	1440
1399577467637665422	1493	1502	1512	1439
1399577467647302962	1489	1497	1512	1440
1399577467657485376	1500	1494	1512	1440
1399577467667405891	1496	1498	1512	1439
1399577467672594410	1482	1494	1512	1440
1399577467687604010	1496	1499	1512	1439
1399577467702659650	1493	1497	1512	1439
1399577467707539599	1496	1502	1512	1438
1399577467712630246	1485	1497	1512	1441
1399577467722587582	1488	1501	1512	1438
1399577467737527621	1481	1505	1512	1439
1399577467752388269	1492	1505	1512	1439
1399577467757535727	1478	1499	1512	1439
1399577467767568006	1487	1517	1513	1439
1399577467772511523	1490	1505	1512	1439
1399577467787684518	1487	1518	1512	1439
1399577467797678137	1482	1515	1512	1439
1399577467807792095	1496	1516	1513	1439
1399577467812756991	1487	1518	1512	1439
1399577467822252241	1491	1519	1513	1439
1399577467837286296	1488	1519	1513	1439
1399577467852286653	1491	1526	1513	1439
1399577467857249328	1490	1522	1513	1439
1399577467862241870	1496	1518	1513	1439
1399577467882266777	1494	1524	1513	1439
1399577467887290646	1501	1522	1512	1438
1399577467897295789	1492	1513	1512	1440
1399577467907229969	1501	1521	1512	1439
1399577467917270422	1498	1524	1512	1439
1399577467922266519	1500	1527	1512	1440
1399577467937407028	1506	1524	1512	1440
1399577467947247330	1502	1533	1512	1440
1399577467957282053	1499	1517	1512	1440
1399577467967283176	1511	1525	1512	1440
1399577467972301114	1502	1527	1512	1439
1399577467987279253	1503	1522	1512	1440
1399577468002354276	1507	1515	1512	1441
1399577468007206277	1510	1531	1511	1440
1399577468022305835	1510	1523	1511	1441
1399577468037448083	1512	1526	1511	1440
1399577468052285371	1518	1528	1511	1440
1399577468057250867	1511	1518	1511	1441
1399577468067234922	1515	1524	1511	1440
1399577468072267720	1511	1527	1511	1440
1399577468087332697	1513	1524	1511	1440
1399577468112272991	1515	1519	1510	1441
1399577468122351241	1521	1521	1510	1441
1399577468132293532	1519	1529	1510	1439
1399577468137270378	1525	1511	1510	1441
1399577468147253788	1515	1530	1510	1439
1399577468157382162	1523	1510	1510	1441
1399577468172282285	1522	1510	1510	1440
1399577468182234614	1523	1506	1510	1440
1399577468192360189	1521	1515	1510	1439
1399577468202275277	1523	1502	1510	1441
1399577468207252143	1526	1515	1509	1439
1399577468217250817	1526	1497	1509	1441
1399577468222261242	1526	1503	1509	1440
1399577468237249185	1528	1497	1509	1441
1399577468252263913	1527	1504	1509	1440
1399577468257258456	1524	1497	1509	1441
1399577468267286685	1519	1496	1509	1440
1399577468272241974	1522	1497	1509	1439
1399577468287325685	1520	1494	1509	1440
1399577468302264881	1517	1496	1509	1440
1399577468307249800	1522	1491	1509	1441
1399577468312255358	1523	1501	1508	1440
1399577468337282417	1524	1492	1508	1440
1399577468347289235	1530	1495	1508	1441
1399577468357246061	1526	1492	1508	1439
1399577468362246893	1514	1497	1509	1441
1399577468387275989	1520	1496	1508	1440
1399577468392275660	1526	1509	1508	1440
1399577468397259356	1524	1493	1508	1441
1399577468407322434	1527	1501	1508	1440
1399577468417261372	1512	1506	1508	1440
1399577468422271751	1513	1492	1509	1441
1399577468437253751	1519	1506	1508	1440
1399577468452308568	1520	1509	1509	1439
1399577468457276578	1520	1497	1509	1440
1399577468467297070	1517	1514	1509	1440
1399577468472197960	1513	1525	1509	1440
1399577468487288044	1516	1516	1509	1439
1399577468502295427	1517	1514	1509	1440
1399577468507291135	1526	1521	1509	1439
1399577468517301127	1515	1528	1509	1440
1399577468522332757	1510	1529	1509	1440
1399577468537268976	1512	1538	1509	1439
1399577468552271811	1523	1533	1509	1439
1399577468557286137	1517	1523	1509	1440
1399577468582311662	1529	1544	1509	1439
1399577468587243079	1532	1556	1509	1439
1399577468597278879	1532	1541	1510	1440
1399577468607231947	1528	1547	1509	1438
1399577468612280042	1532	1538	1509	1440
1399577468622356335	1543	1555	1509	1439
1399577468632313035	1532	1550	1510	1439
1399577468637253052	1532	1541	1509	1439
1399577468647261818	1535	1560	1509	1438
1399577468662325347	1542	1534	1510	1440
1399577468667272925	1546	1554	1510	1438
1399577468672219584	1534	1538	1510	1440
1399577468687264094	1544	1551	1509	1439
1399577468697266119	1541	1531	1509	1440
1399577468707283700	1543	1564	1509	1439
1399577468712272564	1542	1541	1510	1440
1399577468722250700	1548	1542	1509	1437
1399577468737405434	1552	1526	1510	1440
1399577468752316039	1547	1532	1510	1439
1399577468757230787	1549	1516	1509	1440
1399577468767275360	1561	1527	1510	1438
1399577468772205986	1555	1498	1510	1440
1399577468787248597	1552	1512	1510	1439
1399577468802295842	1562	1514	1510	1438
1399577468807215284	1556	1511	1510	1438
1399577468817270466	1540	1478	1510	1440
1399577468822336434	1553	1494	1510	1437
1399577468847330695	1554	1477	1510	1439
1399577468857274374	1553	1481	1510	1439
1399577468867204970	1549	1482	1510	1438
1399577468872255405	1550	1468	1510	1440
1399577468882251472	1555	1483	1510	1437
1399577468892283137	1542	1469	1510	1439
1399577468902242273	1549	1479	1510	1437
1399577468907214440	1550	1470	1510	1439
1399577468917272165	1551	1469	1511	1439
1399577468922233384	1547	1474	1510	1437
1399577468937305773	1550	1470	1511	1438
1399577468947273884	1546	1462	1511	1439
1399577468957273829	1543	1471	1511	1439
1399577468967198241	1542	1467	1511	1437
1399577468972213238	1547	1473	1511	1438
