#Time	 Roll 	 Pitch 	 Yaw 	 Thrust
1399581252097475995	1520	1516	1926	1105
1399581252197758103	1520	1516	1926	1105
1399581252298027352	1520	1516	1926	1105
1399581252398304711	1520	1516	1926	1105
1399581252498608636	1520	1516	1926	1105
1399581252598856708	1520	1516	1926	1105
1399581252699100631	1520	1516	1926	1105
1399581252799376797	1520	1516	1926	1105
1399581252899637213	1520	1516	1926	1105
1399581252999792018	1520	1516	1926	1105
1399581253099921652	1520	1516	1926	1105
1399581253200098338	1520	1516	1926	1105
1399581253300242099	1520	1516	1926	1105
1399581253400421886	1520	1516	1926	1105
1399581253500585600	1520	1516	1926	1105
1399581253600732981	1520	1516	1926	1105
1399581253700874496	1520	1516	1926	1105
1399581253801013562	1520	1516	1926	1105
1399581253901133095	1520	1516	1926	1105
1399581254001258262	1520	1516	1926	1105
1399581254101379308	1520	1516	1926	1105
1399581254201524756	1520	1516	1926	1105
1399581254301661256	1520	1516	1926	1105
1399581254401788702	1520	1516	1926	1105
1399581254501902034	1520	1516	1926	1105
1399581254602017964	1520	1516	1926	1105
1399581254702146033	1520	1516	1926	1105
1399581254802265492	1520	1516	1926	1105
1399581254902378422	1520	1516	1926	1105
1399581255002506084	1520	1516	1926	1105
1399581255102625940	1520	1516	1513	1105
1399581263676459312	1517	1523	1533	1378
1399581263691402078	1519	1523	1533	1377
1399581263706485388	1521	1518	1533	1378
1399581263721453646	1519	1521	1533	1379
1399581263741435761	1520	1523	1533	1379
1399581263771497845	1521	1520	1533	1434
1399581263781388978	1523	1521	1533	1380
1399581263806458175	1521	1523	1533	1380
1399581263826447418	1522	1520	1533	1380
1399581263841401803	1523	1523	1533	1380
1399581263856482039	1523	1521	1533	1380
1399581263876428127	1519	1515	1533	1382
1399581263891407215	1515	1522	1533	1382
1399581263921495130	1522	1523	1533	1382
1399581263936414787	1526	1520	1533	1382
1399581263956462644	1524	1517	1533	1382
1399581263976447574	1523	1518	1533	1384
1399581263991429219	1524	1513	1533	1384
1399581264016415345	1524	1518	1533	1384
1399581264031464415	1527	1521	1533	1384
1399581264056517901	1523	1518	1533	1384
1399581264076451872	1522	1518	1533	1386
1399581264091475074	1520	1524	1533	1386
1399581264121496271	1522	1520	1533	1386
1399581264136461144	1522	1519	1533	1386
1399581264156554050	1521	1520	1532	1386
1399581264176437183	1522	1517	1532	1388
1399581264191468978	1523	1521	1532	1387
1399581264231512525	1519	1519	1532	1388
1399581264256505358	1518	1521	1532	1388
1399581264276430788	1519	1524	1532	1390
1399581264291424538	1521	1530	1532	1390
1399581264316483073	1514	1519	1532	1391
1399581264336452258	1514	1520	1532	1390
1399581264356486216	1516	1524	1532	1390
1399581264376389419	1519	1522	1532	1392
1399581264391501511	1514	1530	1532	1392
1399581264421525636	1521	1514	1532	1392
1399581264436438894	1517	1520	1532	1392
1399581264466470359	1516	1520	1532	1435
1399581264481387402	1520	1522	1532	1394
1399581264496389872	1516	1519	1532	1395
1399581264521474905	1515	1512	1532	1395
1399581264531449473	1512	1517	1532	1395
1399581264546480432	1520	1527	1532	1394
1399581264571481285	1521	1519	1532	1435
1399581264586523331	1516	1512	1531	1397
1399581264606466500	1522	1513	1531	1397
1399581264636483768	1521	1520	1531	1396
1399581264656481381	1509	1526	1531	1396
1399581264676533160	1516	1524	1531	1397
1399581264691520759	1513	1516	1531	1398
1399581264721481340	1500	1523	1531	1398
1399581264741473404	1501	1529	1530	1397
1399581264756477595	1506	1524	1530	1397
1399581264771414701	1515	1517	1530	1400
1399581264791461214	1507	1519	1530	1400
1399581264821433409	1500	1522	1529	1399
1399581264841421161	1498	1517	1528	1399
1399581264871424068	1508	1515	1526	1437
1399581264891411179	1502	1515	1525	1401
1399581264921482832	1511	1517	1523	1401
1399581264936702304	1509	1511	1521	1400
1399581264951792893	1513	1521	1520	1400
1399581264966710531	1512	1522	1519	1437
1399581264981772218	1491	1506	1517	1403
1399581264996619048	1493	1512	1515	1402
1399581265016768535	1513	1516	1514	1403
1399581265036747615	1503	1534	1512	1400
1399581265056783156	1502	1509	1510	1401
1399581265076791934	1494	1507	1508	1404
1399581265091824192	1503	1514	1507	1402
1399581265121490666	1499	1510	1505	1404
1399581265136694358	1496	1513	1504	1403
1399581265171617029	1513	1517	1501	1438
1399581265186827190	1484	1514	1500	1405
1399581265201746474	1499	1510	1499	1404
1399581265216784418	1485	1510	1498	1404
1399581265231559933	1490	1517	1497	1406
1399581265246697422	1492	1512	1496	1404
1399581265271603334	1502	1520	1496	1439
1399581265286791145	1479	1503	1495	1406
1399581265306681782	1499	1509	1494	1406
1399581265326777000	1496	1521	1494	1403
1399581265341799145	1500	1506	1494	1403
1399581265366725842	1500	1513	1493	1439
1399581265391756048	1490	1511	1493	1403
1399581265421837325	1494	1510	1494	1402
1399581265436778774	1498	1510	1494	1402
1399581265456781252	1495	1503	1495	1402
1399581265476859025	1489	1506	1495	1404
1399581265496800111	1495	1509	1496	1403
1399581265521753596	1510	1509	1496	1402
1399581265536663389	1513	1504	1497	1404
1399581265546740796	1513	1503	1498	1403
1399581265571702957	1523	1503	1499	1441
1399581265586716505	1509	1498	1500	1405
1399581265606579682	1503	1511	1500	1405
1399581265636702982	1502	1495	1502	1406
1399581265646801802	1507	1497	1503	1407
1399581265666761623	1512	1516	1504	1441
1399581265681780483	1505	1524	1504	1407
1399581265696735234	1508	1516	1505	1408
1399581265716797039	1514	1516	1506	1408
1399581265731785142	1517	1519	1507	1408
1399581265746703352	1523	1515	1507	1409
1399581265771719798	1526	1510	1508	1442
1399581265791821488	1528	1516	1509	1411
1399581265821767323	1513	1508	1510	1412
1399581265836787900	1516	1522	1511	1411
1399581265856802218	1516	1505	1511	1412
1399581265876751000	1531	1511	1512	1416
1399581265891810947	1522	1507	1513	1415
1399581265906501570	1525	1520	1513	1416
1399581265921714968	1514	1518	1513	1415
1399581265941763704	1537	1530	1514	1415
1399581265956762108	1526	1528	1514	1415
1399581265976811835	1526	1536	1515	1419
1399581265991753117	1521	1519	1515	1418
1399581266016783031	1529	1530	1515	1420
1399581266036706706	1528	1527	1515	1420
1399581266051744696	1531	1523	1515	1419
1399581266071760992	1532	1515	1516	1444
1399581266086728154	1532	1516	1515	1424
1399581266106759508	1540	1525	1515	1424
1399581266126748836	1532	1524	1515	1423
1399581266141701780	1526	1533	1515	1424
1399581266156503787	1537	1536	1515	1424
1399581266176866500	1536	1525	1515	1425
1399581266196750743	1541	1532	1515	1426
1399581266206815017	1530	1516	1515	1427
1399581266226607200	1530	1511	1515	1427
1399581266241663099	1523	1517	1515	1425
1399581266271801847	1534	1530	1515	1426
1399581266286673317	1536	1512	1515	1426
1399581266307046511	1521	1521	1514	1425
1399581266326669519	1542	1515	1514	1425
1399581266341791670	1516	1512	1514	1425
1399581266371799382	1522	1524	1514	1425
1399581266391760923	1525	1532	1514	1424
1399581266421544239	1533	1524	1514	1423
1399581266441496509	1521	1529	1514	1424
1399581266456466237	1530	1525	1514	1424
1399581266476510260	1527	1534	1514	1423
1399581266491621531	1525	1529	1514	1423
1399581266521771558	1524	1520	1514	1422
1399581266531817683	1527	1528	1514	1423
1399581266556786930	1513	1522	1514	1422
1399581266576650255	1512	1519	1514	1423
1399581266591548133	1509	1531	1514	1421
1399581266621763862	1510	1522	1514	1422
1399581266631671929	1511	1528	1514	1422
1399581266646805048	1512	1531	1514	1421
1399581266666848355	1516	1526	1513	1421
1399581266691576481	1508	1527	1513	1422
1399581266721569601	1516	1523	1513	1422
1399581266736761534	1521	1512	1513	1423
1399581266746768325	1512	1515	1513	1423
1399581266771799639	1512	1525	1513	1421
1399581266786473699	1507	1533	1513	1421
1399581266806741647	1510	1530	1513	1422
1399581266826741949	1502	1522	1513	1422
1399581266841738263	1510	1522	1513	1421
1399581266871810514	1505	1504	1513	1421
1399581266886763237	1506	1520	1513	1422
1399581266916630272	1493	1524	1512	1421
1399581266931786626	1499	1520	1512	1421
1399581266946728689	1495	1527	1512	1422
1399581266971525568	1499	1536	1512	1421
1399581266981728618	1499	1523	1512	1421
1399581267006775554	1503	1531	1512	1421
1399581267026724834	1501	1529	1512	1421
1399581267041508001	1493	1532	1512	1421
1399581267071814640	1507	1518	1512	1422
1399581267086816585	1499	1523	1512	1421
1399581267096830356	1498	1530	1512	1421
1399581267116814953	1501	1527	1511	1420
1399581267131520405	1504	1521	1511	1421
1399581267156768776	1506	1524	1511	1421
1399581267171741927	1508	1523	1511	1422
1399581267191660378	1497	1532	1511	1421
1399581267221721966	1499	1513	1511	1423
1399581267246757131	1499	1517	1511	1424
1399581267271717553	1509	1514	1511	1424
1399581267286742343	1506	1512	1511	1425
1399581267306819434	1505	1517	1511	1425
1399581267326561937	1503	1517	1511	1426
1399581267341653982	1508	1504	1511	1427
1399581267371765478	1507	1520	1512	1425
1399581267386753966	1508	1511	1512	1426
1399581267401705651	1511	1506	1512	1427
1399581267416826552	1513	1508	1512	1427
1399581267431544868	1518	1509	1512	1427
1399581267446701410	1521	1516	1512	1427
1399581267471687445	1511	1512	1512	1427
1399581267486706355	1513	1514	1512	1428
1399581267506696358	1516	1511	1512	1428
1399581267526562171	1517	1511	1513	1428
1399581267541716432	1516	1508	1513	1429
1399581267571810754	1525	1526	1513	1426
1399581267586866805	1525	1517	1513	1427
1399581267606788312	1520	1518	1513	1427
1399581267626699438	1519	1523	1513	1426
1399581267641664922	1522	1521	1513	1427
1399581267666727056	1524	1512	1514	1427
1399581267681804076	1524	1526	1514	1426
1399581267696519877	1525	1522	1514	1426
1399581267721770252	1516	1514	1514	1426
1399581267756783272	1508	1509	1514	1427
1399581267781755626	1505	1518	1514	1427
1399581267821720927	1520	1512	1514	1427
1399581267836726334	1518	1506	1514	1427
1399581267846654791	1516	1499	1515	1428
1399581267866714235	1515	1504	1515	1428
1399581267881692646	1516	1505	1515	1428
1399581267906421751	1513	1508	1515	1429
1399581267926447893	1514	1504	1515	1429
1399581267941511295	1514	1510	1515	1429
1399581267966464535	1518	1507	1515	1430
1399581267986497888	1516	1504	1515	1430
1399581268006553279	1514	1508	1515	1430
1399581268026405935	1515	1505	1515	1431
1399581268041434737	1517	1502	1515	1431
1399581268071456371	1516	1511	1515	1430
1399581268086430709	1521	1509	1515	1431
1399581268096387617	1520	1511	1515	1431
1399581268126502172	1516	1516	1515	1430
1399581268141504838	1518	1515	1515	1430
1399581268176525542	1513	1510	1516	1431
1399581268191564696	1512	1506	1516	1432
1399581268211500833	1512	1502	1516	1432
1399581268226390557	1513	1515	1516	1430
1399581268241497085	1515	1519	1516	1430
1399581268271542204	1514	1504	1516	1431
1399581268286496085	1513	1513	1516	1430
1399581268306488310	1515	1515	1516	1430
1399581268326451082	1514	1515	1516	1430
1399581268341496976	1510	1519	1516	1430
1399581268371478457	1513	1512	1516	1430
1399581268396439600	1512	1512	1516	1430
1399581268421483248	1512	1513	1516	1430
1399581268436444525	1515	1515	1516	1430
1399581268446422603	1515	1512	1516	1430
1399581268471434488	1523	1513	1516	1430
1399581268481358641	1516	1510	1516	1430
1399581268496436847	1515	1512	1516	1430
1399581268521428466	1512	1509	1516	1429
1399581268536495192	1509	1514	1516	1428
1399581268546501817	1514	1520	1516	1429
1399581268566471132	1507	1509	1516	1429
1399581268591440615	1508	1518	1516	1429
1399581268606508082	1520	1525	1516	1429
1399581268631478586	1514	1516	1516	1429
1399581268656434427	1513	1518	1516	1430
1399581268676455961	1513	1521	1516	1430
1399581268691496649	1519	1528	1516	1429
1399581268716468356	1517	1514	1516	1430
1399581268736435455	1522	1515	1516	1430
1399581268756479754	1519	1514	1516	1430
1399581268776444820	1522	1511	1516	1430
1399581268791434194	1516	1507	1516	1430
1399581268821407655	1522	1510	1516	1429
1399581268836461195	1520	1506	1516	1430
1399581268866509693	1513	1502	1515	1430
1399581268886484878	1510	1510	1515	1429
1399581268896464382	1513	1508	1515	1429
1399581268921437115	1509	1506	1515	1430
1399581268941465675	1511	1507	1515	1429
1399581268961479837	1522	1511	1515	1430
1399581268976432184	1512	1509	1515	1430
1399581268991454729	1517	1516	1515	1430
1399581269021482340	1517	1503	1515	1430
1399581269036491766	1516	1512	1514	1429
1399581269056509716	1515	1518	1514	1429
1399581269081446468	1516	1516	1514	1430
1399581269121506210	1513	1515	1514	1429
1399581269131476894	1510	1521	1514	1430
1399581269156429798	1521	1519	1514	1429
1399581269176419829	1519	1524	1514	1429
1399581269196469683	1524	1523	1514	1429
1399581269221465663	1516	1520	1514	1429
1399581269236480627	1521	1529	1513	1428
1399581269256452156	1519	1524	1513	1429
1399581269276422667	1525	1525	1513	1429
1399581269291421272	1522	1534	1513	1429
1399581269306446232	1520	1532	1513	1429
1399581269321463150	1514	1525	1513	1430
1399581269341471224	1515	1518	1513	1431
1399581269356483925	1520	1508	1513	1431
1399581269376541756	1516	1513	1513	1431
1399581269391436302	1515	1512	1513	1430
1399581269416432650	1523	1519	1513	1431
1399581269436481725	1518	1518	1513	1432
1399581269456464999	1514	1524	1513	1431
1399581269476458384	1518	1527	1513	1432
1399581269491402332	1522	1511	1513	1431
1399581269521500815	1514	1534	1513	1431
1399581269536462428	1515	1528	1513	1432
1399581269546365380	1513	1522	1513	1432
1399581269566461828	1509	1515	1513	1432
1399581269581402889	1514	1529	1512	1431
1399581269596475930	1523	1537	1513	1430
1399581269626453559	1515	1520	1512	1430
1399581269641457933	1512	1525	1512	1430
1399581269656453971	1515	1526	1512	1429
1399581269676480970	1521	1510	1512	1431
1399581269691390437	1511	1510	1512	1430
1399581269716422030	1516	1520	1512	1430
1399581269736507423	1518	1513	1512	1430
1399581269756434791	1520	1521	1512	1429
1399581269776487055	1520	1516	1512	1430
1399581269791403502	1521	1525	1512	1429
1399581269806478126	1518	1529	1512	1428
1399581269821435452	1523	1522	1512	1428
1399581269846468678	1521	1522	1512	1428
1399581269871488250	1513	1516	1513	1428
1399581269881411370	1514	1509	1513	1429
1399581269906519207	1517	1508	1513	1428
1399581269926385587	1508	1503	1513	1428
1399581269941445695	1512	1501	1513	1428
1399581269956389143	1514	1513	1513	1427
1399581269976435285	1520	1520	1513	1426
1399581269991461151	1503	1517	1513	1426
1399581270021405831	1514	1519	1513	1426
1399581270036485557	1515	1516	1513	1426
1399581270046444910	1515	1514	1513	1426
1399581270066462241	1509	1522	1513	1425
1399581270091456279	1512	1511	1513	1427
1399581270116461065	1510	1511	1513	1426
1399581270136428884	1509	1501	1513	1428
1399581270146442007	1510	1504	1513	1427
1399581270171521256	1512	1510	1513	1426
1399581270181475346	1508	1511	1513	1426
1399581270206481344	1512	1514	1513	1426
1399581270226485335	1510	1517	1513	1426
1399581270256457602	1510	1516	1513	1427
1399581270276436207	1507	1511	1513	1429
1399581270291435057	1509	1511	1512	1428
1399581270321580133	1511	1518	1512	1428
1399581270336410975	1510	1513	1512	1429
1399581270351417731	1504	1513	1511	1428
1399581270366481228	1505	1529	1511	1428
1399581270386479609	1507	1537	1511	1428
1399581270406447053	1509	1522	1511	1429
1399581270421466168	1504	1522	1510	1428
1399581270441443573	1506	1531	1510	1428
1399581270471433294	1507	1517	1509	1430
1399581270486464181	1506	1518	1509	1429
1399581270506444763	1511	1526	1508	1429
1399581270521477010	1507	1522	1508	1430
1399581270551541384	1505	1527	1508	1431
1399581270566449319	1503	1524	1507	1431
1399581270581482040	1507	1528	1507	1431
1399581270596448541	1505	1538	1507	1430
1399581270621496253	1514	1542	1506	1430
1399581270631487649	1507	1538	1506	1431
1399581270656524151	1505	1534	1506	1432
1399581270676422342	1508	1544	1506	1432
1399581270691425386	1513	1542	1506	1432
1399581270706418705	1505	1528	1506	1433
1399581270726524133	1500	1522	1505	1435
1399581270756471353	1501	1517	1505	1434
1399581270776587385	1499	1526	1505	1434
1399581270791440770	1502	1529	1505	1433
1399581270806458632	1500	1526	1505	1435
1399581270821469202	1500	1519	1505	1436
1399581270846524441	1499	1507	1505	1437
1399581270866486739	1499	1531	1505	1436
1399581270881466939	1500	1529	1505	1437
1399581270906484234	1503	1532	1505	1437
1399581270926529675	1503	1533	1505	1437
1399581270941405787	1501	1534	1505	1436
1399581270971424406	1510	1532	1505	1437
1399581270986459306	1511	1538	1505	1436
1399581271006505613	1500	1529	1505	1437
1399581271026484794	1502	1529	1505	1437
1399581271041444572	1504	1525	1506	1436
1399581271056458678	1502	1529	1506	1436
1399581271086441197	1500	1521	1506	1437
1399581271101430571	1508	1522	1506	1436
1399581271121449284	1499	1514	1507	1436
1399581271136598425	1499	1516	1507	1436
1399581271156512703	1501	1509	1508	1436
1399581271176594629	1506	1498	1508	1437
1399581271191431763	1500	1501	1509	1436
1399581271221488743	1502	1513	1509	1436
1399581271236475822	1502	1502	1510	1436
1399581271251432801	1510	1504	1510	1435
1399581271266516958	1508	1520	1510	1433
1399581271281445488	1509	1527	1511	1432
1399581271316494128	1508	1507	1511	1434
1399581271331470919	1506	1499	1511	1434
1399581271346566801	1506	1503	1511	1434
1399581271371425853	1512	1520	1511	1432
1399581271381476492	1519	1521	1512	1431
1399581271406549008	1520	1524	1512	1432
1399581271426505736	1518	1530	1512	1431
1399581271456551129	1519	1512	1512	1432
1399581271476470297	1517	1513	1512	1433
1399581271491499518	1519	1512	1512	1432
1399581271521425438	1512	1514	1512	1432
1399581271551541021	1517	1512	1512	1431
1399581271566494088	1515	1525	1511	1431
1399581271581419408	1517	1527	1511	1431
1399581271606470018	1517	1523	1511	1432
1399581271626482386	1519	1527	1511	1432
1399581271641441793	1518	1537	1511	1432
1399581271666419140	1521	1533	1510	1433
1399581271686452973	1520	1539	1510	1433
1399581271706520291	1518	1535	1509	1434
1399581271726467439	1525	1528	1509	1435
1399581271741449516	1529	1543	1509	1434
1399581271756444509	1528	1535	1509	1433
1399581271771436111	1522	1533	1508	1435
1399581271791453724	1527	1533	1508	1436
1399581271806506510	1523	1523	1508	1437
1399581271831458683	1519	1525	1507	1438
1399581271841400070	1522	1523	1507	1437
1399581271856456933	1533	1533	1507	1437
1399581271876440800	1524	1533	1506	1436
1399581271891417974	1528	1536	1506	1437
1399581271921430712	1534	1525	1506	1437
1399581271936548955	1528	1534	1505	1437
1399581271956431051	1531	1538	1505	1438
1399581271976459468	1524	1536	1505	1437
1399581271991391693	1530	1546	1505	1438
1399581272021392019	1510	1535	1504	1440
1399581272041450319	1516	1536	1504	1439
1399581272071403793	1521	1533	1504	1438
1399581272096426889	1516	1536	1504	1438
1399581272121431390	1518	1532	1504	1438
1399581272131342891	1516	1540	1504	1437
1399581272156443730	1514	1536	1505	1439
1399581272176445923	1509	1530	1505	1439
1399581272206473378	1514	1533	1505	1439
1399581272226429579	1515	1537	1506	1437
1399581272241445409	1510	1540	1506	1438
1399581272256463310	1515	1541	1506	1438
1399581272286478475	1510	1534	1507	1439
1399581272301494879	1510	1537	1507	1438
1399581272316503700	1510	1526	1508	1439
1399581272336417767	1509	1520	1508	1439
1399581272356436090	1512	1524	1509	1439
1399581272376456516	1510	1524	1509	1439
1399581272391403105	1506	1515	1509	1439
1399581272421435051	1508	1522	1510	1440
1399581272436416400	1506	1522	1511	1439
1399581272456501557	1503	1520	1511	1439
1399581272476447903	1493	1522	1512	1440
1399581272491415416	1495	1518	1512	1439
1399581272506493957	1501	1521	1512	1440
1399581272531479638	1492	1519	1512	1440
1399581272546443860	1507	1519	1513	1440
1399581272566496445	1492	1517	1513	1440
1399581272586417848	1502	1525	1513	1439
1399581272596445549	1490	1524	1513	1440
1399581272616472819	1504	1513	1514	1441
1399581272636481678	1496	1493	1514	1441
1399581272656452926	1494	1510	1514	1441
1399581272686495328	1493	1513	1514	1440
1399581272706529938	1494	1510	1515	1440
1399581272736478206	1494	1496	1515	1441
1399581272751448974	1492	1503	1515	1441
1399581272766491248	1502	1510	1515	1439
1399581272781440414	1501	1519	1515	1439
1399581272796459908	1508	1510	1515	1439
1399581272821468632	1493	1507	1515	1440
1399581272831460073	1500	1499	1515	1441
1399581272856486212	1491	1511	1515	1440
1399581272876481241	1494	1507	1515	1440
1399581272906482081	1497	1528	1514	1440
1399581272926466397	1497	1532	1514	1439
1399581272941514150	1502	1525	1514	1439
1399581272971536057	1493	1504	1514	1440
1399581273001572292	1495	1507	1514	1439
1399581273016444262	1503	1500	1513	1440
1399581273031466367	1499	1512	1513	1440
1399581273056513873	1499	1504	1513	1440
1399581273076453518	1502	1508	1513	1440
1399581273091444385	1501	1513	1512	1439
1399581273116500483	1510	1503	1512	1439
1399581273136457364	1498	1508	1512	1439
1399581273156480564	1502	1501	1512	1439
1399581273176464070	1504	1500	1512	1439
1399581273191458133	1506	1504	1511	1439
1399581273221525253	1502	1508	1511	1439
1399581273236426575	1508	1514	1511	1438
1399581273246412229	1504	1513	1511	1439
1399581273271469780	1497	1517	1511	1439
1399581273286448249	1500	1512	1511	1441
1399581273306504349	1502	1516	1511	1440
1399581273326485318	1499	1520	1510	1440
1399581273341432716	1501	1519	1510	1440
1399581273361510532	1512	1508	1510	1441
1399581273376426221	1511	1512	1510	1441
1399581273391479013	1512	1511	1509	1441
1399581273421506869	1512	1513	1509	1441
1399581273431442992	1512	1506	1509	1442
1399581273466489547	1507	1516	1508	1441
1399581273481455960	1503	1523	1508	1441
1399581273496462983	1510	1523	1508	1441
1399581273516460487	1510	1513	1508	1441
1399581273531490255	1508	1511	1507	1441
1399581273556466827	1506	1515	1507	1442
1399581273576561896	1506	1523	1507	1441
1399581273591459385	1507	1518	1507	1441
1399581273621450335	1505	1523	1507	1442
1399581273636475504	1501	1528	1507	1441
1399581273656471940	1508	1523	1507	1442
1399581273676408130	1506	1524	1506	1442
1399581273691458653	1506	1521	1507	1442
1399581273731484964	1508	1520	1507	1443
1399581273746424690	1510	1514	1507	1444
1399581273766428732	1510	1515	1506	1443
1399581273786461012	1506	1522	1506	1443
1399581273806468422	1506	1514	1506	1443
1399581273826492398	1500	1511	1506	1444
1399581273841387514	1503	1508	1506	1444
1399581273871462081	1499	1512	1506	1443
1399581273891559319	1498	1515	1506	1443
1399581273921474020	1490	1513	1506	1443
1399581273936395512	1496	1518	1506	1443
1399581273946389786	1496	1522	1507	1442
1399581273971438147	1499	1518	1507	1443
1399581273991481857	1500	1520	1507	1443
1399581274016461766	1502	1518	1507	1443
1399581274026441013	1501	1515	1507	1443
1399581274041504834	1498	1519	1507	1443
1399581274071538667	1504	1518	1508	1444
1399581274086452237	1505	1516	1508	1443
1399581274106504939	1501	1516	1508	1443
1399581274121395446	1499	1525	1508	1443
1399581274141440584	1502	1510	1509	1443
1399581274171509155	1509	1525	1509	1441
1399581274181578961	1509	1512	1509	1442
1399581274196472200	1505	1507	1510	1444
1399581274216489157	1495	1500	1510	1444
1399581274231442506	1495	1507	1510	1442
1399581274256510002	1496	1507	1511	1442
1399581274276449262	1494	1499	1511	1443
1399581274291496169	1499	1502	1511	1443
1399581274321478611	1500	1511	1511	1442
1399581274336480877	1499	1512	1512	1442
1399581274346449957	1503	1510	1512	1442
1399581274371472557	1505	1510	1512	1441
1399581274386439242	1501	1519	1513	1441
1399581274406479856	1506	1522	1513	1441
1399581274426521818	1506	1522	1514	1440
1399581274441475957	1506	1518	1514	1440
1399581274456484642	1513	1523	1514	1440
1399581274481490135	1513	1526	1515	1440
1399581274506439856	1514	1516	1515	1439
1399581274526429525	1523	1516	1515	1439
1399581274541516658	1519	1506	1515	1440
1399581274571509887	1511	1523	1516	1437
1399581274586513207	1510	1509	1516	1439
1399581274606464228	1511	1520	1516	1438
1399581274626418515	1512	1516	1516	1439
1399581274656471301	1513	1513	1516	1438
1399581274676502998	1517	1523	1516	1438
1399581274691463673	1522	1521	1516	1437
1399581274716476334	1514	1522	1516	1437
1399581274736456255	1516	1525	1516	1438
1399581274756454225	1518	1520	1516	1437
1399581274776493586	1527	1525	1516	1437
1399581274791385514	1523	1534	1516	1437
1399581274816476261	1525	1532	1515	1437
1399581274836465004	1523	1529	1515	1436
1399581274856538651	1527	1528	1515	1437
1399581274886500334	1529	1528	1515	1437
1399581274906467345	1530	1525	1514	1437
1399581274926401341	1532	1519	1514	1438
1399581274956482629	1531	1515	1514	1436
1399581274976492465	1534	1531	1514	1435
1399581274991523417	1534	1523	1514	1435
1399581275006426644	1529	1519	1514	1435
1399581275021484022	1534	1513	1514	1435
1399581275041438962	1530	1508	1514	1435
1399581275061493857	1528	1520	1514	1435
1399581275076471984	1524	1530	1514	1435
1399581275091398834	1533	1525	1514	1433
1399581275121446983	1531	1518	1514	1434
1399581275136486914	1534	1519	1514	1432
1399581275156449699	1532	1518	1514	1433
1399581275176407768	1540	1524	1514	1432
1399581275191414638	1538	1519	1514	1431
1399581275206446711	1534	1507	1514	1433
1399581275221428243	1532	1504	1514	1434
1399581275241435237	1525	1502	1514	1433
1399581275271429609	1533	1518	1514	1432
1399581275291525494	1535	1522	1514	1430
1399581275321468583	1537	1517	1514	1431
1399581275336464436	1532	1517	1514	1431
1399581275356442664	1538	1503	1514	1432
1399581275376428699	1531	1508	1514	1431
1399581275391453695	1538	1507	1514	1431
1399581275416477918	1539	1511	1514	1431
1399581275431495199	1530	1506	1514	1431
1399581275446450192	1531	1506	1514	1432
1399581275466431532	1527	1501	1514	1432
1399581275491429097	1535	1516	1513	1431
1399581275516455821	1534	1516	1513	1432
1399581275536469750	1530	1520	1513	1432
1399581275546475906	1530	1516	1513	1432
1399581275571489299	1525	1505	1513	1433
1399581275586487619	1527	1502	1513	1433
1399581275606476841	1523	1501	1512	1434
1399581275626469293	1521	1507	1512	1434
1399581275641472822	1516	1508	1512	1434
1399581275656467837	1520	1512	1512	1434
1399581275676424431	1521	1516	1512	1435
1399581275691452474	1521	1512	1511	1436
1399581275706453353	1526	1504	1511	1436
1399581275721420412	1532	1505	1511	1436
1399581275741357994	1530	1509	1511	1437
1399581275761458349	1532	1512	1511	1437
1399581275776459311	1533	1513	1511	1437
1399581275791470892	1533	1513	1511	1437
1399581275806425703	1526	1525	1510	1437
1399581275826427541	1522	1526	1510	1437
1399581275841411868	1524	1523	1510	1437
1399581275871498399	1528	1523	1510	1437
1399581275886453011	1522	1528	1509	1438
1399581275906509430	1524	1527	1509	1438
1399581275926397738	1525	1528	1509	1439
1399581275941382673	1527	1530	1509	1439
1399581275956407384	1520	1526	1508	1439
1399581275976431440	1520	1533	1508	1439
1399581275991449872	1523	1538	1508	1439
1399581276016448642	1521	1527	1508	1440
1399581276036484832	1517	1533	1508	1439
1399581276056429556	1516	1526	1507	1441
1399581276086432772	1514	1526	1507	1442
1399581276106480504	1518	1529	1507	1441
1399581276131479202	1524	1539	1507	1441
1399581276146447517	1521	1530	1507	1441
1399581276166502985	1516	1541	1507	1442
1399581276191491084	1516	1541	1507	1441
1399581276206469193	1517	1534	1507	1442
1399581276221405921	1508	1535	1507	1443
1399581276241398762	1506	1530	1507	1442
1399581276266446968	1511	1531	1508	1441
1399581276286412107	1505	1531	1508	1442
1399581276306578150	1512	1529	1508	1442
1399581276326441572	1507	1529	1508	1442
1399581276341475969	1505	1536	1508	1442
1399581276371444728	1508	1525	1508	1442
1399581276386407798	1506	1531	1508	1442
1399581276416521420	1503	1534	1508	1442
1399581276431447163	1502	1529	1508	1443
1399581276446435276	1497	1524	1508	1443
1399581276471509505	1502	1522	1508	1442
1399581276481442065	1510	1532	1508	1441
1399581276496451812	1505	1537	1509	1442
1399581276521524985	1503	1524	1508	1442
1399581276531445681	1498	1523	1508	1442
1399581276556482782	1508	1524	1508	1441
1399581276576469661	1504	1528	1508	1441
1399581276606479299	1518	1518	1508	1441
1399581276626437477	1518	1510	1508	1442
1399581276656496060	1519	1513	1508	1442
1399581276671413196	1516	1515	1507	1441
1399581276696548504	1524	1520	1508	1441
1399581276721501326	1510	1506	1507	1442
1399581276731448972	1511	1513	1507	1441
1399581276756469901	1511	1516	1507	1442
1399581276776422664	1512	1515	1507	1442
1399581276791487339	1517	1519	1507	1442
1399581276821461710	1514	1506	1507	1442
1399581276841377778	1517	1502	1507	1443
1399581276871495675	1507	1510	1507	1441
1399581276886470951	1512	1511	1507	1443
1399581276901416581	1512	1508	1507	1443
1399581276916419858	1520	1490	1507	1443
1399581276931504880	1523	1501	1507	1442
1399581276946440561	1528	1492	1507	1443
1399581276966468063	1519	1498	1508	1443
1399581276986478361	1529	1492	1508	1444
1399581276996453615	1531	1501	1508	1443
1399581277021488885	1528	1504	1508	1442
1399581277036473659	1527	1505	1509	1442
1399581277046427653	1527	1496	1509	1443
1399581277076503574	1523	1520	1509	1442
1399581277091454968	1526	1517	1510	1443
1399581277116478619	1532	1508	1510	1442
1399581277131437334	1533	1509	1510	1441
1399581277146492539	1526	1502	1510	1441
1399581277176443931	1526	1519	1511	1441
1399581277191516502	1525	1515	1511	1441
1399581277206372000	1515	1506	1511	1442
1399581277226416891	1514	1495	1511	1442
1399581277241355159	1516	1508	1511	1441
1399581277271448383	1516	1499	1511	1441
1399581277281376490	1520	1496	1512	1441
1399581277306440468	1523	1493	1512	1440
1399581277326439668	1521	1490	1512	1440
1399581277341637235	1520	1494	1512	1439
1399581277371490766	1523	1499	1512	1440
1399581277401796505	1525	1505	1513	1439
1399581277416792737	1526	1514	1513	1438
1399581277431792938	1524	1508	1513	1439
1399581277456903135	1522	1510	1513	1439
1399581277471731409	1517	1511	1513	1439
1399581277491799883	1515	1500	1513	1440
1399581277516732337	1518	1521	1513	1438
1399581277531765145	1517	1505	1513	1439
1399581277556877820	1516	1511	1513	1439
1399581277587103250	1512	1520	1513	1438
1399581277596541049	1514	1525	1513	1438
1399581277616751641	1517	1512	1513	1438
1399581277636783492	1518	1499	1513	1439
1399581277666844253	1519	1506	1512	1439
1399581277686841092	1525	1508	1512	1439
1399581277696756546	1522	1510	1512	1439
1399581277721825175	1525	1506	1511	1440
1399581277736752063	1527	1507	1511	1440
1399581277746785148	1525	1513	1510	1440
1399581277771764655	1529	1519	1510	1439
1399581277786776175	1529	1521	1510	1439
1399581277806882751	1519	1520	1509	1440
1399581277831744685	1519	1518	1508	1440
1399581277856877126	1521	1526	1507	1440
1399581277876749539	1521	1531	1507	1440
1399581277891799222	1520	1529	1507	1441
1399581277916558457	1524	1531	1506	1441
1399581277936506570	1523	1534	1506	1442
1399581277946495593	1522	1531	1505	1442
1399581277971492863	1520	1527	1505	1442
1399581277981441707	1519	1532	1505	1441
1399581278006521424	1521	1525	1504	1442
1399581278026444957	1521	1517	1504	1443
1399581278041458429	1519	1523	1504	1443
1399581278071498801	1527	1521	1504	1443
1399581278086459008	1525	1517	1504	1444
1399581278101447082	1530	1516	1504	1443
1399581278116485535	1526	1526	1503	1443
1399581278131470915	1527	1532	1503	1443
1399581278156494179	1530	1536	1503	1443
1399581278186478078	1527	1534	1504	1444
1399581278206525372	1528	1534	1504	1444
1399581278226518517	1525	1533	1504	1444
1399581278241428006	1527	1541	1504	1443
1399581278271455898	1520	1523	1505	1445
1399581278286543533	1519	1536	1505	1444
1399581278306489062	1525	1532	1506	1443
1399581278326461519	1525	1524	1506	1445
1399581278341458792	1522	1532	1506	1444
1399581278356453643	1524	1537	1507	1442
1399581278371445604	1523	1537	1507	1442
1399581278391467476	1531	1531	1508	1442
1399581278406564598	1530	1527	1508	1443
1399581278421481309	1530	1528	1509	1443
1399581278441465985	1523	1521	1509	1443
1399581278471443546	1530	1525	1509	1442
1399581278491527794	1526	1532	1510	1442
1399581278516476018	1523	1530	1510	1442
1399581278531473943	1523	1535	1510	1441
1399581278571512842	1522	1535	1511	1441
1399581278606532107	1523	1530	1511	1441
1399581278626472138	1522	1527	1511	1441
1399581278656461831	1516	1525	1512	1442
1399581278676449970	1517	1537	1512	1440
1399581278691440920	1511	1540	1512	1439
1399581278711513275	1518	1541	1512	1440
1399581278726442990	1513	1531	1512	1440
1399581278741451586	1515	1525	1512	1442
1399581278771462692	1510	1529	1512	1441
1399581278786520638	1512	1527	1512	1441
1399581278801490631	1511	1523	1512	1442
1399581278816473506	1511	1529	1512	1442
1399581278836504034	1512	1534	1512	1441
1399581278856521415	1510	1533	1511	1441
1399581278876451943	1512	1531	1511	1441
1399581278891487199	1511	1537	1511	1441
1399581278906467366	1509	1541	1511	1441
1399581278926463783	1505	1537	1510	1442
1399581278941533799	1505	1534	1510	1441
1399581278971503668	1507	1535	1510	1441
1399581278986521158	1511	1538	1509	1442
1399581279006480962	1506	1529	1509	1442
1399581279026459972	1499	1530	1508	1442
1399581279056515532	1507	1533	1507	1441
1399581279076413479	1502	1531	1507	1442
1399581279091447651	1506	1528	1507	1441
1399581279116528898	1510	1524	1506	1442
1399581279136454871	1510	1519	1506	1442
1399581279146452398	1507	1525	1506	1441
1399581279166511633	1503	1530	1505	1440
1399581279186450584	1506	1531	1505	1442
1399581279206516057	1499	1529	1505	1441
1399581279236434217	1500	1523	1504	1442
1399581279256513516	1506	1521	1504	1441
1399581279286508712	1508	1520	1504	1441
1399581279296430861	1510	1518	1504	1441
1399581279316520747	1514	1520	1504	1440
1399581279331486744	1513	1520	1504	1441
1399581279356472869	1509	1516	1504	1441
1399581279376508182	1514	1515	1504	1441
1399581279391493366	1513	1509	1504	1442
1399581279421498595	1515	1512	1504	1442
1399581279436508764	1520	1502	1504	1442
1399581279446470149	1523	1498	1504	1442
1399581279471588996	1510	1504	1504	1442
1399581279486432544	1508	1507	1505	1442
1399581279506508875	1504	1509	1505	1441
1399581279526450630	1505	1523	1506	1441
1399581279541443911	1505	1513	1506	1441
1399581279556415456	1508	1506	1506	1441
1399581279571480661	1510	1505	1507	1441
1399581279591468300	1505	1509	1507	1440
1399581279606458632	1505	1513	1507	1440
1399581279626522727	1514	1508	1508	1441
1399581279646508485	1514	1496	1508	1441
1399581279671463471	1506	1517	1508	1440
1399581279686450933	1512	1513	1509	1440
1399581279706477559	1507	1508	1509	1440
1399581279726458468	1510	1519	1509	1440
1399581279756498485	1512	1504	1510	1440
1399581279776516927	1507	1511	1510	1439
1399581279791478174	1505	1504	1510	1440
1399581279821430661	1510	1511	1510	1439
1399581279836463335	1509	1512	1510	1440
1399581279851465818	1510	1509	1511	1440
1399581279866463747	1514	1518	1511	1439
1399581279886427661	1516	1517	1511	1439
1399581279906439413	1514	1516	1511	1440
1399581279926654324	1514	1516	1511	1440
1399581279941701234	1518	1524	1511	1439
1399581279971834090	1514	1518	1510	1441
1399581279991781550	1517	1520	1510	1442
1399581280021531516	1520	1535	1510	1440
1399581280036736451	1518	1530	1510	1441
1399581280051724498	1519	1529	1510	1441
1399581280066720722	1514	1526	1510	1441
1399581280081691717	1513	1533	1510	1441
1399581280096716835	1513	1529	1510	1441
1399581280121728832	1518	1531	1510	1441
1399581280131715264	1521	1536	1509	1441
1399581280146533744	1518	1535	1509	1441
1399581280171876133	1513	1523	1509	1441
1399581280186838465	1516	1526	1509	1441
1399581280206852118	1518	1534	1509	1440
1399581280226815272	1513	1530	1509	1441
1399581280241773266	1527	1527	1509	1441
1399581280271776621	1523	1528	1510	1440
1399581280281768133	1524	1521	1510	1440
1399581280296749944	1532	1526	1510	1439
1399581280316799224	1524	1540	1510	1439
1399581280331694096	1527	1542	1510	1438
1399581280356772515	1520	1540	1511	1438
1399581280376742491	1527	1537	1511	1437
1399581280396809700	1528	1536	1511	1437
1399581280416731753	1523	1550	1512	1436
1399581280431809968	1533	1541	1512	1437
1399581280456716493	1527	1548	1512	1437
1399581280476735381	1527	1542	1513	1436
1399581280491737447	1529	1541	1513	1437
1399581280521787332	1524	1533	1513	1437
1399581280541799394	1523	1533	1513	1436
1399581280556555407	1514	1528	1514	1437
1399581280586733547	1512	1526	1514	1436
1399581280601708294	1512	1517	1514	1436
1399581280621707691	1511	1526	1514	1435
1399581280631804316	1516	1526	1514	1435
1399581280656584653	1525	1527	1515	1436
1399581280676796420	1525	1533	1515	1435
1399581280691756133	1528	1534	1515	1435
1399581280721830640	1520	1520	1515	1436
1399581280736779301	1527	1524	1516	1435
1399581280751746620	1526	1531	1516	1435
1399581280766847947	1534	1526	1516	1436
1399581280781768674	1534	1519	1517	1437
1399581280806786625	1521	1517	1517	1438
1399581280826701886	1523	1507	1517	1438
1399581280841728501	1527	1511	1517	1438
1399581280856775681	1520	1513	1517	1439
1399581280871711436	1523	1518	1517	1438
1399581280891724801	1520	1521	1517	1438
1399581280906735794	1519	1514	1517	1439
1399581280926847058	1516	1507	1517	1440
1399581280941729219	1518	1506	1518	1441
1399581280971738377	1526	1503	1518	1440
1399581280986717219	1528	1508	1518	1441
1399581280996641756	1525	1503	1518	1441
1399581281016878453	1528	1510	1518	1442
1399581281031864761	1531	1508	1518	1442
1399581281051874757	1532	1518	1518	1442
1399581281066712056	1525	1514	1518	1443
1399581281081795737	1531	1511	1518	1442
1399581281106509449	1528	1514	1517	1442
1399581281121757551	1529	1513	1517	1443
1399581281141550293	1525	1514	1517	1443
1399581281171938193	1530	1513	1517	1442
1399581281186755306	1526	1515	1516	1442
1399581281206817576	1518	1514	1516	1442
1399581281226724645	1519	1515	1516	1443
1399581281241665455	1518	1517	1515	1441
1399581281256752448	1526	1517	1515	1441
1399581281271706794	1523	1517	1514	1442
1399581281291534179	1518	1510	1514	1442
1399581281306704325	1515	1498	1514	1443
1399581281331695218	1513	1499	1513	1442
1399581281341601896	1511	1506	1513	1441
1399581281356658101	1521	1519	1513	1441
1399581281376633865	1520	1519	1513	1441
1399581281391481315	1520	1510	1513	1441
1399581281421825931	1518	1519	1513	1441
1399581281436784883	1518	1516	1513	1441
1399581281456743200	1517	1515	1513	1440
1399581281476733531	1513	1513	1513	1440
1399581281491740941	1515	1506	1512	1441
1399581281506581923	1517	1514	1512	1440
1399581281536814277	1518	1513	1512	1440
1399581281551765493	1516	1502	1512	1440
1399581281566747820	1509	1520	1512	1440
1399581281581702504	1512	1530	1512	1438
1399581281596729500	1520	1532	1512	1437
1399581281621780800	1507	1531	1512	1438
1399581281636799212	1514	1521	1511	1439
1399581281656692380	1511	1519	1511	1438
1399581281676613903	1508	1526	1511	1438
1399581281706723522	1512	1520	1511	1439
1399581281726650803	1512	1520	1511	1439
1399581281741617020	1509	1524	1511	1439
1399581281756673599	1512	1530	1511	1439
1399581281786732257	1509	1525	1510	1439
1399581281801693119	1516	1533	1510	1439
1399581281816766125	1520	1531	1510	1439
1399581281831709670	1517	1522	1509	1441
1399581281856593628	1515	1524	1509	1440
1399581281876783100	1519	1527	1509	1440
1399581281891595124	1516	1522	1509	1441
1399581281916753099	1524	1537	1508	1440
1399581281936770667	1523	1535	1508	1441
1399581281956797977	1524	1530	1508	1442
1399581281976779808	1523	1530	1508	1442
1399581281991717908	1526	1537	1507	1442
1399581282006848094	1527	1531	1507	1443
1399581282031812083	1522	1533	1507	1443
1399581282046793000	1518	1530	1507	1444
1399581282066589979	1520	1531	1506	1444
1399581282086551552	1521	1535	1506	1443
1399581282096696786	1520	1540	1506	1443
1399581282116735359	1523	1551	1506	1442
1399581282136773473	1523	1546	1505	1441
1399581282156626382	1525	1535	1505	1442
1399581282176534708	1526	1549	1505	1442
1399581282191771733	1526	1546	1505	1442
1399581282221828634	1517	1525	1504	1443
1399581282236714504	1516	1532	1504	1443
1399581282266528197	1527	1533	1504	1441
1399581282281700513	1530	1542	1504	1440
1399581282296698463	1529	1535	1503	1441
1399581282321757182	1524	1536	1503	1441
1399581282331666997	1520	1524	1504	1442
1399581282356831560	1525	1528	1504	1441
1399581282376699036	1527	1530	1504	1441
1399581282391552558	1524	1525	1504	1441
1399581282406777577	1523	1522	1504	1441
1399581282426572601	1521	1527	1504	1441
1399581282441759422	1519	1530	1505	1440
1399581282471799170	1523	1533	1505	1440
1399581282501934970	1523	1530	1506	1440
1399581282516817247	1522	1520	1506	1440
1399581282531720575	1522	1522	1506	1440
1399581282576781098	1523	1524	1507	1439
1399581282591769852	1526	1516	1508	1439
1399581282621668586	1527	1533	1508	1438
1399581282636724225	1522	1522	1508	1439
1399581282656722489	1523	1528	1509	1438
1399581282676642286	1522	1533	1509	1437
1399581282691692069	1524	1523	1510	1438
1399581282721715468	1523	1529	1510	1438
1399581282736724796	1526	1532	1510	1437
1399581282746729369	1520	1522	1511	1438
1399581282766770120	1508	1515	1511	1439
1399581282791762326	1508	1527	1512	1437
1399581282806800527	1511	1517	1512	1438
1399581282826725913	1507	1517	1513	1439
1399581282841729908	1505	1517	1513	1439
1399581282871787032	1505	1520	1513	1439
1399581282886708659	1506	1518	1513	1439
1399581282906492373	1512	1522	1514	1439
1399581282936481968	1511	1521	1514	1439
1399581282956537039	1504	1521	1514	1440
1399581282976517310	1507	1518	1514	1440
1399581282991565565	1507	1520	1514	1440
1399581283006455020	1500	1525	1513	1440
1399581283026494482	1499	1519	1513	1440
1399581283046456597	1502	1520	1513	1441
1399581283056490975	1504	1530	1513	1441
1399581283076433999	1501	1523	1513	1441
1399581283091455868	1501	1522	1513	1441
1399581283106493151	1498	1519	1513	1441
1399581283126442916	1492	1521	1513	1440
1399581283141409844	1492	1525	1512	1439
1399581283171547581	1503	1525	1512	1440
1399581283186402149	1495	1519	1512	1440
1399581283206530157	1508	1521	1512	1440
1399581283226467382	1505	1515	1512	1441
1399581283241483097	1501	1523	1512	1440
1399581283256485540	1504	1531	1511	1440
1399581283281429193	1504	1531	1511	1440
1399581283291425063	1505	1526	1511	1441
1399581283321456155	1500	1536	1511	1440
1399581283331414379	1504	1539	1511	1441
1399581283356520645	1500	1528	1511	1442
1399581283376469942	1500	1536	1511	1441
1399581283406500274	1500	1528	1510	1443
1399581283426430893	1502	1530	1510	1444
1399581283441410942	1499	1529	1510	1444
1399581283466455338	1503	1529	1510	1443
1399581283481485524	1506	1525	1510	1444
1399581283496444535	1508	1522	1510	1444
1399581283526442967	1507	1516	1510	1445
1399581283541467650	1499	1514	1509	1444
1399581283556438334	1502	1523	1509	1444
1399581283576470104	1506	1522	1509	1444
1399581283591479215	1504	1526	1509	1444
1399581283621478502	1503	1511	1508	1445
1399581283641478505	1498	1505	1508	1446
1399581283671481234	1506	1516	1508	1446
1399581283686493966	1506	1509	1508	1447
1399581283706518080	1509	1517	1507	1446
1399581283726461326	1510	1512	1507	1446
1399581283741507363	1508	1507	1507	1446
1399581283756445133	1510	1512	1506	1446
1399581283771468225	1506	1516	1506	1445
1399581283791545908	1508	1523	1506	1445
1399581283811496580	1511	1517	1506	1445
1399581283826466328	1513	1520	1506	1445
1399581283841503453	1515	1525	1505	1445
1399581283856503085	1515	1519	1505	1444
1399581283876483644	1506	1512	1505	1446
1399581283891467369	1514	1508	1504	1447
1399581283921516707	1512	1510	1504	1445
1399581283936431939	1522	1515	1504	1446
1399581283956514545	1507	1505	1503	1446
1399581283976405105	1517	1503	1503	1446
1399581283991386406	1509	1510	1503	1445
1399581284006477506	1508	1512	1502	1445
1399581284031448196	1509	1490	1502	1447
1399581284056470612	1509	1498	1502	1447
1399581284076464240	1503	1497	1501	1446
1399581284091465423	1510	1491	1501	1447
1399581284121513714	1508	1497	1501	1446
1399581284141459972	1509	1498	1501	1447
1399581284171497614	1508	1507	1501	1445
1399581284186386734	1514	1508	1501	1445
1399581284196383403	1510	1498	1501	1446
1399581284226500395	1517	1502	1501	1444
1399581284241386954	1516	1497	1500	1445
1399581284256431976	1513	1509	1500	1444
1399581284276471915	1515	1509	1501	1445
1399581284291443268	1521	1508	1500	1445
1399581284316476948	1515	1492	1500	1447
1399581284336356800	1513	1486	1500	1447
1399581284356490879	1522	1500	1501	1446
1399581284386487880	1525	1504	1501	1447
1399581284406466721	1521	1502	1501	1447
1399581284436384434	1522	1513	1501	1446
1399581284451457302	1528	1508	1501	1446
1399581284466448830	1529	1515	1502	1446
1399581284481472502	1525	1517	1502	1446
1399581284496408966	1528	1522	1502	1445
1399581284521500680	1518	1509	1502	1446
1399581284541504295	1520	1508	1502	1447
1399581284571423824	1515	1516	1503	1445
1399581284591460173	1519	1514	1504	1446
1399581284621472413	1526	1528	1504	1444
1399581284636475178	1522	1528	1505	1444
1399581284656476520	1522	1520	1505	1444
1399581284676437170	1523	1516	1506	1444
1399581284691415103	1526	1517	1507	1444
1399581284706480814	1520	1509	1507	1443
1399581284721451901	1521	1521	1508	1442
1399581284741505732	1522	1522	1508	1442
1399581284771496552	1523	1514	1510	1442
1399581284791491121	1521	1523	1510	1441
1399581284821481382	1516	1525	1511	1443
1399581284836454934	1517	1524	1512	1443
1399581284856504296	1522	1524	1513	1443
1399581284876474242	1515	1530	1513	1442
1399581284891452551	1514	1524	1514	1443
1399581284916497101	1515	1538	1515	1443
1399581284936442091	1515	1539	1515	1442
1399581284951439077	1517	1537	1516	1443
1399581284966513542	1521	1534	1516	1444
1399581284991458576	1517	1535	1516	1444
1399581285016538935	1518	1537	1517	1445
1399581285036418321	1519	1533	1517	1445
1399581285046429793	1517	1542	1517	1445
1399581285071475625	1514	1538	1517	1445
1399581285086473021	1513	1531	1517	1446
1399581285106458978	1513	1531	1517	1446
1399581285126479972	1511	1539	1518	1446
1399581285141457125	1513	1531	1518	1447
1399581285156446413	1514	1522	1518	1448
1399581285181539054	1513	1538	1518	1447
1399581285196473687	1515	1531	1518	1447
1399581285221446410	1511	1527	1518	1448
1399581285241458707	1508	1530	1518	1447
1399581285261464480	1508	1541	1519	1447
1399581285276428376	1510	1538	1518	1447
1399581285291426766	1507	1541	1519	1448
1399581285306487942	1507	1536	1519	1450
1399581285326461157	1505	1530	1519	1449
1399581285341415016	1508	1535	1519	1448
1399581285371530242	1511	1533	1519	1449
1399581285386437689	1507	1535	1519	1449
1399581285401482111	1511	1539	1519	1448
1399581285416501732	1514	1544	1520	1448
1399581285431572187	1518	1539	1520	1448
1399581285456486899	1511	1533	1520	1448
1399581285476488763	1511	1535	1520	1448
1399581285491473078	1516	1538	1521	1448
1399581285516506577	1517	1528	1521	1448
1399581285536495860	1513	1529	1521	1448
1399581285556453375	1521	1536	1521	1449
1399581285576485532	1520	1535	1521	1449
1399581285591415317	1519	1539	1522	1448
1399581285621476001	1519	1539	1522	1449
1399581285641500813	1521	1540	1522	1449
1399581285671536950	1522	1527	1523	1449
1399581285686455497	1527	1531	1523	1449
1399581285696446784	1519	1528	1523	1450
1399581285721480397	1523	1520	1523	1449
1399581285741492563	1527	1520	1523	1450
1399581285761570463	1527	1509	1523	1451
1399581285776434336	1526	1503	1522	1451
1399581285791414849	1526	1510	1522	1450
1399581285806433037	1538	1527	1522	1449
1399581285826440601	1538	1523	1522	1450
1399581285841404397	1529	1519	1522	1451
1399581285866486828	1541	1527	1522	1451
1399581285881415739	1533	1523	1522	1451
1399581285896470976	1532	1528	1521	1451
1399581285916467379	1536	1523	1521	1450
1399581285931449959	1540	1531	1521	1451
1399581285946447319	1533	1523	1521	1451
1399581285966471492	1528	1531	1520	1452
1399581285986458001	1532	1530	1520	1451
1399581285996410340	1533	1534	1520	1451
1399581286021449239	1546	1526	1520	1450
1399581286031423525	1537	1521	1519	1450
1399581286051489209	1540	1525	1519	1451
1399581286071445918	1537	1522	1519	1450
1399581286086409888	1539	1523	1519	1450
1399581286106477945	1539	1521	1518	1450
1399581286126458422	1535	1529	1518	1450
1399581286156506233	1540	1522	1518	1450
1399581286171457398	1536	1521	1518	1450
1399581286196480471	1536	1524	1518	1449
1399581286221532983	1535	1516	1517	1450
1399581286231414936	1538	1514	1517	1449
1399581286256503454	1536	1519	1517	1449
1399581286286484778	1539	1522	1517	1448
1399581286306427649	1539	1527	1517	1448
1399581286326425227	1537	1532	1517	1449
1399581286341444290	1538	1531	1516	1448
1399581286356443921	1539	1531	1516	1448
1399581286376461445	1540	1531	1516	1448
1399581286391468310	1534	1528	1516	1449
1399581286421484713	1536	1528	1516	1448
1399581286441408348	1531	1531	1516	1448
1399581286471498274	1528	1519	1515	1448
1399581286481489805	1532	1525	1515	1447
1399581286506495475	1527	1526	1515	1448
1399581286526490994	1522	1528	1515	1448
1399581286541474982	1524	1529	1515	1447
1399581286571529391	1525	1526	1514	1448
1399581286591438650	1521	1523	1514	1448
1399581286616509883	1527	1533	1514	1447
1399581286631476697	1522	1529	1514	1447
1399581286656500642	1526	1530	1513	1446
1399581286676475215	1527	1533	1513	1447
1399581286691501216	1521	1523	1513	1447
1399581286716459878	1526	1533	1513	1446
1399581286731434712	1524	1531	1513	1446
1399581286756501657	1524	1524	1512	1446
1399581286776410040	1514	1529	1512	1445
1399581286791520745	1511	1530	1512	1445
1399581286821464824	1516	1521	1512	1445
1399581286836500939	1518	1522	1511	1445
1399581286856531468	1514	1523	1511	1445
1399581286891544164	1512	1516	1510	1445
1399581286906504114	1510	1516	1510	1445
1399581286926496075	1517	1514	1510	1445
1399581286941457112	1513	1523	1510	1444
1399581286966475025	1509	1504	1509	1447
1399581286986465292	1514	1504	1509	1446
1399581287006491556	1511	1514	1509	1445
1399581287026532749	1513	1502	1508	1447
1399581287041385505	1517	1512	1508	1446
1399581287071508102	1509	1506	1508	1445
1399581287086503006	1509	1501	1508	1445
1399581287096502919	1515	1512	1507	1445
1399581287116474708	1520	1510	1507	1445
1399581287136419885	1518	1509	1507	1445
1399581287146357996	1516	1505	1507	1446
1399581287166504504	1511	1501	1507	1446
1399581287181452948	1507	1501	1507	1445
1399581287196424955	1501	1505	1507	1445
1399581287221486966	1509	1507	1507	1446
1399581287236460643	1508	1504	1508	1445
1399581287256497620	1507	1509	1508	1445
1399581287271454867	1510	1497	1508	1446
1399581287291455939	1505	1497	1508	1446
1399581287321522375	1514	1520	1508	1444
1399581287341431358	1509	1519	1508	1442
1399581287371510252	1509	1511	1508	1444
1399581287386483157	1510	1505	1508	1443
1399581287396434037	1506	1503	1509	1443
1399581287416422258	1509	1508	1509	1443
1399581287431446539	1512	1512	1509	1441
1399581287456425918	1510	1504	1509	1442
1399581287476402615	1508	1506	1509	1442
1399581287491444903	1511	1507	1509	1441
1399581287521417917	1512	1497	1509	1441
1399581287536439914	1511	1497	1509	1441
1399581287556518008	1505	1509	1509	1441
1399581287571500689	1505	1520	1509	1440
1399581287591464657	1510	1511	1509	1440
1399581287606506172	1506	1503	1509	1440
1399581287621541209	1503	1501	1509	1441
1399581287641476920	1511	1503	1509	1440
1399581287656426824	1508	1520	1509	1440
1399581287671432140	1499	1521	1509	1439
1399581287691451724	1501	1524	1510	1439
1399581287721487481	1503	1520	1510	1438
1399581287741519009	1508	1530	1510	1437
1399581287771488738	1507	1511	1510	1438
1399581287786512198	1506	1515	1510	1437
1399581287806525008	1508	1514	1510	1438
1399581287826452729	1505	1509	1510	1438
1399581287856489795	1505	1520	1510	1438
1399581287871459819	1509	1517	1510	1438
1399581287891463201	1510	1522	1510	1437
1399581287911739182	1503	1539	1510	1437
1399581287926778993	1510	1533	1510	1438
1399581287941729773	1506	1533	1510	1438
1399581287971656632	1502	1528	1510	1440
1399581287986645838	1507	1529	1510	1439
1399581288006840535	1500	1521	1510	1440
1399581288026690440	1496	1525	1510	1441
1399581288041724477	1497	1519	1511	1442
1399581288071654540	1503	1523	1511	1442
1399581288081454112	1507	1515	1511	1442
1399581288101680487	1504	1514	1511	1443
1399581288121748793	1495	1527	1511	1443
1399581288131823790	1499	1529	1511	1442
1399581288146703494	1502	1530	1511	1443
1399581288166802728	1497	1522	1511	1445
1399581288186733647	1495	1516	1511	1445
1399581288196679310	1496	1517	1511	1445
1399581288221707735	1495	1521	1511	1445
1399581288236691548	1495	1522	1512	1445
1399581288246757459	1495	1514	1512	1446
1399581288271785269	1499	1522	1512	1444
1399581288286797822	1501	1533	1512	1444
1399581288301704925	1498	1531	1512	1445
1399581288326808340	1501	1527	1512	1446
1399581288341654392	1503	1528	1512	1446
1399581288366780835	1495	1525	1512	1446
1399581288381679743	1494	1520	1512	1447
1399581288396703558	1500	1521	1512	1447
1399581288421804520	1495	1522	1512	1447
1399581288441835099	1496	1508	1512	1449
1399581288471557302	1499	1520	1512	1447
1399581288491764925	1498	1528	1513	1445
1399581288521687134	1494	1508	1513	1448
1399581288536849094	1494	1515	1513	1447
1399581288556702026	1503	1515	1513	1447
1399581288576797663	1503	1514	1513	1447
1399581288591669853	1504	1504	1513	1448
1399581288606773462	1507	1511	1513	1448
1399581288621756077	1510	1516	1513	1446
1399581288641724474	1513	1528	1513	1445
1399581288656812548	1514	1540	1514	1444
1399581288671810052	1517	1541	1514	1445
1399581288691729793	1519	1529	1514	1446
1399581288721845289	1514	1521	1514	1445
1399581288741607335	1520	1519	1514	1446
1399581288771711011	1521	1529	1514	1445
1399581288791782358	1527	1536	1514	1444
1399581288806785977	1525	1526	1514	1445
1399581288821705037	1528	1523	1514	1445
1399581288851801350	1524	1528	1514	1444
1399581288871830339	1527	1536	1514	1444
1399581288881757131	1529	1521	1515	1444
1399581288896667807	1523	1518	1515	1445
1399581288921818872	1518	1512	1515	1445
1399581288936768539	1516	1526	1515	1445
1399581288946685510	1516	1528	1515	1444
1399581288971753350	1526	1539	1515	1444
1399581288981660683	1522	1537	1515	1443
1399581289006775923	1538	1530	1515	1444
1399581289026798513	1529	1539	1515	1443
1399581289041700073	1542	1542	1515	1444
1399581289056727575	1523	1540	1515	1443
1399581289081745405	1530	1540	1516	1444
1399581289106844901	1531	1545	1516	1443
1399581289121826887	1537	1547	1516	1443
1399581289146756217	1534	1553	1516	1443
1399581289171895779	1536	1545	1517	1443
1399581289181774990	1534	1556	1517	1443
1399581289206785836	1528	1544	1517	1443
1399581289231409122	1527	1547	1517	1443
1399581289271799465	1529	1541	1518	1442
1399581289291800064	1524	1538	1518	1442
1399581289306738330	1527	1527	1518	1441
1399581289326740104	1516	1536	1518	1441
1399581289341683822	1527	1536	1518	1441
1399581289356532982	1528	1548	1518	1442
1399581289381782686	1525	1546	1518	1443
1399581289391631797	1527	1540	1518	1442
1399581289406783812	1518	1549	1518	1441
1399581289421715420	1524	1553	1518	1441
1399581289441710825	1528	1549	1518	1441
1399581289456774360	1524	1543	1518	1442
1399581289476715028	1529	1538	1518	1443
1399581289491663498	1527	1526	1518	1444
1399581289521775454	1525	1538	1519	1442
1399581289541680654	1526	1542	1519	1442
1399581289556919940	1523	1546	1519	1442
1399581289571665046	1523	1541	1519	1443
1399581289591754491	1522	1536	1519	1443
1399581289611875221	1519	1535	1519	1444
1399581289626788641	1518	1531	1519	1443
1399581289641790790	1517	1527	1519	1443
1399581289656766348	1516	1530	1519	1443
1399581289676544652	1517	1530	1519	1443
1399581289691731575	1516	1533	1519	1443
1399581289721710630	1506	1526	1519	1443
1399581289736684861	1504	1525	1519	1444
1399581289756877445	1509	1525	1519	1443
1399581289776699707	1506	1525	1519	1443
1399581289791749547	1504	1519	1519	1443
1399581289806806810	1506	1522	1519	1443
1399581289821590830	1507	1522	1519	1443
1399581289846813990	1510	1527	1519	1442
1399581289871565478	1509	1524	1518	1442
1399581289881757630	1512	1525	1518	1442
1399581289901792543	1515	1527	1518	1441
1399581289921740691	1521	1532	1518	1441
1399581289936709581	1517	1529	1517	1442
1399581289956695895	1512	1522	1517	1441
1399581289971740594	1511	1524	1517	1441
1399581289991714470	1516	1515	1517	1441
1399581290021765958	1511	1526	1516	1439
1399581290036794467	1517	1523	1516	1439
1399581290051749299	1515	1520	1516	1439
1399581290066738883	1514	1520	1516	1440
1399581290091752439	1516	1518	1516	1439
1399581290106561177	1519	1525	1515	1439
1399581290126785814	1521	1520	1515	1438
1399581290141668382	1522	1517	1515	1439
1399581290161625002	1522	1513	1515	1440
1399581290176647250	1519	1514	1515	1439
1399581290191813946	1525	1519	1515	1439
1399581290221537811	1525	1517	1515	1439
1399581290236515717	1527	1522	1515	1439
1399581290256543092	1520	1515	1515	1439
1399581290271452386	1521	1513	1515	1439
1399581290291507785	1529	1520	1515	1439
1399581290316526460	1523	1504	1514	1441
1399581290331603197	1525	1512	1514	1440
1399581290346479517	1527	1523	1514	1439
1399581290371734698	1527	1527	1514	1440
1399581290386729941	1522	1522	1514	1441
1399581290406561576	1529	1518	1514	1441
1399581290426720807	1533	1526	1514	1441
1399581290441703954	1526	1522	1514	1443
1399581290471722409	1526	1531	1513	1441
1399581290486714080	1524	1524	1513	1442
1399581290501692116	1519	1514	1513	1444
1399581290516799897	1520	1511	1513	1444
1399581290531634122	1520	1519	1513	1444
1399581290546800049	1522	1527	1513	1443
1399581290566758226	1519	1526	1513	1443
1399581290581673515	1519	1520	1513	1443
1399581290601640449	1516	1516	1513	1444
1399581290616701842	1517	1520	1513	1445
1399581290631673016	1518	1517	1513	1445
1399581290656805417	1521	1526	1513	1445
1399581290676673430	1519	1528	1512	1445
1399581290691677527	1520	1528	1512	1445
1399581290721779673	1516	1533	1512	1445
1399581290736777565	1512	1538	1512	1445
1399581290756851952	1515	1538	1512	1446
1399581290786557075	1509	1537	1512	1446
1399581290796683096	1508	1536	1512	1447
1399581290816740913	1511	1540	1512	1447
1399581290836741874	1510	1544	1512	1448
1399581290846658712	1510	1539	1512	1447
1399581290871751990	1511	1539	1512	1449
1399581290886754519	1503	1544	1512	1449
1399581290896768717	1511	1550	1512	1448
1399581290921743824	1514	1559	1512	1448
1399581290936750974	1500	1566	1511	1449
1399581290956794158	1498	1545	1511	1449
1399581290986794924	1494	1553	1511	1449
1399581291006749553	1496	1544	1510	1450
1399581291021753108	1487	1560	1510	1449
1399581291041760978	1495	1554	1510	1450
1399581291071818053	1489	1538	1509	1451
1399581291096527267	1494	1531	1509	1452
1399581291121836455	1493	1529	1509	1453
1399581291131747468	1483	1537	1509	1453
1399581291156810885	1491	1532	1508	1453
1399581291176732002	1489	1523	1508	1454
1399581291191807924	1479	1528	1508	1453
1399581291221770783	1485	1541	1508	1453
1399581291236709094	1483	1539	1508	1453
1399581291251763099	1476	1546	1508	1452
1399581291266695613	1485	1547	1508	1453
1399581291291769718	1480	1544	1507	1453
1399581291306769212	1491	1553	1507	1452
1399581291321749367	1489	1544	1507	1453
1399581291341772532	1487	1545	1507	1454
1399581291366723774	1487	1548	1507	1452
1399581291386718938	1481	1542	1506	1453
1399581291406688239	1483	1540	1506	1454
1399581291426849986	1483	1546	1505	1452
1399581291441765174	1483	1537	1505	1453
1399581291471889761	1488	1544	1505	1453
1399581291486638172	1484	1541	1504	1454
1399581291496734773	1488	1534	1504	1454
1399581291516839386	1482	1527	1504	1454
1399581291531766689	1492	1528	1504	1453
1399581291546784305	1484	1529	1504	1452
1399581291566735039	1480	1522	1504	1452
1399581291586746781	1486	1502	1503	1453
1399581291596670809	1488	1499	1504	1454
1399581291616796740	1486	1511	1503	1454
1399581291636948525	1487	1506	1503	1453
1399581291656784783	1496	1516	1504	1453
1399581291676765180	1489	1514	1503	1452
1399581291691744968	1492	1507	1504	1454
1399581291721816455	1499	1521	1504	1451
1399581291731516930	1496	1512	1504	1451
1399581291756753522	1498	1508	1504	1452
1399581291771761281	1492	1509	1505	1451
1399581291791763511	1503	1494	1505	1451
1399581291806793392	1492	1506	1505	1452
1399581291821709803	1499	1506	1505	1451
1399581291846806686	1494	1508	1505	1450
1399581291871834160	1500	1503	1505	1452
1399581291886583972	1495	1498	1505	1452
1399581291896795211	1502	1503	1505	1452
1399581291921750588	1512	1495	1505	1452
1399581291936819781	1517	1508	1505	1451
1399581291946735073	1511	1510	1505	1449
1399581291966568000	1515	1502	1506	1451
1399581291981659878	1514	1491	1506	1451
1399581292001804546	1520	1493	1506	1453
1399581292016714222	1520	1494	1506	1451
1399581292031783850	1518	1500	1506	1453
1399581292046705173	1512	1500	1506	1452
1399581292066790835	1518	1495	1507	1453
1399581292086727515	1519	1487	1507	1452
1399581292106773200	1519	1492	1507	1453
1399581292131744578	1515	1497	1508	1454
1399581292156866839	1513	1491	1508	1453
1399581292181753759	1517	1504	1508	1452
1399581292196849907	1516	1499	1509	1453
1399581292221733828	1520	1505	1509	1452
1399581292236752748	1520	1500	1509	1453
