#Time	 Roll 	 Pitch 	 Yaw 	 Thrust
1399585535171754021	1520	1516	1926	1105
1399585535272022531	1520	1516	1926	1105
1399585535372166778	1520	1516	1926	1105
1399585535472303157	1520	1516	1926	1105
1399585535572458463	1520	1516	1926	1105
1399585535672591051	1520	1516	1926	1105
1399585535772751278	1520	1516	1926	1105
1399585535872923427	1520	1516	1926	1105
1399585535973072517	1520	1516	1926	1105
1399585536073299330	1520	1516	1926	1105
1399585536173508321	1520	1516	1926	1105
1399585536273700763	1520	1516	1926	1105
1399585536373852196	1520	1516	1926	1105
1399585536473976638	1520	1516	1926	1105
1399585536574125764	1520	1516	1926	1105
1399585536674258472	1520	1516	1926	1105
1399585536774386121	1520	1516	1926	1105
1399585536874525550	1520	1516	1926	1105
1399585536974651139	1520	1516	1926	1105
1399585537074803209	1520	1516	1926	1105
1399585537174941983	1520	1516	1926	1105
1399585537275084722	1520	1516	1926	1105
1399585537375229701	1520	1516	1926	1105
1399585537475368235	1520	1516	1926	1105
1399585537575512213	1520	1516	1926	1105
1399585537675651562	1520	1516	1926	1105
1399585537775792295	1520	1516	1926	1105
1399585537875928039	1520	1516	1926	1105
1399585537976056760	1520	1516	1926	1105
1399585538076266471	1520	1516	1926	1105
1399585538176516368	1520	1516	1513	1105
1399585544407166308	1522	1531	1527	1378
1399585544427218711	1514	1532	1527	1378
1399585544442155854	1519	1524	1527	1378
1399585544457212456	1515	1528	1527	1378
1399585544477202131	1514	1529	1527	1378
1399585544492225379	1519	1523	1527	1378
1399585544507268271	1518	1530	1527	1380
1399585544522242951	1514	1529	1527	1380
1399585544542249511	1517	1528	1527	1380
1399585544562212413	1519	1529	1527	1380
1399585544582259178	1518	1530	1527	1380
1399585544597199284	1519	1529	1527	1434
1399585544612116005	1521	1528	1527	1382
1399585544642244347	1519	1531	1527	1382
1399585544657266617	1519	1523	1527	1382
1399585544677230085	1513	1532	1527	1382
1399585544692265628	1514	1532	1527	1382
1399585544707186484	1516	1527	1527	1384
1399585544722160125	1520	1530	1527	1384
1399585544737206236	1520	1528	1527	1383
1399585544757195535	1514	1530	1527	1384
1399585544777371894	1520	1529	1527	1383
1399585544792237702	1518	1528	1527	1384
1399585544807226483	1517	1528	1527	1434
1399585544827196231	1518	1531	1527	1386
1399585544842415004	1518	1531	1527	1386
1399585544857474113	1516	1525	1527	1386
1399585544877484894	1519	1533	1527	1386
1399585544897137612	1514	1526	1527	1385
1399585544912450573	1514	1524	1527	1389
1399585544932427782	1519	1531	1527	1388
1399585544947504009	1516	1531	1527	1388
1399585544962187882	1518	1526	1527	1388
1399585544982364923	1522	1531	1527	1388
1399585545002450327	1519	1532	1527	1435
1399585545012435054	1519	1525	1527	1390
1399585545032586531	1517	1525	1527	1391
1399585545052512248	1515	1531	1527	1390
1399585545062686723	1515	1547	1527	1388
1399585545082504645	1515	1541	1527	1388
1399585545097211099	1514	1532	1527	1435
1399585545112547598	1512	1519	1527	1392
1399585545132309575	1498	1512	1527	1391
1399585545147501162	1510	1524	1526	1389
1399585545162161795	1508	1533	1526	1388
1399585545192291519	1517	1523	1525	1388
1399585545207487667	1505	1524	1525	1388
1399585545237510833	1500	1518	1525	1389
1399585545257358182	1493	1522	1524	1388
1399585545272515400	1503	1509	1524	1389
1399585545292241481	1503	1523	1523	1385
1399585545307371862	1484	1529	1522	1387
1399585545322411680	1503	1508	1522	1388
1399585545342455815	1504	1507	1521	1389
1399585545357296890	1499	1508	1520	1389
1399585545377211782	1511	1506	1519	1390
1399585545392533553	1510	1510	1518	1388
1399585545407150852	1495	1511	1518	1389
1399585545427446378	1508	1509	1517	1390
1399585545442531343	1510	1510	1516	1389
1399585545472510541	1522	1517	1515	1388
1399585545487467204	1484	1519	1514	1388
1399585545507341629	1495	1517	1513	1391
1399585545527499204	1493	1523	1513	1391
1399585545542473414	1495	1495	1512	1393
1399585545557225201	1483	1506	1512	1392
1399585545577172035	1487	1497	1511	1393
1399585545592260824	1495	1504	1511	1391
1399585545607457800	1503	1517	1511	1394
1399585545627151875	1481	1531	1511	1392
1399585545642517867	1483	1526	1510	1393
1399585545662348651	1480	1528	1510	1394
1399585545682488122	1480	1520	1510	1395
1399585545712508410	1490	1517	1509	1396
1399585545742546787	1496	1516	1509	1397
1399585545757473416	1502	1526	1509	1396
1399585545777680449	1488	1525	1509	1397
1399585545787442008	1490	1532	1508	1398
1399585545807420729	1486	1527	1509	1399
1399585545827404952	1496	1520	1509	1400
1399585545842268105	1499	1537	1509	1400
1399585545857414726	1492	1544	1509	1398
1399585545877437210	1490	1550	1509	1399
1399585545897406430	1506	1527	1509	1438
1399585545912468095	1488	1532	1509	1402
1399585545932383663	1486	1524	1509	1402
1399585545947524005	1486	1532	1509	1402
1399585545962168422	1485	1532	1510	1401
1399585545987391093	1502	1537	1510	1400
1399585545997400796	1522	1527	1511	1439
1399585546017228210	1511	1550	1511	1402
1399585546032429272	1513	1539	1511	1401
1399585546047456755	1497	1545	1511	1400
1399585546062440753	1510	1522	1512	1400
1399585546082467790	1499	1520	1512	1400
1399585546097470344	1512	1522	1512	1439
1399585546112467225	1512	1547	1513	1397
1399585546132504654	1496	1551	1513	1396
1399585546147293142	1489	1560	1513	1394
1399585546162532083	1505	1534	1513	1397
1399585546182479912	1499	1527	1513	1396
1399585546197526439	1513	1525	1513	1440
1399585546212436296	1509	1538	1514	1398
1399585546232240701	1512	1538	1514	1396
1399585546247314675	1515	1546	1514	1394
1399585546267515281	1501	1535	1515	1395
1399585546282467633	1516	1520	1515	1395
1399585546297406326	1530	1529	1515	1441
1399585546312489343	1509	1527	1515	1394
1399585546332427370	1526	1551	1515	1392
1399585546357381705	1511	1548	1515	1393
1399585546377427146	1500	1540	1515	1392
1399585546392370852	1500	1550	1516	1392
1399585546407484825	1504	1542	1516	1393
1399585546427498590	1491	1550	1516	1393
1399585546442470142	1522	1520	1516	1394
1399585546457479759	1504	1517	1516	1395
1399585546472480271	1510	1516	1516	1394
1399585546487519886	1514	1522	1516	1393
1399585546512422391	1510	1514	1516	1396
1399585546532499360	1512	1529	1516	1396
1399585546547506149	1516	1537	1516	1396
1399585546562166791	1506	1542	1516	1397
1399585546592567434	1510	1517	1517	1398
1399585546607536378	1514	1520	1517	1400
1399585546627504454	1519	1511	1516	1400
1399585546642600506	1522	1526	1516	1400
1399585546657506096	1523	1513	1516	1401
1399585546677414043	1527	1507	1516	1402
1399585546692474256	1522	1506	1516	1403
1399585546707415885	1524	1487	1516	1406
1399585546722429203	1529	1506	1516	1405
1399585546742364247	1524	1511	1516	1405
1399585546757364130	1517	1510	1516	1405
1399585546777440205	1512	1507	1516	1404
1399585546792306529	1519	1505	1516	1405
1399585546812471234	1516	1503	1516	1409
1399585546832432176	1508	1497	1516	1409
1399585546847464587	1516	1495	1516	1409
1399585546867541937	1521	1503	1516	1409
1399585546882399480	1521	1494	1516	1409
1399585546907445066	1517	1510	1516	1445
1399585546922419338	1519	1491	1516	1414
1399585546937156110	1512	1495	1516	1412
1399585546957458430	1515	1514	1516	1412
1399585546982192157	1525	1498	1516	1412
1399585546997354845	1519	1497	1516	1412
1399585547027257574	1520	1497	1516	1414
1399585547042418355	1508	1490	1516	1413
1399585547057393560	1509	1493	1516	1413
1399585547077612347	1523	1510	1516	1413
1399585547092484784	1515	1505	1516	1411
1399585547112578396	1527	1508	1516	1412
1399585547132177785	1521	1506	1516	1412
1399585547147438643	1516	1504	1516	1411
1399585547162533685	1520	1502	1516	1412
1399585547182490426	1516	1496	1516	1411
1399585547197439778	1513	1495	1516	1412
1399585547212424087	1516	1494	1516	1412
1399585547232536824	1506	1505	1516	1412
1399585547247494481	1519	1516	1516	1410
1399585547277280981	1519	1501	1516	1411
1399585547287414214	1511	1511	1516	1411
1399585547307442182	1513	1514	1516	1409
1399585547327541164	1515	1528	1516	1409
1399585547342425655	1516	1532	1516	1409
1399585547362455662	1509	1518	1515	1408
1399585547382153498	1513	1523	1515	1408
1399585547397465521	1512	1526	1515	1408
1399585547412433699	1508	1521	1515	1409
1399585547432551842	1523	1519	1515	1410
1399585547447384924	1506	1525	1515	1409
1399585547462234729	1506	1529	1515	1409
1399585547492466459	1516	1540	1515	1409
1399585547507223612	1513	1536	1515	1409
1399585547522320874	1515	1546	1515	1408
1399585547542140614	1513	1545	1515	1409
1399585547557396183	1507	1536	1515	1409
1399585547577840822	1507	1549	1515	1407
1399585547597429102	1512	1533	1515	1409
1399585547612426927	1512	1545	1515	1408
1399585547632244732	1509	1541	1515	1408
1399585547647403406	1517	1543	1515	1408
1399585547662257335	1516	1527	1515	1409
1399585547682346252	1502	1553	1515	1408
1399585547697441590	1506	1565	1515	1406
1399585547712376986	1524	1563	1515	1406
1399585547732370410	1506	1562	1515	1408
1399585547747331869	1521	1561	1515	1408
1399585547767351986	1509	1555	1515	1408
1399585547782352575	1509	1532	1515	1409
1399585547797396979	1509	1548	1515	1409
1399585547812371270	1511	1551	1515	1407
1399585547832449433	1514	1552	1515	1407
1399585547847445138	1513	1555	1515	1406
1399585547877442662	1509	1536	1515	1407
1399585547892460159	1516	1541	1515	1407
1399585547907402993	1509	1536	1514	1406
1399585547922509877	1509	1538	1515	1406
1399585547947212970	1512	1520	1515	1407
1399585547967240482	1511	1551	1515	1405
1399585547982235388	1517	1544	1515	1406
1399585547997459525	1518	1532	1515	1406
1399585548012405714	1519	1527	1515	1407
1399585548032182342	1506	1543	1515	1407
1399585548047205864	1523	1530	1515	1406
1399585548062105917	1517	1529	1515	1407
1399585548082143863	1515	1535	1515	1406
1399585548097158006	1511	1529	1515	1407
1399585548127206145	1517	1513	1515	1407
1399585548142180805	1521	1518	1515	1406
1399585548172224230	1521	1509	1515	1406
1399585548182151208	1522	1524	1515	1405
1399585548197138889	1520	1510	1515	1406
1399585548212137665	1519	1500	1515	1407
1399585548232099924	1515	1500	1514	1408
1399585548247122700	1518	1483	1514	1409
1399585548262104269	1517	1491	1514	1407
1399585548292187856	1516	1496	1514	1408
1399585548307097936	1515	1491	1514	1408
1399585548327195182	1517	1503	1514	1408
1399585548347153347	1523	1487	1514	1409
1399585548362124425	1520	1492	1514	1408
1399585548382159309	1526	1486	1514	1407
1399585548397098974	1518	1492	1514	1407
1399585548412119596	1515	1493	1514	1407
1399585548432157967	1515	1484	1514	1408
1399585548447108247	1518	1473	1514	1410
1399585548462118756	1506	1481	1514	1410
1399585548482154225	1522	1486	1514	1408
1399585548497040939	1511	1503	1514	1408
1399585548512179593	1514	1513	1514	1407
1399585548532153683	1511	1482	1514	1407
1399585548547126551	1518	1486	1514	1409
1399585548577152053	1504	1485	1514	1409
1399585548592124415	1516	1493	1514	1407
1399585548607146343	1503	1490	1514	1409
1399585548637089026	1503	1492	1513	1408
1399585548662111777	1505	1493	1513	1409
1399585548682186822	1506	1501	1513	1409
1399585548697105664	1500	1484	1513	1410
1399585548727141164	1499	1493	1513	1409
1399585548737083073	1503	1496	1513	1409
1399585548757163454	1505	1486	1513	1410
1399585548777350526	1496	1490	1512	1410
1399585548792200024	1502	1481	1512	1410
1399585548807206837	1493	1491	1512	1410
1399585548827210418	1494	1506	1512	1409
1399585548842168706	1496	1510	1512	1409
1399585548857192345	1492	1509	1512	1409
1399585548872114263	1495	1512	1511	1409
1399585548887125168	1503	1514	1511	1409
1399585548907160929	1496	1520	1511	1410
1399585548922206010	1499	1504	1511	1410
1399585548942104759	1494	1507	1511	1411
1399585548957190129	1500	1514	1511	1410
1399585548972131453	1485	1526	1511	1410
1399585548992174534	1496	1519	1512	1410
1399585549007149404	1483	1533	1512	1412
1399585549022173803	1492	1520	1512	1412
1399585549042083399	1499	1514	1512	1413
1399585549062165798	1490	1519	1512	1413
1399585549082116950	1496	1522	1512	1413
1399585549097194954	1496	1519	1512	1413
1399585549112142697	1497	1529	1513	1413
1399585549132165116	1502	1525	1513	1412
1399585549147142343	1487	1535	1513	1412
1399585549167132701	1498	1531	1513	1411
1399585549182188947	1489	1538	1513	1413
1399585549197178938	1478	1532	1513	1413
1399585549217136788	1491	1533	1513	1413
1399585549232098126	1492	1530	1513	1413
1399585549247048767	1489	1536	1513	1414
1399585549262081145	1496	1552	1513	1412
1399585549282093160	1499	1535	1513	1412
1399585549297120358	1499	1551	1514	1412
1399585549312127438	1509	1530	1514	1412
1399585549332146509	1502	1539	1514	1414
1399585549347098458	1504	1529	1514	1413
1399585549362132685	1512	1534	1514	1413
1399585549382127849	1493	1536	1514	1412
1399585549402123247	1503	1541	1514	1411
1399585549412095137	1502	1535	1514	1412
1399585549432068794	1501	1542	1514	1412
1399585549447085745	1505	1541	1514	1412
1399585549462107373	1511	1535	1514	1412
1399585549482088947	1506	1529	1514	1412
1399585549497061386	1504	1527	1514	1412
1399585549512107401	1508	1525	1514	1411
1399585549532135016	1497	1525	1514	1412
1399585549547096298	1501	1525	1514	1411
1399585549562058930	1499	1530	1514	1409
1399585549582112465	1507	1536	1514	1411
1399585549597022906	1504	1528	1514	1411
1399585549612146224	1503	1523	1514	1411
1399585549637226387	1508	1529	1514	1410
1399585549657134902	1509	1520	1514	1411
1399585549677203969	1511	1511	1514	1411
1399585549697096336	1509	1518	1513	1410
1399585549722202237	1516	1525	1513	1409
1399585549742185964	1522	1525	1513	1409
1399585549757185586	1517	1512	1512	1410
1399585549777081416	1519	1503	1512	1411
1399585549792116544	1513	1505	1512	1411
1399585549807193211	1519	1503	1512	1410
1399585549822174687	1526	1518	1511	1410
1399585549837159659	1529	1526	1511	1409
1399585549857109249	1536	1521	1511	1409
1399585549877150070	1539	1517	1511	1410
1399585549887048327	1530	1516	1511	1410
1399585549907150179	1526	1508	1510	1410
1399585549927147945	1532	1505	1510	1411
1399585549942174862	1526	1509	1510	1411
1399585549957134318	1518	1505	1510	1412
1399585549977092267	1511	1516	1510	1411
1399585549992103918	1518	1513	1511	1411
1399585550007174945	1514	1516	1510	1412
1399585550027149793	1521	1509	1510	1412
1399585550042144217	1521	1507	1511	1412
1399585550057105262	1532	1501	1511	1413
1399585550077136611	1521	1511	1511	1413
1399585550092102715	1526	1507	1511	1413
1399585550112081505	1525	1508	1511	1414
1399585550132113605	1530	1506	1511	1414
1399585550152122221	1522	1506	1512	1415
1399585550162156765	1519	1503	1512	1415
1399585550182124242	1525	1505	1512	1415
1399585550197154277	1528	1509	1512	1415
1399585550217107606	1527	1507	1513	1415
1399585550232110989	1532	1506	1513	1415
1399585550247123806	1521	1501	1513	1416
1399585550262106994	1520	1499	1513	1416
1399585550282142955	1518	1503	1513	1415
1399585550297141737	1516	1510	1514	1415
1399585550312130058	1518	1518	1514	1414
1399585550332134224	1518	1507	1514	1415
1399585550347107985	1510	1496	1514	1416
1399585550362102220	1510	1496	1515	1416
1399585550387121451	1510	1521	1515	1414
1399585550397100221	1518	1529	1515	1413
1399585550412118564	1516	1530	1515	1413
1399585550432116670	1517	1514	1515	1415
1399585550447100843	1511	1504	1515	1415
1399585550462108324	1513	1508	1515	1415
1399585550482109964	1516	1523	1515	1413
1399585550497054652	1515	1531	1515	1413
1399585550512103276	1513	1524	1515	1413
1399585550532118592	1512	1511	1514	1414
1399585550547117399	1509	1509	1514	1413
1399585550562076029	1507	1529	1514	1413
1399585550582134874	1510	1522	1514	1411
1399585550597132026	1516	1535	1513	1411
1399585550622135364	1511	1514	1513	1412
1399585550632069345	1501	1515	1513	1413
1399585550647134617	1503	1512	1512	1412
1399585550662122471	1489	1517	1512	1412
1399585550682104770	1508	1527	1512	1411
1399585550697143438	1499	1524	1511	1412
1399585550727179443	1499	1522	1511	1412
1399585550747159998	1499	1535	1510	1412
1399585550762104111	1503	1538	1510	1411
1399585550777083735	1496	1538	1510	1412
1399585550792098919	1492	1526	1510	1412
1399585550807151361	1499	1534	1509	1413
1399585550822105254	1497	1545	1509	1412
1399585550837092766	1494	1540	1508	1411
1399585550857145820	1491	1535	1508	1413
1399585550877152066	1499	1526	1508	1413
1399585550887137631	1500	1525	1508	1413
1399585550907109888	1501	1530	1507	1412
1399585550927184318	1501	1541	1507	1412
1399585550942113640	1505	1539	1507	1412
1399585550957147780	1500	1542	1507	1412
1399585550977098422	1501	1524	1507	1413
1399585550992138156	1499	1522	1507	1414
1399585551007157295	1500	1520	1506	1415
1399585551027130735	1501	1522	1506	1414
1399585551042088138	1502	1534	1506	1413
1399585551072089585	1510	1530	1507	1413
1399585551092194739	1512	1541	1507	1414
1399585551107177323	1510	1531	1507	1415
1399585551127185764	1508	1525	1507	1415
1399585551142133641	1511	1521	1507	1416
1399585551157115924	1514	1528	1507	1415
1399585551177112574	1507	1535	1507	1415
1399585551192096261	1512	1538	1508	1415
1399585551207094624	1513	1536	1508	1414
1399585551227138214	1513	1525	1508	1416
1399585551247178023	1519	1529	1508	1415
1399585551262143833	1523	1535	1508	1415
1399585551282141761	1527	1532	1509	1416
1399585551297154243	1521	1525	1509	1417
1399585551312096390	1516	1518	1509	1417
1399585551332186932	1515	1524	1509	1417
1399585551347118442	1519	1531	1509	1416
1399585551362072073	1522	1539	1510	1416
1399585551382131987	1521	1538	1510	1416
1399585551402147291	1527	1535	1510	1417
1399585551417158000	1530	1525	1510	1417
1399585551432112167	1530	1528	1510	1416
1399585551447167108	1527	1537	1511	1416
1399585551477172733	1533	1521	1511	1417
1399585551492174535	1536	1525	1512	1416
1399585551507163968	1537	1535	1512	1416
1399585551527145888	1538	1537	1512	1416
1399585551542246475	1538	1533	1512	1415
1399585551557183441	1544	1527	1512	1416
1399585551572130129	1537	1517	1513	1416
1399585551597168063	1532	1516	1513	1416
1399585551612143191	1539	1510	1513	1416
1399585551632210536	1525	1510	1513	1416
1399585551647232388	1530	1505	1513	1414
1399585551662055622	1526	1513	1513	1414
1399585551682109415	1525	1500	1512	1414
1399585551707153848	1533	1512	1512	1414
1399585551727135205	1525	1518	1512	1413
1399585551742130784	1531	1511	1512	1414
1399585551757086821	1522	1510	1512	1415
1399585551772057885	1527	1504	1512	1414
1399585551787104436	1542	1508	1511	1414
1399585551807143249	1536	1511	1511	1414
1399585551832078299	1545	1519	1511	1413
1399585551847077074	1540	1517	1511	1414
1399585551867197917	1536	1514	1510	1414
1399585551882102541	1543	1505	1510	1414
1399585551897146327	1536	1506	1510	1413
1399585551912075116	1536	1509	1510	1413
1399585551932150258	1542	1511	1510	1412
1399585551947122727	1544	1516	1509	1412
1399585551962036205	1538	1517	1509	1412
1399585551992187523	1533	1500	1508	1413
1399585552007104214	1537	1505	1508	1412
1399585552027164351	1526	1516	1508	1411
1399585552037158793	1531	1504	1508	1412
1399585552062101650	1526	1502	1507	1411
1399585552082120769	1527	1517	1507	1412
1399585552097131280	1534	1511	1507	1412
1399585552112093361	1529	1506	1507	1412
1399585552132123030	1527	1503	1507	1413
1399585552147146932	1525	1493	1507	1413
1399585552162191628	1531	1494	1507	1414
1399585552182154053	1524	1496	1507	1413
1399585552197140342	1524	1505	1507	1412
1399585552227122869	1524	1508	1507	1412
1399585552242128013	1524	1502	1507	1413
1399585552257147119	1523	1502	1507	1412
1399585552277136232	1521	1509	1507	1412
1399585552297091170	1520	1504	1507	1413
1399585552317103559	1518	1503	1507	1412
1399585552337131618	1515	1496	1507	1412
1399585552347110288	1507	1507	1507	1411
1399585552362107526	1513	1502	1507	1410
1399585552382116391	1507	1517	1507	1410
1399585552397132832	1508	1512	1507	1411
1399585552412171019	1500	1502	1507	1411
1399585552432118144	1511	1507	1507	1411
1399585552447171633	1511	1503	1507	1411
1399585552462202246	1507	1515	1507	1410
1399585552482124626	1504	1505	1507	1410
1399585552497125079	1503	1508	1507	1411
1399585552527072484	1506	1501	1507	1410
1399585552542169024	1500	1512	1507	1410
1399585552557110279	1503	1508	1507	1410
1399585552582138518	1498	1522	1507	1409
1399585552597019485	1503	1516	1507	1410
1399585552612115793	1497	1515	1507	1410
1399585552632122701	1499	1504	1507	1411
1399585552647075057	1498	1509	1507	1411
1399585552662138534	1499	1507	1507	1411
1399585552692183109	1502	1513	1507	1410
1399585552712198375	1496	1507	1507	1411
1399585552732159058	1499	1507	1507	1411
1399585552747182568	1486	1513	1507	1411
1399585552762144733	1496	1514	1507	1411
1399585552782234033	1489	1521	1507	1411
1399585552802186259	1490	1527	1508	1411
1399585552812131842	1489	1503	1508	1412
1399585552832145382	1483	1519	1508	1413
1399585552847110158	1484	1500	1509	1413
1399585552867180493	1489	1513	1509	1413
1399585552882073104	1491	1509	1509	1412
1399585552897091560	1490	1511	1509	1413
1399585552927096458	1491	1504	1510	1413
1399585552942197863	1487	1508	1510	1414
1399585552957154773	1476	1509	1511	1414
1399585552977124474	1496	1498	1511	1414
1399585552992146775	1492	1511	1512	1414
1399585553007304823	1495	1516	1512	1414
1399585553022404829	1486	1515	1512	1415
1399585553047448483	1509	1508	1513	1416
1399585553062467356	1508	1506	1513	1416
1399585553082146882	1506	1506	1514	1416
1399585553102429082	1510	1510	1514	1417
1399585553112522082	1516	1512	1514	1417
1399585553132312961	1515	1514	1514	1417
1399585553157441045	1513	1517	1514	1416
1399585553177456231	1514	1520	1514	1416
1399585553192150839	1521	1516	1514	1417
1399585553207198097	1522	1505	1515	1419
1399585553227199238	1527	1494	1514	1420
1399585553237137986	1521	1501	1514	1418
1399585553257190198	1521	1508	1514	1419
1399585553272203585	1532	1509	1514	1417
1399585553287133123	1519	1519	1514	1418
1399585553307248746	1518	1512	1514	1419
1399585553322191440	1529	1508	1513	1419
1399585553342350320	1518	1513	1513	1419
1399585553357460941	1534	1500	1513	1420
1399585553377453216	1535	1500	1513	1421
1399585553392421659	1540	1495	1512	1421
1399585553412401058	1546	1488	1512	1422
1399585553432447048	1543	1496	1511	1422
1399585553447479075	1549	1490	1511	1424
1399585553462465592	1552	1491	1510	1423
1399585553482453259	1544	1503	1510	1422
1399585553507530602	1541	1512	1510	1423
1399585553522503760	1530	1502	1509	1425
1399585553537447692	1541	1514	1509	1423
1399585553562405886	1538	1510	1509	1424
1399585553582390431	1548	1495	1509	1425
1399585553597478616	1552	1509	1509	1424
1399585553612429435	1546	1507	1508	1424
1399585553632399062	1556	1510	1508	1426
1399585553657408206	1552	1520	1508	1424
1399585553677508003	1541	1509	1508	1424
1399585553692381883	1539	1505	1508	1426
1399585553712470539	1531	1515	1508	1424
1399585553732549354	1531	1518	1508	1425
1399585553747499219	1527	1517	1508	1425
1399585553762254133	1532	1519	1508	1424
1399585553782516288	1529	1520	1508	1424
1399585553802485339	1539	1517	1508	1425
1399585553812388104	1526	1508	1508	1425
1399585553832510704	1530	1506	1508	1426
1399585553847414084	1525	1507	1509	1427
1399585553862489765	1522	1513	1509	1425
1399585553892471354	1522	1521	1509	1426
1399585553907422145	1517	1521	1509	1426
1399585553927489536	1509	1532	1510	1425
1399585553942445290	1503	1544	1510	1425
1399585553957491074	1502	1543	1510	1425
1399585553972440085	1510	1537	1510	1426
1399585553987470395	1505	1514	1510	1426
1399585554007442138	1501	1528	1510	1427
1399585554027405340	1508	1525	1510	1426
1399585554037155735	1495	1541	1510	1425
1399585554057524866	1493	1542	1511	1425
1399585554072485167	1505	1534	1511	1425
1399585554092505239	1499	1531	1511	1427
1399585554112517650	1494	1539	1511	1426
1399585554132490038	1495	1549	1512	1426
1399585554147454853	1497	1535	1512	1427
1399585554177440317	1496	1544	1512	1426
1399585554192570945	1494	1548	1512	1425
1399585554207313528	1496	1544	1513	1426
1399585554222366153	1488	1530	1513	1427
1399585554237435849	1485	1548	1513	1426
1399585554262443164	1490	1542	1513	1426
1399585554282491669	1491	1524	1513	1426
1399585554297383060	1481	1549	1513	1426
1399585554317188854	1488	1540	1513	1424
1399585554332376711	1487	1545	1514	1425
1399585554357412917	1489	1539	1514	1425
1399585554377487575	1490	1535	1514	1424
1399585554392478429	1491	1535	1514	1425
1399585554407387116	1497	1528	1514	1426
1399585554427408064	1495	1516	1514	1425
1399585554442454060	1494	1533	1514	1425
1399585554462275465	1500	1520	1514	1426
1399585554482210884	1512	1513	1514	1425
1399585554502321621	1515	1522	1514	1424
1399585554512193014	1515	1524	1513	1424
1399585554532298086	1502	1528	1513	1424
1399585554547249608	1506	1516	1513	1424
1399585554562276760	1508	1518	1513	1424
1399585554582185628	1512	1513	1513	1424
1399585554597206742	1509	1507	1513	1425
1399585554627227175	1518	1511	1513	1424
1399585554642177953	1513	1505	1513	1425
1399585554662181684	1515	1510	1513	1424
1399585554682220405	1518	1508	1513	1424
1399585554707216982	1513	1516	1513	1424
1399585554722232521	1519	1506	1513	1423
1399585554747301655	1507	1507	1513	1424
1399585554762248366	1515	1508	1513	1423
1399585554787227763	1514	1507	1513	1424
1399585554797149564	1516	1501	1513	1425
1399585554817252911	1508	1492	1513	1426
1399585554832240427	1523	1482	1513	1425
1399585554847215410	1518	1490	1513	1423
1399585554877257937	1527	1480	1514	1425
1399585554892188310	1518	1482	1514	1425
1399585554907249674	1521	1505	1514	1423
1399585554927202043	1516	1494	1514	1425
1399585554942207491	1530	1483	1514	1425
1399585554972118980	1528	1482	1514	1425
1399585554987077940	1531	1500	1514	1424
1399585555007121493	1521	1501	1514	1424
1399585555027179389	1530	1507	1514	1424
1399585555037118130	1531	1485	1513	1426
1399585555057120448	1520	1481	1513	1426
1399585555077061048	1520	1490	1513	1426
1399585555097190116	1520	1504	1513	1425
1399585555112075836	1508	1490	1512	1426
1399585555132166961	1533	1495	1512	1425
1399585555147153352	1528	1506	1512	1424
1399585555162162313	1529	1511	1512	1425
1399585555192118809	1522	1503	1511	1425
1399585555207136319	1522	1507	1511	1424
1399585555222161337	1523	1512	1511	1424
1399585555242136371	1522	1500	1511	1425
1399585555257125273	1522	1495	1511	1425
1399585555282162628	1524	1508	1511	1425
1399585555297118106	1521	1513	1511	1425
1399585555312183680	1521	1509	1510	1425
1399585555342205086	1522	1509	1510	1424
1399585555357148581	1516	1510	1510	1425
1399585555377157510	1513	1515	1509	1425
1399585555392178894	1517	1513	1509	1424
1399585555407127921	1516	1512	1509	1424
1399585555432111276	1519	1520	1508	1424
1399585555447135351	1515	1523	1508	1424
1399585555462149789	1515	1527	1508	1424
1399585555487223498	1520	1532	1507	1423
1399585555507142983	1519	1528	1507	1424
1399585555527138604	1524	1532	1507	1423
1399585555542129789	1517	1542	1507	1422
1399585555557134648	1518	1550	1506	1422
1399585555577121011	1515	1542	1506	1423
1399585555592187897	1516	1527	1506	1423
1399585555607136266	1508	1523	1506	1424
1399585555627152553	1508	1514	1506	1424
1399585555647121318	1525	1533	1506	1422
1399585555662160510	1515	1523	1505	1424
1399585555682135646	1514	1528	1505	1423
1399585555712145693	1501	1523	1505	1424
1399585555732153217	1508	1525	1505	1423
1399585555752192424	1509	1528	1505	1422
1399585555762121185	1507	1539	1505	1421
1399585555782147379	1507	1544	1505	1420
1399585555797169035	1512	1545	1505	1421
1399585555812188342	1513	1532	1505	1422
1399585555832149758	1505	1539	1506	1422
1399585555847228915	1501	1531	1506	1422
1399585555877143307	1504	1533	1507	1422
1399585555892139775	1510	1535	1507	1421
1399585555907148039	1503	1536	1507	1422
1399585555927115665	1505	1522	1508	1423
1399585555957157235	1513	1523	1509	1422
1399585555972173704	1512	1524	1509	1423
1399585555992085925	1514	1528	1510	1422
1399585556007225419	1514	1527	1510	1422
1399585556022130172	1522	1524	1510	1422
1399585556042150286	1526	1520	1511	1422
1399585556062119220	1526	1515	1511	1422
1399585556082127163	1522	1509	1511	1423
1399585556107166248	1527	1518	1512	1423
1399585556127151201	1530	1502	1512	1423
1399585556142167992	1521	1502	1512	1424
1399585556157147241	1517	1504	1512	1423
1399585556182106852	1525	1511	1512	1423
1399585556197152193	1526	1498	1513	1423
1399585556227159941	1527	1511	1513	1422
1399585556242044059	1532	1511	1512	1421
1399585556257109581	1528	1505	1512	1423
1399585556277158650	1529	1511	1512	1421
1399585556292149675	1535	1506	1512	1421
1399585556307192179	1540	1502	1512	1421
1399585556322152948	1534	1505	1512	1422
1399585556342115469	1531	1499	1512	1421
1399585556357115678	1534	1506	1511	1421
1399585556377152704	1534	1511	1511	1420
1399585556397120058	1540	1491	1511	1422
1399585556412097122	1540	1501	1510	1421
1399585556432106270	1539	1499	1510	1421
1399585556452117460	1530	1505	1509	1421
1399585556462103181	1548	1509	1509	1420
1399585556482148989	1544	1508	1509	1420
1399585556502162307	1539	1509	1508	1420
1399585556512124270	1545	1509	1508	1420
1399585556532141566	1543	1501	1507	1421
1399585556547091444	1545	1505	1507	1421
1399585556562110671	1547	1503	1507	1420
1399585556582102478	1552	1505	1506	1420
1399585556597126306	1548	1514	1506	1420
1399585556612105993	1548	1514	1505	1420
1399585556632127100	1535	1510	1505	1420
1399585556647111005	1529	1507	1505	1421
1399585556662065975	1532	1506	1504	1421
1399585556692139234	1543	1512	1504	1420
1399585556707171486	1536	1513	1503	1420
1399585556727142401	1537	1522	1503	1420
1399585556742119240	1531	1511	1502	1420
1399585556757164520	1534	1505	1502	1421
1399585556777177883	1534	1504	1502	1421
1399585556787109526	1526	1505	1502	1421
1399585556807113507	1523	1507	1502	1422
1399585556827107534	1522	1504	1502	1422
1399585556842203397	1527	1509	1502	1423
1399585556862151717	1529	1503	1502	1424
1399585556882096277	1528	1504	1502	1425
1399585556897094663	1526	1509	1503	1425
1399585556932175883	1531	1508	1504	1426
1399585556947115447	1526	1512	1504	1426
1399585556967160348	1526	1513	1504	1427
1399585556982135027	1528	1510	1505	1428
1399585556997154574	1526	1505	1505	1429
1399585557017153454	1523	1503	1506	1429
1399585557032117835	1518	1505	1506	1430
1399585557047121242	1522	1500	1507	1431
1399585557062095852	1516	1502	1507	1431
1399585557082112607	1514	1506	1508	1430
1399585557097125181	1514	1508	1508	1430
1399585557112123232	1515	1502	1509	1431
1399585557132076689	1510	1504	1510	1431
1399585557157165236	1504	1504	1510	1432
1399585557177151176	1497	1503	1511	1432
1399585557187118589	1497	1513	1511	1432
1399585557207157139	1500	1511	1512	1432
1399585557227177853	1493	1505	1512	1433
1399585557242231286	1502	1508	1512	1433
1399585557257121224	1501	1501	1513	1434
1399585557277160132	1495	1498	1514	1436
1399585557292147523	1499	1491	1514	1436
1399585557307181510	1493	1496	1515	1437
1399585557327191215	1491	1506	1515	1436
1399585557342162428	1493	1513	1516	1436
1399585557367402478	1494	1496	1517	1437
1399585557382065851	1493	1488	1518	1438
1399585557397147700	1485	1500	1519	1437
1399585557412188290	1430	1507	1519	1437
1399585557437158539	1443	1505	1520	1437
1399585557447080713	1433	1495	1520	1439
1399585557462162390	1437	1484	1521	1440
1399585557482134945	1434	1479	1522	1439
1399585557497121834	1417	1500	1522	1438
1399585557512072406	1438	1508	1523	1438
1399585557532092790	1426	1512	1524	1440
1399585557557194510	1426	1530	1525	1438
1399585557577163753	1426	1513	1526	1440
1399585557592216084	1431	1500	1527	1440
1399585557607194503	1489	1513	1527	1441
1399585557622140574	1434	1508	1527	1442
1399585557642173085	1453	1510	1528	1441
1399585557657116244	1457	1518	1528	1441
1399585557672152696	1463	1517	1528	1443
1399585557687085381	1468	1493	1529	1443
1399585557712101146	1535	1510	1529	1442
1399585557732112952	1495	1503	1529	1442
1399585557747097983	1497	1511	1529	1443
1399585557762055313	1499	1503	1529	1442
1399585557792110357	1463	1504	1529	1442
1399585557812066030	1636	1514	1528	1442
1399585557832113575	1460	1502	1528	1443
1399585557847086891	1466	1504	1527	1442
1399585557862131985	1471	1523	1527	1441
1399585557882099623	1477	1518	1526	1441
1399585557897171168	1464	1515	1526	1442
1399585557912131821	1475	1516	1525	1441
1399585557932148956	1478	1528	1524	1440
1399585557947133986	1473	1534	1524	1441
1399585557962121948	1469	1519	1523	1441
1399585557982139124	1503	1528	1523	1440
1399585557997064704	1502	1539	1522	1439
1399585558027426378	1504	1534	1521	1440
1399585558042433007	1504	1533	1521	1440
1399585558062246735	1513	1528	1520	1438
1399585558082377942	1510	1522	1519	1438
1399585558097273053	1703	1527	1519	1438
1399585558112352746	1527	1529	1518	1438
1399585558137389983	1536	1525	1517	1437
1399585558157384814	1537	1523	1517	1437
1399585558172400463	1545	1527	1517	1435
1399585558187410880	1539	1553	1516	1435
1399585558212398179	1548	1540	1516	1434
1399585558232458381	1531	1547	1515	1433
1399585558247408193	1539	1533	1515	1433
1399585558262495445	1531	1537	1515	1433
1399585558282493080	1544	1539	1515	1431
1399585558297468326	1476	1538	1515	1431
1399585558312542894	1473	1538	1514	1430
1399585558342435069	1472	1537	1514	1428
1399585558357408257	1464	1539	1514	1427
1399585558372411281	1451	1543	1513	1427
1399585558387416135	1443	1526	1513	1426
1399585558407487175	1703	1521	1513	1426
1399585558422749585	1431	1538	1512	1424
1399585558442400531	1510	1540	1512	1424
1399585558457190360	1516	1529	1512	1424
1399585558472274290	1502	1542	1512	1423
1399585558492439835	1561	1528	1512	1423
1399585558507373421	1563	1531	1512	1422
1399585558527432726	1561	1527	1512	1422
1399585558542523471	1557	1521	1512	1422
1399585558562430502	1560	1516	1512	1422
1399585558582559361	1554	1533	1512	1419
1399585558597397240	1703	1521	1512	1419
1399585558612441453	1547	1529	1512	1417
1399585558632417878	1443	1530	1512	1416
1399585558647439387	1427	1528	1512	1417
1399585558662467204	1430	1525	1512	1414
1399585558682230156	1416	1520	1512	1414
1399585558697398792	1360	1525	1512	1413
1399585558717438123	1353	1531	1512	1414
1399585558732430083	1447	1505	1512	1414
1399585558747423019	1434	1508	1512	1414
1399585558777414418	1424	1507	1512	1412
1399585558792495992	1459	1524	1512	1412
1399585558812439316	1454	1515	1511	1412
1399585558832223131	1439	1524	1511	1411
1399585558847454009	1433	1521	1511	1412
1399585558862325414	1447	1501	1511	1412
1399585558882470867	1477	1497	1511	1413
1399585558902280059	1703	1502	1511	1413
1399585558912396657	1505	1508	1510	1412
1399585558932502500	1463	1503	1510	1413
1399585558947559802	1469	1500	1510	1413
1399585558972304970	1477	1490	1510	1412
1399585558992403024	1470	1489	1509	1414
1399585559007368583	1489	1491	1509	1413
1399585559027472132	1491	1491	1509	1412
1399585559042418662	1484	1493	1508	1412
1399585559057331947	1494	1481	1508	1413
1399585559077433243	1484	1486	1508	1413
1399585559092514147	1461	1490	1507	1415
1399585559107482097	1464	1494	1507	1414
1399585559122487493	1466	1503	1507	1413
1399585559142475129	1482	1499	1506	1412
1399585559157457048	1490	1500	1506	1414
1399585559172404988	1485	1507	1505	1414
1399585559192456461	1480	1499	1505	1414
1399585559212494381	1500	1497	1504	1415
1399585559232463400	1496	1506	1504	1416
1399585559247433756	1493	1504	1504	1417
1399585559277369000	1497	1514	1503	1415
1399585559292400656	1503	1488	1503	1417
1399585559307428935	1524	1491	1503	1417
1399585559327404340	1524	1495	1503	1417
1399585559342308034	1519	1496	1503	1417
1399585559372260862	1523	1488	1503	1419
1399585559387543572	1521	1479	1503	1421
1399585559407476495	1534	1482	1503	1421
1399585559427470119	1532	1487	1503	1421
1399585559442536424	1530	1483	1503	1423
1399585559457456083	1531	1482	1503	1424
1399585559477421919	1539	1484	1503	1424
1399585559487478992	1536	1505	1503	1424
1399585559507533063	1543	1504	1503	1424
1399585559527529601	1548	1504	1504	1425
1399585559542451297	1536	1511	1504	1425
1399585559557419027	1543	1511	1504	1425
1399585559577589069	1540	1522	1504	1426
1399585559592584951	1544	1518	1505	1426
1399585559607561003	1551	1514	1505	1427
1399585559622339844	1553	1511	1505	1427
1399585559637491095	1553	1517	1505	1427
1399585559657438249	1548	1523	1506	1428
1399585559677542478	1548	1515	1506	1429
1399585559692636864	1561	1507	1507	1429
1399585559707466141	1568	1509	1507	1429
1399585559722415696	1559	1519	1508	1430
1399585559742437451	1556	1509	1508	1430
1399585559757429674	1554	1508	1509	1430
1399585559777299173	1551	1510	1510	1431
1399585559792372528	1550	1503	1510	1431
1399585559812377547	1552	1510	1511	1431
1399585559842230367	1548	1510	1512	1431
1399585559857381632	1556	1527	1512	1431
1399585559872513399	1554	1517	1513	1431
1399585559892480869	1558	1511	1513	1431
1399585559907421544	1549	1522	1514	1432
1399585559922399622	1552	1523	1514	1431
1399585559942446085	1545	1532	1514	1430
1399585559957396836	1548	1523	1515	1431
1399585559977384647	1552	1521	1515	1431
1399585559992443897	1541	1526	1515	1432
1399585560007334017	1536	1530	1515	1431
1399585560027489836	1537	1532	1516	1431
1399585560042118456	1536	1528	1516	1431
1399585560057399926	1526	1524	1516	1431
1399585560077426639	1529	1530	1516	1431
1399585560092374351	1534	1518	1516	1430
1399585560107172078	1523	1527	1516	1431
1399585560127395545	1516	1529	1516	1430
1399585560137281947	1510	1534	1516	1431
1399585560162308066	1504	1536	1517	1430
1399585560182352143	1514	1532	1516	1430
1399585560197411465	1503	1519	1516	1430
1399585560212508293	1508	1515	1516	1432
1399585560232270887	1496	1518	1516	1431
1399585560247402212	1497	1523	1516	1430
1399585560262467075	1511	1530	1516	1429
1399585560282532621	1510	1536	1516	1427
1399585560297433172	1512	1533	1515	1429
1399585560312422047	1503	1521	1515	1430
1399585560332391349	1503	1506	1515	1431
1399585560352413422	1510	1511	1514	1430
1399585560362669871	1505	1518	1514	1428
1399585560382502234	1508	1531	1514	1427
1399585560397421771	1507	1524	1513	1427
1399585560412186940	1507	1522	1513	1429
1399585560432500101	1516	1515	1513	1429
1399585560447147844	1490	1513	1512	1429
1399585560467478900	1485	1519	1512	1429
1399585560482378025	1487	1521	1512	1428
1399585560497475071	1599	1521	1511	1427
1399585560512489816	1492	1516	1511	1428
1399585560532486543	1490	1518	1510	1427
1399585560547464250	1488	1518	1510	1427
1399585560562513257	1497	1520	1510	1426
1399585560592548982	1498	1515	1509	1427
1399585560607239541	1494	1507	1509	1427
1399585560627480440	1495	1506	1509	1426
1399585560642283156	1495	1515	1509	1426
1399585560657447304	1498	1505	1508	1426
1399585560677431968	1491	1512	1508	1426
1399585560692315554	1497	1505	1508	1425
1399585560707427933	1495	1513	1508	1425
1399585560727435771	1496	1515	1508	1425
1399585560742445668	1508	1507	1508	1427
1399585560757531683	1491	1504	1508	1427
1399585560777493301	1511	1491	1508	1428
1399585560787471455	1502	1503	1508	1427
1399585560807475588	1412	1504	1508	1427
1399585560827518196	1501	1508	1508	1426
1399585560852334676	1500	1495	1508	1426
1399585560862408219	1497	1505	1508	1427
1399585560882370864	1501	1485	1509	1428
1399585560902527658	1347	1492	1509	1428
1399585560912379642	1494	1493	1509	1428
1399585560932444280	1505	1491	1509	1427
1399585560947482281	1507	1487	1509	1427
1399585560962235451	1513	1488	1509	1427
1399585560982545048	1498	1503	1510	1426
1399585560997276961	1508	1504	1510	1425
1399585561012393015	1509	1498	1510	1426
1399585561032212864	1509	1494	1510	1427
1399585561047400676	1517	1491	1511	1427
1399585561062200880	1508	1486	1511	1427
1399585561082133901	1512	1489	1511	1428
1399585561097372974	1336	1493	1512	1428
1399585561122496415	1509	1507	1512	1426
1399585561147448727	1513	1512	1513	1426
1399585561162509597	1511	1516	1513	1426
1399585561182451134	1512	1508	1513	1426
1399585561197458337	1336	1508	1514	1427
1399585561217441971	1511	1499	1514	1427
1399585561232455643	1509	1498	1514	1428
1399585561247146996	1506	1501	1514	1428
1399585561262141918	1509	1516	1515	1427
1399585561282515037	1509	1505	1515	1427
1399585561297240571	1336	1507	1515	1426
1399585561322508075	1511	1502	1516	1426
1399585561342503921	1517	1500	1516	1426
1399585561357504789	1519	1500	1517	1426
1399585561377509493	1524	1498	1517	1426
1399585561392592612	1523	1501	1517	1426
1399585561407511694	1521	1494	1517	1427
1399585561427475770	1520	1498	1517	1426
1399585561442546801	1523	1504	1517	1425
1399585561457473654	1520	1503	1518	1425
1399585561477491187	1525	1497	1518	1425
1399585561492568075	1521	1500	1518	1425
1399585561507496288	1518	1499	1518	1425
1399585561527231756	1521	1509	1518	1425
1399585561547497219	1525	1495	1518	1426
1399585561577523006	1527	1501	1517	1425
1399585561602513871	1336	1504	1517	1425
1399585561612489463	1530	1510	1517	1424
1399585561632394256	1519	1505	1517	1426
1399585561647525515	1522	1496	1517	1426
1399585561662464168	1521	1501	1517	1426
1399585561682428025	1514	1515	1516	1424
1399585561697401827	1336	1515	1516	1424
1399585561727292046	1521	1510	1516	1424
1399585561742431906	1519	1523	1516	1423
1399585561757359609	1526	1531	1516	1423
1399585561777371386	1519	1523	1516	1424
1399585561792406652	1517	1511	1516	1425
1399585561807412663	1523	1498	1516	1425
1399585561837506565	1516	1515	1515	1424
1399585561857180616	1522	1521	1515	1422
1399585561877251049	1508	1523	1515	1422
1399585561892433707	1521	1503	1515	1422
1399585561907544199	1513	1505	1515	1422
1399585561927515210	1514	1509	1515	1422
1399585561947502677	1541	1508	1515	1421
1399585561962599739	1549	1505	1515	1420
1399585561982557211	1534	1513	1514	1420
1399585561997504061	1336	1517	1514	1419
1399585562027553343	1536	1518	1514	1420
1399585562042356573	1526	1517	1514	1420
1399585562072523286	1522	1518	1514	1421
1399585562082419313	1520	1511	1514	1422
1399585562097554213	1336	1518	1514	1420
1399585562112237324	1504	1531	1513	1420
1399585562132382679	1515	1516	1513	1419
1399585562147353933	1508	1513	1513	1420
1399585562162485583	1498	1527	1513	1419
1399585562192521510	1529	1528	1513	1420
1399585562207446446	1533	1532	1512	1419
1399585562227486333	1541	1519	1512	1421
1399585562242446374	1600	1510	1512	1422
1399585562257453865	1623	1514	1512	1421
1399585562277476407	1627	1534	1512	1419
1399585562302460990	1336	1517	1511	1419
1399585562312209107	1637	1519	1511	1421
1399585562332512644	1667	1508	1510	1421
1399585562347445537	1665	1503	1510	1422
1399585562367411407	1680	1509	1510	1421
1399585562382386469	1607	1526	1510	1420
1399585562397395937	1336	1520	1510	1420
1399585562427369555	1623	1512	1509	1419
1399585562442318119	1582	1514	1509	1418
1399585562462549936	1581	1512	1509	1417
1399585562482471268	1595	1514	1508	1418
1399585562497439829	1336	1519	1508	1417
1399585562512269161	1599	1521	1507	1414
1399585562537381274	1629	1521	1507	1413
1399585562562504113	1611	1515	1506	1414
1399585562582198787	1651	1517	1506	1412
1399585562597361749	1336	1529	1506	1412
1399585562612333568	1659	1507	1506	1410
1399585562632446947	1703	1512	1505	1408
1399585562647549246	1703	1513	1506	1406
1399585562662530919	1703	1502	1505	1405
1399585562682482649	1703	1493	1506	1405
1399585562707469418	1489	1504	1506	1403
1399585562727425137	1703	1497	1506	1402
1399585562742557038	1703	1479	1506	1400
1399585562762503030	1703	1484	1507	1399
1399585562782419284	1681	1473	1507	1397
1399585562797457115	1336	1499	1507	1397
1399585562812276942	1664	1484	1507	1394
1399585562832403268	1661	1485	1508	1393
1399585562847475854	1656	1480	1509	1394
1399585562862421078	1637	1472	1509	1393
1399585562882307877	1653	1488	1510	1393
1399585562897448964	1336	1506	1511	1392
1399585562927459896	1613	1492	1512	1392
1399585562942442070	1657	1483	1512	1390
1399585562957429603	1631	1475	1513	1392
1399585562972390018	1621	1466	1513	1392
1399585562987475825	1617	1483	1514	1391
1399585563007535803	1608	1482	1514	1390
1399585563027453356	1595	1483	1514	1391
1399585563037122944	1605	1489	1514	1390
1399585563057131024	1580	1484	1514	1390
1399585563077112301	1569	1489	1514	1388
1399585563087165296	1577	1473	1514	1388
1399585563112145966	1553	1476	1513	1387
1399585563132143276	1545	1475	1513	1386
1399585563147150745	1590	1448	1513	1385
1399585563177172650	1585	1446	1512	1384
1399585563192165376	1645	1434	1512	1383
1399585563212089560	1641	1435	1512	1380
1399585563232200042	1533	1451	1511	1380
1399585563267185214	1545	1448	1511	1379
1399585563282156100	1526	1452	1511	1380
1399585563302178408	1336	1478	1511	1380
1399585563312174972	1521	1457	1511	1379
1399585563332211879	1465	1482	1511	1379
1399585563347173525	1454	1484	1511	1378
1399585563362172711	1458	1474	1511	1380
1399585563382144777	1446	1472	1512	1381
1399585563397116779	1432	1468	1512	1381
1399585563412141282	1426	1485	1512	1381
1399585563432150603	1403	1509	1512	1382
1399585563447105192	1398	1503	1512	1382
1399585563462144292	1385	1512	1511	1383
1399585563482079086	1483	1487	1511	1382
1399585563497116974	1336	1495	1511	1384
1399585563512088712	1467	1484	1511	1384
1399585563532198056	1508	1484	1511	1385
1399585563547113783	1512	1494	1510	1384
1399585563567153930	1512	1497	1510	1384
1399585563582163559	1450	1504	1510	1385
1399585563597197227	1460	1503	1510	1386
1399585563627193573	1467	1506	1509	1388
1399585563642113988	1493	1495	1509	1389
1399585563657068365	1493	1492	1508	1390
1399585563677096102	1505	1485	1508	1392
1399585563692126460	1486	1500	1508	1392
1399585563707108392	1424	1506	1507	1393
1399585563722174176	1501	1505	1507	1394
1399585563737155980	1524	1499	1507	1395
1399585563757225646	1521	1504	1506	1396
1399585563777072858	1531	1504	1506	1398
1399585563802194215	1516	1517	1505	1400
1399585563812135913	1529	1523	1504	1401
1399585563832116745	1542	1524	1504	1402
1399585563847205475	1548	1520	1503	1403
1399585563862136332	1555	1520	1503	1404
1399585563882081299	1524	1521	1502	1405
1399585563907147627	1547	1525	1502	1405
1399585563927158443	1550	1531	1501	1407
1399585563942153541	1518	1527	1501	1407
1399585563957139353	1521	1517	1500	1409
1399585563972143504	1526	1516	1500	1410
1399585563987089557	1534	1512	1500	1410
1399585564007067315	1541	1509	1499	1411
1399585564022155259	1530	1515	1499	1411
1399585564037176878	1530	1507	1499	1411
1399585564057131902	1527	1510	1499	1412
1399585564072094683	1531	1509	1499	1412
1399585564092160547	1589	1526	1499	1412
1399585564107159392	1703	1517	1499	1412
1399585564127196961	1596	1532	1499	1414
1399585564142125055	1599	1519	1500	1415
1399585564157202594	1595	1523	1500	1415
1399585564177086080	1605	1528	1501	1415
1399585564192153824	1593	1535	1501	1415
1399585564207157418	1703	1519	1502	1416
1399585564237181165	1581	1527	1503	1419
1399585564257093595	1584	1523	1504	1420
1399585564272096141	1577	1517	1504	1422
1399585564292125864	1567	1515	1505	1422
1399585564307109777	1703	1505	1506	1423
1399585564327138047	1562	1510	1506	1424
1399585564342147988	1561	1510	1507	1425
1399585564362120056	1562	1513	1508	1425
1399585564382119252	1556	1513	1509	1426
1399585564397118753	1543	1509	1510	1427
1399585564412118680	1542	1507	1511	1427
1399585564432133216	1493	1514	1512	1427
1399585564447128406	1485	1525	1512	1427
1399585564462086346	1474	1521	1513	1428
1399585564482124497	1509	1515	1514	1430
1399585564497174718	1489	1513	1515	1430
1399585564512153133	1479	1511	1516	1430
1399585564532154335	1463	1531	1516	1429
1399585564547124116	1447	1532	1517	1430
1399585564577132068	1427	1513	1517	1431
1399585564587206294	1462	1510	1517	1431
1399585564607179419	1703	1524	1518	1431
1399585564627187598	1448	1523	1518	1430
1399585564642141630	1475	1499	1518	1432
1399585564657215705	1460	1499	1518	1431
1399585564672144480	1459	1506	1518	1431
1399585564697124114	1703	1517	1519	1432
1399585564712116622	1444	1518	1518	1431
1399585564742221830	1418	1511	1518	1431
1399585564757191688	1411	1510	1518	1430
1399585564777108229	1415	1503	1518	1430
1399585564792184541	1416	1509	1518	1429
1399585564807144077	1703	1523	1518	1428
1399585564822131663	1366	1501	1518	1429
1399585564842127501	1352	1499	1518	1427
1399585564857125522	1337	1506	1518	1426
1399585564877116523	1336	1513	1517	1426
1399585564892101751	1336	1498	1517	1426
1399585564912179522	1336	1505	1517	1423
1399585564932127884	1336	1494	1517	1422
1399585564947160045	1336	1488	1516	1423
1399585564962087982	1336	1483	1516	1423
1399585564987219879	1336	1483	1516	1422
1399585564997139390	1703	1480	1515	1421
1399585565017195286	1343	1475	1515	1419
1399585565032128681	1336	1508	1515	1419
1399585565047155331	1336	1503	1515	1420
1399585565062190259	1336	1495	1514	1419
1399585565082158275	1394	1524	1514	1419
1399585565097107778	1404	1524	1513	1419
1399585565112229406	1409	1531	1513	1418
1399585565132143530	1374	1550	1512	1417
1399585565147146752	1385	1547	1512	1417
1399585565162086725	1390	1550	1512	1416
1399585565182151790	1404	1553	1511	1415
1399585565212153156	1371	1545	1511	1413
1399585565232116661	1336	1530	1511	1412
1399585565252190900	1336	1534	1511	1410
1399585565262071821	1336	1543	1510	1409
1399585565282110345	1336	1550	1510	1406
1399585565302194482	1703	1530	1510	1405
1399585565312112416	1336	1545	1510	1404
1399585565332131645	1336	1530	1510	1404
1399585565347111036	1336	1521	1510	1403
1399585565377142454	1336	1537	1510	1401
1399585565392206896	1385	1505	1509	1401
1399585565407178712	1703	1485	1510	1399
1399585565427116285	1397	1506	1509	1399
1399585565457131994	1456	1498	1509	1398
1399585565472104012	1472	1493	1509	1398
1399585565487145597	1484	1543	1508	1398
1399585565512110771	1508	1553	1508	1399
1399585565532132923	1498	1576	1507	1399
1399585565547167790	1509	1579	1507	1399
1399585565562139435	1517	1570	1506	1400
1399585565582145870	1533	1589	1506	1401
1399585565607131107	1516	1584	1506	1402
1399585565627216364	1542	1595	1506	1402
1399585565642111346	1509	1608	1506	1403
1399585565657165011	1527	1596	1506	1403
1399585565682114693	1526	1583	1507	1404
1399585565697099222	1703	1538	1508	1405
1399585565727209148	1538	1590	1508	1405
1399585565737128995	1529	1560	1509	1407
1399585565757144128	1536	1567	1509	1408
1399585565777137278	1540	1575	1509	1408
1399585565792154282	1620	1539	1509	1409
1399585565807202976	1620	1530	1509	1411
1399585565827137809	1620	1520	1509	1413
1399585565842205081	1646	1540	1508	1412
1399585565857041898	1643	1545	1508	1412
1399585565877248595	1651	1538	1507	1413
1399585565897132911	1703	1525	1506	1413
1399585565912141594	1641	1559	1506	1413
1399585565932300053	1621	1555	1506	1414
1399585565947397999	1618	1548	1505	1415
1399585565962170396	1614	1544	1505	1415
1399585565982148384	1672	1541	1505	1415
1399585566002109772	1703	1523	1505	1416
1399585566012102469	1676	1542	1504	1417
1399585566032110212	1655	1542	1504	1418
1399585566047166598	1646	1542	1504	1418
1399585566077177037	1641	1534	1504	1420
1399585566092131413	1635	1533	1504	1420
1399585566112146353	1703	1518	1504	1421
1399585566132127487	1614	1519	1505	1423
1399585566147130565	1606	1517	1505	1424
1399585566162120920	1592	1510	1505	1425
1399585566182067690	1586	1519	1505	1425
1399585566197143274	1703	1514	1505	1425
1399585566212095060	1575	1521	1505	1427
1399585566237181412	1553	1512	1505	1428
1399585566247175470	1536	1499	1505	1430
1399585566262112826	1529	1514	1505	1429
1399585566282139184	1565	1504	1505	1431
1399585566297119763	1703	1497	1505	1431
1399585566312156337	1540	1488	1505	1433
1399585566332133555	1547	1504	1505	1431
1399585566357144914	1536	1504	1506	1432
1399585566377188317	1532	1500	1506	1431
1399585566392195910	1484	1507	1506	1432
1399585566407208014	1467	1509	1506	1433
1399585566422092410	1467	1504	1506	1432
1399585566437110609	1426	1500	1506	1433
1399585566457165444	1404	1503	1506	1434
1399585566477174852	1393	1513	1506	1433
1399585566492094962	1371	1519	1506	1433
1399585566507147263	1366	1509	1506	1433
1399585566522136393	1337	1503	1506	1435
1399585566542186329	1362	1495	1506	1436
1399585566562180819	1343	1505	1505	1435
1399585566592207459	1353	1503	1506	1436
1399585566607177914	1344	1503	1505	1436
1399585566627138914	1337	1501	1505	1436
1399585566637153433	1391	1496	1506	1436
1399585566662177894	1386	1500	1506	1437
1399585566682124145	1383	1493	1506	1437
1399585566697204905	1522	1494	1506	1436
1399585566712136227	1389	1507	1506	1436
1399585566732144139	1365	1513	1506	1436
1399585566747150048	1368	1506	1506	1437
1399585566767152660	1371	1512	1506	1438
1399585566782139328	1405	1518	1506	1438
1399585566807152685	1419	1514	1506	1438
1399585566827173119	1426	1521	1506	1438
1399585566842130466	1337	1518	1506	1439
1399585566857083409	1345	1503	1505	1441
1399585566877217061	1345	1512	1505	1440
1399585566892165616	1366	1530	1505	1440
1399585566907121987	1374	1525	1505	1440
1399585566922116859	1386	1525	1504	1441
1399585566937095499	1377	1517	1504	1443
1399585566957141958	1375	1508	1504	1442
1399585566977154598	1394	1516	1504	1442
1399585566987168208	1392	1529	1503	1441
1399585567007165244	1405	1530	1503	1441
1399585567022176136	1410	1536	1503	1441
1399585567037145639	1433	1520	1503	1443
1399585567057101488	1438	1520	1503	1441
1399585567077196322	1453	1537	1503	1441
1399585567092164148	1474	1530	1503	1441
1399585567107137074	1492	1520	1503	1442
1399585567122104619	1504	1525	1503	1442
1399585567142185449	1504	1524	1504	1443
1399585567157198950	1514	1532	1504	1441
1399585567172124728	1519	1540	1504	1441
1399585567197207554	1387	1539	1504	1443
1399585567217119826	1542	1536	1505	1441
1399585567232107118	1548	1524	1505	1444
1399585567247130614	1565	1536	1505	1444
1399585567277223804	1585	1532	1505	1443
1399585567292224361	1548	1530	1506	1443
1399585567312191714	1552	1534	1506	1443
1399585567332137050	1587	1529	1507	1444
1399585567347133241	1586	1537	1507	1443
1399585567362064337	1594	1542	1507	1442
1399585567382123443	1619	1542	1507	1444
1399585567397033887	1623	1533	1508	1446
1399585567422172125	1624	1521	1508	1446
1399585567432119153	1604	1513	1509	1446
1399585567447139941	1605	1522	1509	1445
1399585567462155990	1607	1533	1509	1444
1399585567482152999	1609	1532	1510	1445
1399585567497125916	1336	1528	1511	1446
1399585567512158972	1606	1524	1511	1447
1399585567532132136	1586	1515	1512	1447
1399585567557202213	1589	1510	1512	1448
1399585567577219951	1585	1516	1513	1448
1399585567592185799	1618	1523	1514	1450
1399585567612186317	1611	1538	1514	1449
1399585567632144713	1597	1529	1515	1449
1399585567662099728	1590	1532	1516	1449
1399585567692186555	1624	1523	1516	1449
1399585567707244329	1336	1520	1517	1449
1399585567732176184	1610	1522	1517	1450
1399585567747172194	1607	1514	1517	1449
1399585567762151910	1596	1516	1518	1450
1399585567782137991	1597	1514	1518	1450
1399585567797111416	1599	1524	1518	1447
1399585567812055799	1589	1519	1518	1447
1399585567832186446	1583	1520	1518	1447
1399585567847086351	1582	1530	1518	1446
1399585567862114218	1578	1523	1518	1444
1399585567897225325	1606	1497	1519	1442
1399585567912102836	1606	1513	1518	1440
1399585567937076657	1655	1504	1518	1439
1399585567947038842	1659	1489	1518	1438
1399585567967145573	1656	1497	1518	1438
1399585567982165610	1576	1505	1518	1436
1399585567997108959	1336	1499	1518	1437
1399585568012110135	1566	1501	1518	1435
1399585568032116377	1533	1515	1518	1435
1399585568047154308	1529	1491	1517	1435
1399585568062122314	1526	1490	1517	1436
1399585568082068811	1522	1506	1517	1434
1399585568097080352	1505	1510	1517	1433
1399585568112064995	1482	1503	1517	1433
1399585568132149579	1513	1502	1517	1433
1399585568147029416	1513	1508	1517	1433
1399585568162155063	1492	1507	1516	1433
1399585568182180518	1518	1490	1516	1433
1399585568202167814	1336	1515	1516	1433
1399585568212138129	1498	1520	1516	1432
1399585568232133325	1523	1497	1515	1431
1399585568257105628	1517	1491	1515	1432
1399585568277166685	1516	1495	1515	1432
1399585568297164015	1510	1493	1515	1432
1399585568312190053	1507	1490	1515	1432
1399585568332137733	1518	1489	1515	1431
1399585568347201690	1523	1494	1515	1432
1399585568362179143	1519	1482	1515	1432
1399585568382172360	1505	1491	1515	1432
1399585568402182714	1336	1509	1515	1430
1399585568412170156	1503	1510	1516	1430
1399585568437192697	1557	1500	1516	1430
1399585568447162931	1548	1491	1516	1430
1399585568462103727	1569	1494	1517	1430
1399585568482129012	1541	1503	1517	1430
1399585568497124926	1336	1506	1518	1429
1399585568512132647	1551	1494	1518	1429
1399585568532138275	1511	1494	1519	1429
1399585568547209352	1518	1495	1519	1427
1399585568562128107	1522	1507	1520	1427
1399585568582117327	1511	1505	1520	1427
1399585568597128424	1518	1501	1520	1429
1399585568612194313	1506	1497	1520	1428
1399585568637219859	1535	1493	1520	1428
1399585568657171717	1534	1492	1521	1427
1399585568672137738	1528	1499	1520	1427
1399585568697190327	1336	1494	1520	1427
1399585568727137402	1526	1519	1520	1427
1399585568747232526	1534	1510	1520	1427
1399585568762119624	1541	1519	1519	1427
1399585568782156457	1542	1513	1519	1427
1399585568807112093	1336	1517	1518	1428
1399585568827091156	1533	1526	1518	1428
1399585568837067953	1559	1509	1517	1430
1399585568857147436	1567	1508	1517	1429
1399585568882104154	1568	1517	1516	1428
1399585568902148848	1336	1513	1515	1428
1399585568912062038	1575	1521	1515	1428
1399585568932117283	1563	1507	1514	1427
1399585568952215847	1572	1518	1514	1427
1399585568962055152	1564	1515	1513	1426
1399585568982171511	1560	1514	1513	1426
1399585568997153917	1336	1504	1512	1426
1399585569012161294	1551	1502	1512	1427
1399585569032045670	1548	1511	1512	1425
1399585569047159806	1551	1516	1511	1423
1399585569062069364	1552	1521	1510	1423
1399585569092089820	1560	1528	1510	1423
1399585569107152733	1543	1526	1510	1423
1399585569137155961	1551	1525	1510	1423
1399585569157207964	1546	1536	1510	1421
1399585569172176878	1550	1535	1510	1422
1399585569192176204	1532	1519	1510	1422
1399585569207178722	1534	1515	1511	1423
1399585569232184316	1544	1516	1511	1424
1399585569247167735	1544	1517	1511	1424
1399585569262089419	1538	1519	1512	1425
1399585569282145214	1546	1505	1512	1425
1399585569297104530	1336	1503	1513	1425
1399585569312213131	1533	1516	1514	1426
1399585569332160447	1541	1512	1514	1426
1399585569347185133	1538	1508	1515	1426
1399585569382245229	1532	1495	1517	1429
1399585569397139318	1528	1493	1517	1429
1399585569417183406	1524	1488	1518	1429
1399585569432173489	1527	1498	1518	1429
1399585569447152377	1527	1491	1519	1430
1399585569462078413	1525	1495	1520	1429
1399585569482148237	1531	1496	1521	1429
1399585569497143375	1521	1492	1521	1429
1399585569512154407	1518	1497	1522	1429
1399585569532094755	1519	1496	1522	1429
1399585569547102830	1518	1486	1523	1431
1399585569562117840	1518	1487	1523	1430
1399585569582129587	1523	1475	1524	1430
1399585569607144062	1368	1478	1524	1431
1399585569627169371	1514	1481	1524	1430
1399585569637093694	1521	1462	1524	1432
1399585569662098629	1515	1480	1524	1431
1399585569682170207	1520	1474	1524	1432
1399585569697151415	1336	1475	1524	1432
1399585569717140548	1535	1476	1524	1432
1399585569732155262	1522	1479	1524	1432
1399585569747110224	1528	1473	1524	1433
1399585569762077555	1527	1483	1523	1433
1399585569782176100	1516	1494	1523	1433
1399585569797150280	1352	1490	1523	1433
1399585569812116449	1526	1500	1522	1434
1399585569847208485	1516	1482	1521	1437
1399585569872154268	1526	1503	1521	1436
1399585569892137330	1514	1491	1520	1437
1399585569907091449	1516	1486	1520	1438
1399585569922093047	1515	1482	1519	1438
1399585569942122410	1521	1502	1518	1438
1399585569957402693	1526	1506	1518	1437
1399585569977387127	1526	1507	1517	1438
1399585569992475187	1532	1498	1517	1438
1399585570007384700	1535	1478	1516	1440
1399585570027367293	1528	1482	1515	1440
1399585570042364480	1520	1482	1515	1440
1399585570057361607	1529	1496	1514	1438
1399585570072381795	1521	1513	1513	1439
1399585570092477794	1524	1508	1513	1439
1399585570107473193	1525	1502	1512	1440
1399585570122389373	1525	1504	1512	1441
1399585570137483853	1519	1506	1512	1441
1399585570157406262	1534	1505	1511	1442
1399585570177523181	1518	1512	1511	1444
1399585570192323934	1522	1504	1511	1443
1399585570207477846	1603	1512	1510	1442
1399585570227475205	1522	1523	1510	1443
1399585570247351461	1527	1516	1510	1445
1399585570262411232	1519	1517	1509	1444
1399585570292367124	1525	1521	1509	1444
1399585570307501262	1660	1528	1509	1444
1399585570327496704	1532	1519	1509	1446
1399585570342264523	1524	1526	1509	1446
1399585570362456351	1528	1529	1509	1445
1399585570382412282	1515	1542	1509	1444
1399585570402488803	1703	1526	1508	1445
1399585570412241930	1519	1533	1509	1446
1399585570432436349	1527	1529	1509	1447
1399585570447353411	1521	1521	1509	1447
1399585570477441939	1525	1539	1509	1444
1399585570492459003	1525	1530	1510	1445
1399585570512426571	1651	1524	1510	1445
1399585570527237151	1524	1527	1510	1444
1399585570547266042	1488	1515	1511	1444
1399585570562272591	1488	1520	1511	1443
1399585570582259081	1476	1526	1512	1443
1399585570597220448	1703	1507	1512	1442
1399585570612202739	1465	1518	1512	1443
