#Time	 Roll 	 Pitch 	 Yaw 	 Thrust
1399500868764569728	1516	1487	1500	1378
1399500868784641017	1517	1486	1500	1378
1399500868804503152	1516	1486	1500	1378
1399500868824539140	1516	1486	1500	1378
1399500868854531281	1516	1487	1500	1434
1399500868874536860	1516	1486	1500	1388
1399500868904582550	1516	1486	1500	1388
1399500868924545296	1516	1486	1500	1388
1399500868939534109	1517	1486	1500	1388
1399500868954547103	1516	1487	1500	1434
1399500868974537987	1516	1486	1500	1398
1399500868989540253	1516	1486	1500	1398
1399500869004486171	1516	1486	1500	1398
1399500869024507425	1516	1487	1500	1398
1399500869054543296	1516	1486	1500	1435
1399500869074831708	1516	1486	1500	1408
1399500869104771992	1516	1486	1500	1408
1399500869124833574	1516	1486	1500	1408
1399500869154809173	1516	1486	1500	1435
1399500869184814490	1516	1486	1500	1418
1399500869199782640	1516	1486	1500	1418
1399500869214819969	1517	1486	1500	1419
1399500869229573055	1516	1487	1500	1419
1399500869249861770	1516	1486	1500	1419
1399500869269784826	1516	1485	1500	1428
1399500869289842632	1516	1484	1500	1428
1399500869319693619	1517	1486	1500	1428
1399500869339849179	1517	1485	1500	1428
1399500869369647465	1516	1483	1500	1428
1399500869389789842	1515	1483	1500	1429
1399500869419515986	1514	1484	1500	1429
1399500869434523700	1514	1483	1500	1428
1399500869449521930	1514	1482	1500	1428
1399500869464574978	1513	1481	1500	1427
1399500869479515911	1513	1480	1500	1426
1399500869499476581	1509	1477	1501	1423
1399500869519540591	1509	1478	1501	1423
1399500869539546730	1509	1479	1501	1421
1399500869569741582	1506	1479	1502	1416
1399500869589878869	1505	1479	1503	1415
1399500869619794544	1504	1480	1504	1411
1399500869654801270	1505	1483	1506	1405
1399500869674561336	1503	1483	1507	1402
1399500869689903313	1502	1485	1508	1400
1399500869704735003	1504	1487	1509	1398
1399500869724476552	1504	1485	1510	1396
1399500869739582169	1502	1487	1511	1395
1399500869769510421	1508	1488	1512	1391
1399500869789539217	1508	1488	1513	1390
1399500869819539311	1516	1490	1515	1386
1399500869839497761	1515	1488	1516	1385
1399500869869535985	1517	1485	1517	1382
1399500869904764281	1517	1486	1518	1379
1399500869924716759	1516	1484	1519	1379
1399500869939690466	1518	1487	1520	1378
1399500869954760854	1511	1487	1520	1378
1399500869974692598	1511	1486	1521	1377
1399500869989865015	1511	1483	1521	1376
1399500870019860964	1508	1490	1522	1376
1399500870034836580	1509	1489	1522	1375
1399500870054817120	1504	1487	1523	1375
1399500870074779375	1503	1486	1523	1375
1399500870089698567	1504	1487	1523	1375
1399500870119811246	1504	1486	1523	1375
1399500870154735264	1508	1487	1523	1374
1399500870174791679	1508	1487	1523	1376
1399500870189810252	1508	1486	1522	1375
1399500870204714549	1509	1490	1522	1375
1399500870224720781	1510	1492	1522	1375
1399500870254807526	1517	1491	1522	1376
1399500870274515162	1518	1491	1521	1376
1399500870304812189	1518	1488	1521	1376
1399500870324926408	1520	1489	1521	1376
1399500870354874534	1521	1488	1520	1378
1399500870374554567	1522	1488	1520	1379
1399500870404536055	1517	1490	1519	1379
1399500870424535129	1516	1489	1519	1380
1399500870439538562	1517	1488	1518	1379
1399500870454545070	1517	1489	1518	1379
1399500870474504053	1520	1489	1518	1380
1399500870489543956	1520	1490	1517	1380
1399500870519815386	1516	1489	1517	1381
1399500870534772405	1516	1489	1517	1382
1399500870554836985	1517	1487	1516	1382
1399500870574702939	1518	1488	1516	1382
1399500870604537664	1520	1487	1516	1383
1399500870639704685	1520	1486	1515	1384
1399500870654823321	1520	1485	1515	1384
1399500870674827618	1520	1485	1515	1384
1399500870689802393	1520	1485	1515	1385
1399500870704840159	1522	1487	1515	1386
1399500870724811251	1522	1487	1515	1386
1399500870754768819	1524	1485	1515	1386
1399500870774776226	1523	1485	1515	1386
1399500870804755208	1526	1487	1515	1387
1399500870824701390	1526	1487	1515	1387
1399500870854761810	1529	1487	1515	1387
1399500870874844006	1529	1489	1515	1388
1399500870889520502	1528	1487	1514	1388
1399500870904722380	1527	1489	1514	1389
1399500870924623665	1528	1488	1514	1388
1399500870939755927	1529	1488	1514	1388
1399500870954734353	1527	1487	1514	1388
1399500870974840003	1526	1487	1514	1388
1399500871004532740	1523	1488	1514	1389
1399500871024527442	1522	1487	1514	1390
1399500871054586658	1521	1487	1514	1390
1399500871074512451	1523	1487	1514	1390
1399500871104514570	1520	1487	1514	1390
1399500871134504014	1518	1488	1514	1391
1399500871149528442	1521	1486	1514	1391
1399500871164801162	1521	1487	1514	1391
1399500871179765087	1520	1488	1514	1392
1399500871199765919	1519	1486	1514	1391
1399500871219745141	1518	1486	1513	1392
1399500871234744391	1517	1486	1513	1392
1399500871254824710	1522	1488	1513	1392
1399500871274768699	1521	1489	1513	1392
1399500871289901986	1521	1489	1513	1393
1399500871319795452	1520	1489	1513	1392
1399500871334722417	1519	1490	1513	1392
1399500871369801245	1522	1489	1512	1393
1399500871379745957	1522	1490	1512	1394
1399500871399894563	1521	1490	1512	1394
1399500871414772757	1522	1490	1512	1393
1399500871429770893	1521	1489	1512	1393
1399500871454529370	1519	1490	1511	1393
1399500871474662035	1519	1490	1511	1394
1399500871504798515	1521	1489	1511	1393
1399500871524725759	1520	1489	1511	1393
1399500871554720639	1520	1486	1511	1394
1399500871574693478	1518	1487	1510	1393
1399500871604748066	1519	1488	1510	1393
1399500871624876989	1519	1487	1510	1394
1399500871639773496	1518	1487	1510	1394
1399500871654790964	1519	1487	1510	1394
1399500871674827445	1519	1487	1510	1394
1399500871689783645	1519	1487	1510	1394
1399500871704809707	1521	1487	1509	1395
1399500871724751226	1521	1487	1509	1395
1399500871739690748	1521	1486	1509	1395
1399500871769801640	1519	1490	1509	1395
1399500871784746314	1519	1489	1509	1396
1399500871804829873	1520	1490	1509	1395
1399500871839774247	1520	1490	1508	1395
1399500871869765186	1519	1492	1508	1395
1399500871879732505	1519	1492	1508	1396
1399500871899822731	1519	1491	1508	1396
1399500871914718652	1520	1491	1508	1397
1399500871929529092	1521	1490	1508	1396
1399500871954800548	1521	1489	1508	1396
1399500871974812185	1524	1489	1508	1397
1399500872004792915	1527	1488	1508	1397
1399500872024787373	1527	1488	1508	1396
1399500872054710301	1527	1487	1508	1397
1399500872089782704	1528	1486	1508	1398
1399500872114766027	1527	1487	1508	1398
1399500872129807714	1527	1487	1508	1399
1399500872149916526	1527	1486	1508	1399
1399500872164731251	1527	1486	1508	1399
1399500872189800781	1528	1486	1508	1399
1399500872219705440	1527	1490	1509	1399
1399500872239815086	1527	1490	1509	1399
1399500872269884174	1523	1493	1509	1400
1399500872289898858	1525	1493	1509	1400
1399500872319695172	1527	1493	1509	1401
1399500872334794257	1526	1493	1509	1401
1399500872369864414	1526	1494	1509	1402
1399500872379680719	1526	1494	1510	1402
1399500872399895278	1527	1489	1510	1402
1399500872414764723	1527	1489	1510	1402
1399500872434848279	1526	1488	1510	1402
1399500872454609723	1521	1489	1510	1402
1399500872474543453	1521	1489	1511	1402
1399500872489511507	1521	1490	1511	1402
1399500872519546877	1516	1492	1511	1402
1399500872534546090	1515	1491	1511	1402
1399500872554558891	1513	1492	1511	1402
1399500872584572926	1512	1493	1512	1401
1399500872619580384	1510	1493	1512	1400
1399500872629584838	1509	1493	1512	1400
1399500872649589587	1509	1491	1512	1400
1399500872669569818	1508	1490	1512	1400
1399500872684527376	1507	1490	1513	1399
1399500872704557482	1516	1487	1513	1399
1399500872724545947	1515	1486	1513	1399
1399500872739563882	1515	1486	1513	1398
1399500872769578089	1518	1481	1513	1398
1399500872784569758	1516	1481	1513	1397
1399500872819569029	1520	1481	1514	1398
1399500872839522303	1517	1480	1514	1397
1399500872854456104	1517	1482	1514	1397
1399500872874537843	1516	1483	1514	1398
1399500872889499487	1515	1483	1514	1397
1399500872904544042	1513	1487	1514	1398
1399500872924537875	1511	1485	1514	1398
1399500872954742230	1507	1490	1514	1397
1399500872974808749	1508	1488	1514	1396
1399500873004796730	1509	1492	1513	1397
1399500873024808513	1508	1490	1513	1398
1399500873054731987	1512	1492	1513	1397
1399500873074754817	1513	1494	1512	1397
1399500873089779681	1511	1493	1512	1397
1399500873104790015	1509	1497	1512	1398
1399500873124829496	1509	1496	1512	1397
1399500873139666588	1509	1496	1512	1396
1399500873154683799	1502	1494	1511	1397
1399500873174673139	1504	1493	1511	1396
1399500873204796050	1500	1490	1511	1397
1399500873224773242	1501	1488	1510	1397
1399500873254684407	1498	1483	1510	1397
1399500873274676291	1497	1483	1510	1396
1399500873304768915	1501	1481	1509	1397
1399500873324785878	1501	1481	1509	1398
1399500873339739063	1503	1480	1509	1397
1399500873354763319	1509	1478	1509	1397
1399500873374765122	1509	1477	1509	1397
1399500873389693994	1507	1478	1509	1398
1399500873419754996	1514	1477	1508	1398
1399500873434914241	1515	1476	1508	1399
1399500873454852963	1516	1483	1508	1399
1399500873474763656	1518	1482	1508	1399
1399500873489766861	1519	1481	1508	1400
1399500873519810821	1519	1486	1508	1401
1399500873554689835	1521	1489	1508	1401
1399500873574704474	1521	1488	1508	1401
1399500873589675782	1521	1489	1508	1402
1399500873604775835	1513	1493	1508	1402
1399500873624779405	1514	1493	1508	1403
1399500873639746642	1516	1494	1508	1403
1399500873669818958	1510	1493	1508	1403
1399500873684770516	1512	1492	1508	1403
1399500873704870024	1510	1488	1508	1404
1399500873724675522	1509	1489	1508	1404
1399500873739540735	1510	1490	1508	1404
1399500873769544352	1508	1489	1508	1404
1399500873789540524	1508	1489	1508	1404
1399500873819592058	1506	1482	1508	1405
1399500873829519919	1507	1481	1508	1405
1399500873849564725	1509	1485	1508	1404
1399500873864536228	1509	1485	1508	1405
1399500873879543430	1509	1484	1508	1404
1399500873904787693	1511	1485	1508	1405
1399500873924853134	1511	1484	1508	1404
1399500873939857354	1512	1484	1508	1404
1399500873969871698	1514	1481	1508	1405
1399500873984761217	1514	1481	1508	1405
1399500874004790415	1521	1485	1508	1404
1399500874034800344	1523	1486	1508	1405
1399500874054809616	1525	1486	1509	1404
1399500874074843627	1525	1486	1509	1403
1399500874089795961	1526	1486	1509	1403
1399500874104647989	1527	1486	1509	1403
1399500874124536215	1528	1486	1510	1403
1399500874154719601	1528	1487	1510	1403
1399500874174819613	1529	1487	1510	1403
1399500874204764932	1532	1486	1511	1402
1399500874224668104	1533	1486	1511	1402
1399500874254822790	1527	1493	1511	1402
1399500874274745516	1530	1493	1511	1402
1399500874304796223	1531	1494	1512	1402
1399500874324784003	1533	1494	1512	1402
1399500874339772048	1534	1495	1512	1403
1399500874354512771	1530	1490	1512	1404
1399500874374843885	1529	1492	1512	1403
1399500874404825604	1525	1491	1512	1403
1399500874424885211	1525	1491	1512	1404
1399500874439562586	1525	1493	1512	1404
1399500874469774688	1525	1488	1512	1404
1399500874489747080	1524	1488	1512	1403
1399500874519718623	1519	1490	1512	1403
1399500874549751235	1510	1487	1511	1404
1399500874564733655	1509	1487	1511	1403
1399500874579790913	1509	1485	1511	1402
1399500874599907597	1503	1483	1511	1402
1399500874614860691	1502	1482	1511	1402
1399500874639829109	1501	1483	1511	1402
1399500874669872935	1502	1484	1510	1402
1399500874684803703	1502	1483	1510	1402
1399500874704616721	1505	1484	1510	1401
1399500874724667497	1503	1487	1510	1402
1399500874754821259	1512	1490	1510	1402
1399500874774575809	1509	1488	1510	1402
1399500874789805501	1508	1490	1510	1401
1399500874804806808	1513	1491	1510	1400
1399500874824804933	1514	1492	1510	1401
1399500874839861600	1514	1493	1509	1401
1399500874854744419	1528	1497	1510	1400
1399500874874749746	1527	1499	1510	1401
1399500874889757099	1525	1500	1509	1400
1399500874919581247	1534	1507	1509	1400
1399500874939830032	1535	1509	1510	1400
1399500874969553970	1539	1510	1510	1400
1399500874989799132	1540	1511	1510	1400
1399500875019581530	1538	1510	1510	1400
1399500875034835939	1536	1510	1510	1400
1399500875049857769	1531	1503	1510	1400
1399500875064751226	1532	1504	1510	1400
1399500875079768690	1531	1503	1510	1401
1399500875099786893	1515	1487	1510	1401
1399500875119721433	1514	1487	1511	1401
1399500875134748608	1514	1489	1511	1400
1399500875154795243	1504	1479	1511	1400
1399500875174738367	1503	1478	1511	1400
1399500875189762709	1502	1480	1511	1400
1399500875219690526	1491	1468	1512	1400
1399500875234842816	1490	1467	1512	1399
1399500875269711284	1490	1469	1512	1399
1399500875284630395	1488	1469	1512	1399
1399500875299838569	1494	1482	1512	1398
1399500875314759097	1493	1481	1512	1398
1399500875329807041	1493	1482	1512	1398
1399500875354827634	1504	1497	1512	1398
1399500875374777372	1504	1498	1513	1398
1399500875389789603	1504	1497	1512	1398
1399500875419739372	1508	1501	1512	1397
1399500875439817292	1507	1502	1512	1398
1399500875469890700	1518	1513	1512	1398
1399500875489790619	1516	1515	1512	1399
1399500875519793863	1520	1518	1512	1399
1399500875529811386	1520	1515	1511	1400
1399500875549811909	1516	1507	1511	1401
1399500875564665097	1515	1509	1511	1400
1399500875579750590	1516	1509	1511	1400
1399500875604630281	1503	1494	1510	1401
1399500875624520863	1502	1494	1510	1400
1399500875654617130	1493	1487	1509	1401
1399500875674564267	1493	1486	1508	1401
1399500875704799384	1490	1479	1507	1401
1399500875739846998	1489	1477	1507	1401
1399500875769909547	1488	1471	1506	1402
1399500875784754265	1489	1469	1506	1401
1399500875799550096	1494	1473	1506	1402
1399500875814889965	1494	1474	1505	1402
1399500875829720953	1496	1472	1505	1401
1399500875854656715	1505	1482	1505	1402
1399500875874813996	1506	1481	1505	1402
1399500875889880836	1505	1480	1505	1402
1399500875919800138	1508	1481	1504	1403
1399500875934780561	1508	1482	1504	1403
1399500875954721764	1502	1489	1504	1403
1399500875984829355	1504	1489	1504	1404
1399500875999798110	1504	1492	1504	1405
1399500876014782597	1505	1490	1504	1404
1399500876029776130	1504	1491	1504	1405
1399500876049875824	1500	1487	1503	1404
1399500876064880206	1501	1486	1503	1405
1399500876089742395	1501	1486	1503	1405
1399500876119755744	1507	1488	1503	1404
1399500876139756104	1505	1488	1502	1405
1399500876169800978	1505	1482	1502	1404
1399500876189565087	1504	1482	1502	1404
1399500876219787510	1502	1478	1502	1404
1399500876234766366	1503	1479	1502	1403
1399500876269848605	1501	1476	1502	1404
1399500876279822961	1502	1476	1502	1405
1399500876299755784	1504	1476	1502	1404
1399500876314783184	1504	1475	1502	1404
1399500876334756257	1502	1475	1502	1403
1399500876354738037	1509	1480	1502	1403
1399500876374631682	1510	1480	1503	1403
1399500876389534713	1509	1481	1503	1403
1399500876419829802	1504	1481	1503	1403
1399500876434810708	1504	1481	1503	1404
1399500876454828474	1503	1482	1503	1404
1399500876484530205	1503	1481	1504	1403
1399500876499550582	1505	1486	1504	1402
1399500876514518005	1504	1485	1504	1402
1399500876529508794	1504	1486	1504	1402
1399500876549547064	1505	1485	1505	1403
1399500876569574397	1505	1485	1505	1403
1399500876589495321	1504	1485	1505	1403
1399500876619862748	1506	1478	1506	1403
1399500876639677463	1507	1480	1506	1403
1399500876669813098	1507	1479	1507	1402
1399500876689775415	1509	1479	1507	1402
1399500876719798846	1513	1477	1508	1403
1399500876739782907	1512	1476	1508	1402
1399500876754811500	1520	1479	1508	1403
1399500876774812331	1521	1478	1509	1403
1399500876789719920	1521	1476	1509	1403
1399500876804867538	1522	1477	1509	1403
1399500876824784453	1523	1478	1509	1403
1399500876854790170	1523	1477	1509	1403
1399500876874831010	1523	1476	1509	1403
1399500876904861192	1524	1476	1510	1404
1399500876924789287	1524	1476	1510	1404
1399500876954856320	1517	1473	1510	1405
1399500876974779348	1518	1471	1510	1404
1399500876989813566	1519	1471	1510	1404
1399500877004536133	1518	1472	1511	1404
1399500877024770495	1516	1480	1511	1404
1399500877039830121	1515	1482	1511	1404
1399500877054754033	1513	1486	1511	1405
1399500877074664275	1515	1484	1512	1405
1399500877089770168	1515	1483	1512	1405
1399500877119532378	1511	1488	1512	1405
1399500877134489501	1511	1486	1513	1405
1399500877154560358	1511	1487	1513	1405
1399500877174548960	1511	1489	1513	1406
1399500877204536554	1511	1491	1513	1405
1399500877224531085	1509	1491	1513	1405
1399500877254540662	1514	1486	1513	1405
1399500877274627484	1514	1486	1513	1405
1399500877289945575	1513	1486	1513	1404
1399500877319733861	1515	1483	1513	1404
1399500877334670799	1515	1483	1513	1404
1399500877354819264	1518	1483	1513	1404
1399500877374537291	1517	1484	1513	1404
1399500877389763123	1517	1484	1512	1403
1399500877419902750	1518	1486	1512	1403
1399500877454765945	1517	1483	1512	1403
1399500877474761208	1516	1486	1511	1403
1399500877489789295	1517	1486	1511	1403
1399500877504762681	1514	1487	1511	1404
1399500877524591505	1516	1487	1511	1404
1399500877539742896	1515	1487	1510	1405
1399500877569805907	1514	1491	1510	1404
1399500877584824537	1513	1491	1510	1405
1399500877604613783	1512	1492	1509	1405
1399500877624828047	1513	1491	1509	1405
1399500877639739494	1511	1491	1508	1406
1399500877669774959	1508	1492	1508	1405
1399500877704850218	1508	1488	1508	1405
1399500877724775502	1508	1491	1507	1406
1399500877739754146	1509	1490	1507	1406
1399500877754763902	1513	1489	1507	1406
1399500877774778494	1513	1487	1506	1406
1399500877789896663	1513	1488	1506	1406
1399500877819785457	1514	1485	1506	1407
1399500877834808876	1514	1485	1506	1407
1399500877854750811	1517	1481	1506	1407
1399500877874761588	1518	1482	1506	1407
1399500877889757392	1517	1482	1506	1408
1399500877919851665	1521	1484	1506	1408
1399500877954652027	1520	1486	1506	1409
1399500877974767168	1521	1487	1506	1409
1399500877990054604	1522	1487	1506	1409
1399500878004932507	1518	1493	1507	1410
1399500878024804625	1519	1491	1507	1410
1399500878039802408	1519	1492	1507	1411
1399500878069790052	1523	1493	1508	1411
1399500878089848422	1524	1493	1508	1411
1399500878119809401	1524	1498	1508	1411
1399500878139781734	1525	1498	1509	1411
1399500878169913836	1524	1499	1509	1411
1399500878189729157	1526	1500	1510	1411
1399500878214446853	1521	1495	1510	1412
1399500878229927593	1522	1495	1510	1411
1399500878249912560	1521	1495	1510	1411
1399500878264798188	1521	1496	1510	1411
1399500878284751661	1521	1496	1510	1412
1399500878304754931	1521	1489	1510	1411
1399500878324754946	1520	1491	1510	1411
1399500878354831053	1518	1488	1510	1412
1399500878374780948	1518	1487	1510	1412
1399500878404617701	1510	1485	1510	1411
1399500878434749988	1511	1485	1510	1411
1399500878449803559	1511	1486	1510	1410
1399500878464695503	1511	1485	1510	1410
1399500878479710318	1511	1486	1510	1410
1399500878499759667	1516	1489	1509	1410
1399500878519767266	1516	1488	1509	1411
1399500878534713172	1515	1487	1509	1410
1399500878554581699	1517	1495	1508	1410
1399500878574561909	1517	1494	1508	1410
1399500878604538637	1522	1498	1508	1410
1399500878624504491	1523	1497	1507	1409
1399500878654542443	1528	1499	1507	1410
1399500878674528117	1530	1500	1507	1411
1399500878689507494	1530	1500	1507	1410
1399500878704496919	1531	1495	1506	1410
1399500878724690448	1533	1495	1506	1410
1399500878739543811	1533	1496	1506	1409
1399500878754708513	1540	1493	1506	1409
1399500878774770836	1540	1493	1506	1410
1399500878804789702	1541	1487	1507	1409
1399500878824727487	1541	1488	1507	1410
1399500878854732820	1535	1481	1507	1409
1399500878874530102	1534	1481	1507	1408
1399500878904737056	1530	1480	1508	1408
1399500878934612979	1531	1479	1509	1408
1399500878949757920	1523	1470	1509	1407
1399500878964727973	1524	1470	1510	1406
1399500878979911174	1523	1470	1510	1407
1399500878999762229	1521	1467	1510	1407
1399500879019728972	1519	1467	1511	1407
1399500879034737752	1519	1468	1511	1407
1399500879054705612	1509	1474	1511	1406
1399500879074784814	1509	1474	1512	1406
1399500879089788782	1508	1474	1512	1405
1399500879119727291	1503	1485	1512	1406
1399500879154752694	1503	1497	1512	1406
1399500879174762754	1503	1496	1512	1405
1399500879189865514	1503	1496	1512	1405
1399500879204793975	1519	1498	1512	1405
1399500879224775616	1518	1499	1512	1406
1399500879239814060	1517	1500	1512	1405
1399500879254745846	1529	1497	1512	1405
1399500879274797786	1528	1498	1512	1404
1399500879304856453	1536	1497	1512	1405
1399500879324704848	1537	1497	1512	1405
1399500879354799228	1541	1496	1512	1405
1399500879374752289	1541	1496	1512	1404
1399500879404845592	1545	1493	1512	1405
1399500879424733557	1544	1493	1512	1405
1399500879439609847	1546	1492	1512	1405
1399500879454800405	1540	1481	1512	1406
1399500879474872491	1540	1482	1512	1405
1399500879489781513	1539	1482	1511	1405
1399500879519577876	1532	1473	1511	1406
1399500879534841958	1531	1474	1511	1406
1399500879554813242	1522	1467	1511	1406
1399500879574694627	1521	1468	1511	1407
1399500879604800369	1506	1471	1511	1406
1399500879639821806	1504	1471	1511	1407
1399500879669790608	1500	1476	1511	1407
1399500879679562124	1499	1475	1511	1406
1399500879699528542	1498	1483	1510	1406
1399500879714574635	1498	1485	1510	1407
1399500879739568003	1499	1484	1510	1407
1399500879769589552	1505	1489	1510	1408
1399500879789592302	1505	1489	1510	1407
1399500879819597050	1512	1493	1510	1407
1399500879839805843	1512	1494	1509	1408
1399500879869865271	1536	1500	1509	1408
1399500879904899351	1539	1498	1509	1409
1399500879924765447	1540	1499	1509	1409
1399500879939863315	1542	1500	1509	1409
1399500879954801149	1544	1497	1509	1409
1399500879974771975	1545	1498	1509	1410
1399500880004509503	1553	1496	1509	1410
1399500880024502677	1552	1495	1509	1409
1399500880054541827	1524	1332	1509	1410
1399500880074547075	1548	1481	1509	1410
1399500880104527182	1530	1469	1509	1410
1399500880124576974	1529	1470	1508	1410
1399500880154832430	1522	1562	1508	1409
1399500880174782661	1518	1472	1508	1408
1399500880189805549	1518	1473	1508	1408
1399500880204816990	1503	1473	1508	1409
1399500880224799387	1504	1472	1508	1409
1399500880239774769	1504	1473	1508	1408
1399500880269801079	1495	1482	1508	1408
1399500880284769510	1493	1482	1508	1408
1399500880304775712	1497	1490	1508	1408
1399500880324731005	1496	1491	1508	1408
1399500880354765700	1499	1633	1509	1407
1399500880384747714	1495	1500	1509	1407
1399500880419787950	1498	1504	1510	1407
1399500880429697835	1498	1503	1510	1407
1399500880449838100	1501	1502	1510	1406
1399500880469871262	1502	1504	1510	1406
1399500880484783381	1505	1506	1511	1406
1399500880504779733	1517	1502	1511	1407
1399500880524726914	1518	1503	1511	1406
1399500880539858260	1518	1505	1512	1407
1399500880569888271	1559	1499	1512	1407
1399500880584695359	1560	1500	1512	1407
1399500880619825753	1562	1495	1513	1408
1399500880639773375	1564	1493	1513	1408
1399500880654742514	1551	1699	1514	1408
1399500880674776018	1552	1480	1514	1409
1399500880689912120	1554	1480	1514	1409
1399500880704687896	1554	1475	1514	1410
1399500880724766720	1555	1474	1515	1410
1399500880739710941	1556	1473	1515	1409
1399500880769788140	1552	1471	1516	1409
1399500880789901675	1553	1463	1516	1408
1399500880819787593	1550	1442	1517	1406
1399500880839802352	1549	1437	1518	1406
1399500880869887900	1538	1398	1518	1405
1399500880884779146	1537	1395	1519	1403
1399500880899598676	1519	1360	1519	1403
1399500880914784005	1519	1358	1520	1401
1399500880929773091	1518	1354	1520	1400
1399500880950088889	1494	1374	1520	1400
1399500880969932293	1492	1374	1521	1399
1399500880989666768	1491	1372	1521	1398
1399500881019862349	1484	1421	1522	1398
1399500881039801426	1482	1419	1521	1397
1399500881069743961	1483	1476	1522	1395
1399500881104792073	1494	1508	1521	1395
1399500881124752287	1490	1508	1520	1395
1399500881139722448	1490	1513	1520	1395
1399500881154662142	1499	1699	1519	1395
1399500881174770470	1507	1533	1519	1395
1399500881189716755	1507	1535	1518	1395
1399500881219800950	1524	1545	1518	1395
1399500881239647430	1524	1549	1517	1395
1399500881269763465	1533	1569	1516	1396
1399500881289753865	1534	1571	1516	1396
1399500881319761299	1537	1552	1515	1397
1399500881354875777	1533	1699	1514	1398
1399500881374743610	1538	1539	1514	1399
1399500881389722379	1537	1536	1513	1399
1399500881404710792	1561	1472	1513	1400
1399500881424784189	1561	1471	1512	1400
1399500881439748511	1562	1468	1512	1400
1399500881469724733	1560	1442	1512	1401
1399500881484542800	1561	1436	1511	1402
1399500881504671678	1542	1332	1511	1403
1399500881524662926	1541	1332	1510	1404
1399500881539643691	1545	1332	1510	1405
1399500881569684516	1534	1332	1509	1407
1399500881604714868	1518	1332	1507	1406
1399500881624686576	1517	1332	1507	1406
1399500881639778709	1515	1332	1506	1405
1399500881654777497	1502	1425	1506	1404
1399500881674723476	1490	1332	1505	1403
1399500881704729090	1468	1332	1505	1404
1399500881724800717	1468	1332	1505	1403
1399500881754861114	1468	1381	1506	1402
1399500881774742259	1450	1390	1506	1402
1399500881804792765	1443	1432	1505	1400
1399500881824712408	1442	1434	1505	1399
1399500881854850535	1448	1568	1505	1398
1399500881874702224	1440	1501	1505	1397
1399500881889850694	1442	1507	1504	1397
1399500881904677639	1459	1530	1504	1397
1399500881924769004	1459	1536	1504	1397
1399500881939720616	1460	1543	1504	1396
1399500881969864649	1498	1584	1503	1397
1399500881984658099	1499	1592	1503	1397
1399500882004776325	1515	1596	1503	1397
1399500882024794403	1518	1602	1503	1397
1399500882039778008	1517	1607	1503	1397
1399500882069849445	1537	1638	1504	1397
1399500882104831711	1556	1658	1505	1397
1399500882124646120	1560	1661	1505	1397
1399500882139795897	1563	1664	1506	1396
1399500882154507911	1566	1665	1506	1397
1399500882174839865	1579	1626	1507	1398
1399500882189819206	1581	1624	1507	1398
1399500882219631077	1579	1597	1508	1398
1399500882234768943	1582	1595	1508	1400
1399500882254568272	1587	1535	1508	1400
1399500882274555533	1587	1434	1509	1400
1399500882304806829	1574	1399	1509	1402
1399500882334779841	1576	1393	1509	1403
1399500882349900632	1577	1385	1509	1404
1399500882364539006	1557	1332	1509	1405
1399500882379456860	1557	1332	1509	1405
1399500882399688895	1524	1332	1509	1406
1399500882419601934	1524	1332	1509	1407
1399500882439517168	1519	1332	1509	1407
1399500882469563811	1468	1332	1509	1408
1399500882489534026	1465	1332	1509	1408
1399500882519589187	1426	1332	1509	1408
1399500882539575185	1423	1332	1509	1408
1399500882569708133	1407	1359	1510	1410
1399500882584780926	1406	1359	1510	1410
1399500882599713284	1404	1420	1510	1410
1399500882614740280	1403	1420	1510	1409
1399500882629789377	1398	1421	1510	1410
1399500882649717021	1426	1507	1509	1409
1399500882669687795	1426	1508	1509	1410
1399500882689719307	1427	1513	1508	1410
1399500882719846195	1491	1604	1508	1410
1399500882739734333	1489	1612	1507	1410
1399500882769896515	1540	1625	1507	1409
1399500882789863412	1539	1628	1506	1408
1399500882819887690	1568	1628	1506	1408
1399500882834797165	1572	1632	1506	1407
1399500882849776385	1588	1603	1506	1406
1399500882864739557	1590	1608	1506	1408
1399500882879661839	1593	1608	1507	1407
1399500882899733745	1630	1443	1507	1405
1399500882919803097	1632	1443	1507	1406
1399500882939851560	1637	1442	1507	1405
1399500882969665439	1602	1348	1507	1405
1399500882984795212	1603	1349	1507	1406
1399500883004729767	1500	1332	1507	1405
1399500883039792136	1502	1332	1507	1405
1399500883069759499	1480	1332	1507	1404
1399500883079577800	1479	1332	1507	1405
1399500883099715439	1436	1332	1508	1405
1399500883114743768	1430	1332	1508	1405
1399500883129679413	1429	1332	1508	1404
1399500883154760202	1444	1445	1509	1404
1399500883174816901	1441	1405	1510	1403
1399500883204569510	1514	1496	1512	1403
1399500883224797418	1511	1496	1512	1402
1399500883254779650	1523	1591	1513	1402
1399500883289803647	1523	1562	1514	1401
1399500883319879317	1559	1540	1515	1401
1399500883334807417	1559	1543	1515	1400
1399500883349511635	1575	1477	1515	1400
1399500883364807312	1574	1482	1516	1399
1399500883379670147	1577	1488	1516	1399
1399500883404762415	1531	1442	1517	1399
1399500883424792932	1536	1448	1517	1398
1399500883439792297	1534	1448	1518	1398
1399500883469901617	1536	1420	1518	1398
1399500883484862807	1539	1419	1518	1398
1399500883504857984	1522	1384	1518	1399
1399500883534859377	1524	1388	1517	1399
1399500883554838299	1495	1417	1516	1399
1399500883574600505	1500	1414	1516	1400
1399500883589706439	1500	1413	1515	1399
1399500883604713311	1510	1475	1515	1399
1399500883624774028	1510	1480	1515	1400
1399500883639786562	1511	1480	1514	1400
1399500883669807003	1527	1521	1514	1401
1399500883684760197	1527	1522	1513	1402
1399500883704807423	1547	1548	1513	1402
1399500883724845038	1545	1549	1512	1403
1399500883739479686	1546	1550	1511	1404
1399500883769683119	1555	1544	1511	1404
1399500883789689913	1553	1544	1510	1404
1399500883814721660	1555	1535	1509	1406
1399500883829725928	1554	1537	1509	1406
1399500883849739920	1536	1466	1509	1406
1399500883864769613	1537	1466	1508	1407
1399500883884693283	1536	1466	1508	1407
1399500883904540356	1532	1442	1508	1408
1399500883924798709	1529	1440	1507	1409
1399500883954690858	1522	1434	1506	1409
1399500883974892375	1522	1453	1506	1410
1399500883989781026	1522	1451	1506	1410
1399500884019743404	1518	1457	1506	1411
1399500884039677677	1517	1456	1506	1412
1399500884054712774	1522	1470	1506	1412
1399500884074726822	1523	1511	1505	1412
1399500884089862702	1521	1513	1505	1414
1399500884104664726	1533	1539	1505	1413
1399500884124652217	1532	1540	1505	1414
1399500884154822635	1538	1517	1505	1415
1399500884174578229	1537	1546	1505	1416
1399500884204788734	1539	1514	1505	1417
1399500884224791642	1539	1516	1505	1416
1399500884254833356	1542	1476	1505	1417
1399500884274823421	1542	1509	1506	1418
1399500884289632871	1544	1509	1506	1418
1399500884304764383	1545	1487	1506	1418
1399500884324816853	1544	1486	1506	1418
1399500884339833525	1546	1488	1506	1418
1399500884354821683	1537	1383	1507	1419
1399500884374823118	1540	1462	1507	1420
1399500884404789084	1531	1455	1507	1420
1399500884424740450	1531	1453	1507	1420
1399500884454791120	1528	1401	1508	1420
1399500884474670074	1529	1445	1508	1420
1399500884504722821	1524	1461	1508	1420
1399500884534799643	1523	1459	1509	1420
1399500884549835767	1522	1468	1509	1420
1399500884564510199	1523	1467	1509	1420
1399500884579728112	1524	1466	1510	1421
1399500884599542836	1527	1501	1510	1421
1399500884619821580	1528	1501	1510	1422
1399500884634709107	1529	1498	1510	1421
1399500884654752040	1537	1448	1510	1420
1399500884674773483	1538	1507	1510	1421
1399500884689733029	1538	1506	1511	1422
1399500884719773172	1546	1505	1511	1421
1399500884739932297	1545	1505	1511	1422
1399500884769810831	1548	1498	1511	1421
1399500884784724746	1548	1497	1511	1421
1399500884799795855	1543	1490	1511	1421
1399500884814545175	1543	1491	1511	1420
1399500884829554777	1543	1493	1511	1421
1399500884849533380	1536	1498	1511	1421
1399500884869622057	1539	1495	1511	1421
1399500884884575663	1538	1496	1510	1420
1399500884904540590	1534	1503	1510	1420
1399500884924527704	1534	1503	1510	1421
1399500884954544715	1528	1418	1510	1421
1399500884989786891	1530	1494	1510	1420
1399500885019814980	1527	1482	1509	1419
1399500885029814125	1528	1482	1509	1420
1399500885049802286	1532	1458	1509	1421
1399500885064783153	1530	1458	1509	1420
1399500885079813347	1532	1458	1509	1421
1399500885104826150	1532	1456	1509	1420
1399500885124789406	1531	1455	1509	1420
1399500885154606425	1538	1372	1509	1420
1399500885174604910	1540	1458	1509	1421
1399500885204569794	1542	1452	1509	1420
1399500885239522921	1543	1451	1510	1420
1399500885269541961	1550	1475	1510	1420
1399500885284748887	1552	1474	1510	1420
1399500885299796087	1551	1478	1510	1420
1399500885314832537	1550	1478	1510	1420
1399500885329797873	1552	1478	1510	1419
1399500885354651823	1545	1389	1510	1419
1399500885374757882	1549	1487	1510	1419
1399500885389810420	1549	1485	1511	1418
1399500885419818164	1547	1493	1511	1417
1399500885434736828	1548	1494	1511	1416
1399500885454780057	1544	1396	1511	1416
1399500885484851734	1545	1500	1511	1415
1399500885519805050	1547	1505	1511	1414
1399500885534724965	1545	1510	1511	1414
1399500885549508373	1548	1510	1511	1413
1399500885564730467	1545	1520	1511	1412
1399500885584781497	1547	1524	1511	1412
1399500885604751400	1542	1539	1512	1412
1399500885624725613	1544	1544	1512	1410
1399500885639817847	1544	1545	1512	1411
1399500885669754005	1543	1550	1512	1411
1399500885684877015	1543	1550	1512	1410
1399500885704828342	1554	1502	1512	1409
1399500885734821446	1554	1506	1513	1409
1399500885749752610	1557	1478	1513	1407
1399500885764808451	1555	1480	1513	1407
1399500885779510244	1555	1482	1513	1408
1399500885799484240	1558	1452	1513	1409
1399500885814576273	1560	1453	1513	1409
1399500885839488185	1561	1451	1513	1408
1399500885869536673	1560	1437	1513	1408
1399500885889501325	1560	1438	1513	1409
1399500885919573414	1559	1472	1513	1407
1399500885939670409	1559	1471	1513	1408
1399500885969811256	1548	1510	1513	1409
1399500885984715866	1547	1507	1513	1408
1399500886019796642	1539	1524	1514	1408
1399500886029774627	1540	1524	1514	1408
1399500886049900716	1532	1530	1514	1408
1399500886064772953	1531	1529	1514	1408
1399500886084805005	1530	1529	1515	1408
1399500886104788886	1543	1509	1515	1408
1399500886124808230	1541	1506	1515	1408
1399500886139788782	1542	1506	1515	1408
1399500886169894995	1544	1496	1516	1408
1399500886184720702	1543	1495	1516	1408
1399500886219836309	1548	1483	1517	1409
1399500886229877521	1547	1480	1517	1409
1399500886249806056	1555	1463	1518	1409
1399500886264758592	1554	1460	1518	1409
1399500886279827410	1553	1458	1518	1410
1399500886299807850	1556	1454	1519	1411
1399500886319890207	1556	1451	1519	1410
1399500886339792421	1555	1451	1520	1411
1399500886369934427	1550	1457	1520	1411
1399500886389782632	1549	1454	1521	1411
1399500886419866219	1538	1476	1521	1411
1399500886439874917	1537	1476	1522	1411
1399500886469913777	1530	1477	1522	1411
1399500886489746759	1529	1479	1522	1412
1399500886504801679	1518	1490	1522	1412
1399500886524740974	1517	1489	1522	1412
1399500886539808029	1517	1489	1523	1413
1399500886554758949	1534	1332	1522	1412
1399500886574489612	1519	1485	1522	1412
1399500886589469005	1519	1486	1522	1413
1399500886619496762	1526	1475	1522	1413
1399500886634492520	1526	1476	1522	1413
1399500886654541341	1541	1335	1522	1413
1399500886674523631	1532	1465	1522	1414
1399500886704516037	1536	1455	1522	1414
1399500886734702794	1535	1457	1522	1414
1399500886749791603	1534	1444	1522	1414
1399500886764619514	1533	1444	1521	1415
1399500886779500941	1533	1443	1521	1414
1399500886799693384	1532	1448	1521	1416
1399500886819714570	1533	1447	1521	1414
1399500886834826131	1532	1447	1521	1415
1399500886854722937	1530	1332	1521	1416
1399500886874814910	1524	1460	1521	1415
1399500886889579906	1524	1461	1521	1414
1399500886919482018	1524	1465	1521	1416
1399500886954475745	1524	1338	1521	1415
1399500886974510918	1519	1474	1521	1415
1399500886989454890	1519	1479	1521	1414
1399500887004478028	1516	1491	1521	1414
1399500887024548498	1518	1494	1521	1414
1399500887039514859	1517	1497	1521	1414
1399500887054766590	1526	1332	1521	1414
1399500887074818045	1517	1522	1521	1412
1399500887104910136	1515	1525	1521	1411
1399500887124612627	1514	1528	1521	1410
1399500887139809679	1514	1530	1521	1410
1399500887169766438	1514	1498	1521	1409
1399500887204820523	1515	1470	1521	1407
1399500887224558115	1517	1480	1521	1405
1399500887239508119	1513	1488	1520	1405
1399500887254525236	1525	1332	1520	1405
1399500887274545237	1516	1497	1520	1405
1399500887289489852	1517	1498	1520	1403
1399500887319683006	1519	1545	1520	1400
1399500887339605332	1519	1546	1520	1399
1399500887369703329	1522	1551	1520	1397
1399500887389757729	1523	1554	1521	1397
1399500887419796505	1523	1540	1521	1397
1399500887454745920	1536	1376	1521	1396
1399500887474702552	1532	1517	1521	1396
1399500887489698112	1532	1517	1521	1396
1399500887504761289	1534	1485	1521	1397
1399500887524807005	1534	1483	1521	1395
1399500887554864167	1541	1338	1522	1396
1399500887574757345	1538	1470	1522	1395
1399500887604760132	1531	1510	1522	1395
1399500887624764946	1532	1508	1522	1395
1399500887654779923	1536	1375	1522	1395
1399500887674610920	1531	1506	1521	1396
1399500887704760550	1523	1546	1522	1396
1399500887724849842	1525	1542	1522	1397
1399500887739742517	1527	1541	1521	1397
1399500887754574840	1539	1332	1521	1397
1399500887774769847	1526	1544	1522	1397
1399500887789711850	1527	1541	1522	1397
1399500887819795111	1529	1539	1522	1397
1399500887834705804	1529	1535	1522	1397
1399500887854708183	1537	1396	1521	1399
1399500887874725507	1533	1519	1521	1399
1399500887889697814	1534	1516	1522	1398
1399500887919720963	1527	1509	1521	1400
1399500887939508715	1528	1505	1521	1402
1399500887954787580	1538	1332	1521	1401
1399500887974819892	1526	1490	1521	1402
1399500887989881931	1527	1490	1521	1402
1399500888004794149	1528	1479	1520	1402
1399500888024517069	1528	1480	1520	1402
1399500888054525218	1537	1371	1520	1402
1399500888074517557	1532	1491	1520	1402
1399500888104564161	1530	1529	1519	1402
1399500888124508459	1532	1526	1519	1402
1399500888154575114	1525	1454	1518	1400
1399500888184857320	1521	1566	1517	1399
1399500888199636161	1518	1565	1517	1399
1399500888214772288	1518	1565	1517	1398
1399500888229745799	1517	1565	1516	1399
1399500888249764009	1521	1530	1516	1399
1399500888264838658	1521	1528	1515	1398
1399500888289819243	1519	1531	1515	1398
1399500888319798127	1522	1520	1514	1398
1399500888339803908	1523	1520	1513	1398
1399500888369916056	1535	1456	1513	1399
1399500888389919275	1534	1455	1512	1399
1399500888419792584	1536	1451	1512	1398
1399500888434588458	1537	1448	1511	1399
1399500888449812695	1537	1446	1511	1399
1399500888464750582	1533	1452	1511	1398
1399500888479769559	1533	1451	1510	1399
1399500888499822203	1534	1441	1510	1400
1399500888519762298	1534	1440	1510	1401
1399500888539705142	1534	1439	1509	1401
1399500888569763913	1530	1438	1509	1402
1399500888589879044	1530	1438	1509	1402
1399500888619804333	1529	1449	1508	1404
1399500888634807626	1529	1447	1508	1405
1399500888669808941	1522	1470	1508	1405
1399500888684804790	1522	1468	1508	1405
1399500888699611824	1513	1492	1508	1407
1399500888714820318	1513	1490	1508	1407
1399500888729775033	1513	1490	1508	1408
1399500888754830370	1511	1409	1508	1409
1399500888774729005	1513	1491	1508	1410
1399500888789817951	1512	1491	1508	1410
1399500888819815531	1511	1497	1508	1411
1399500888839835597	1510	1498	1508	1413
1399500888869781687	1511	1485	1508	1414
1399500888904782722	1520	1449	1508	1414
1399500888924852559	1519	1448	1509	1415
1399500888939791829	1519	1446	1509	1415
1399500888954840253	1519	1332	1509	1416
1399500888974803859	1524	1439	1509	1416
1399500888989772655	1524	1437	1509	1416
1399500889019846164	1530	1425	1510	1417
1399500889039897137	1531	1424	1510	1416
1399500889069686347	1533	1421	1510	1416
1399500889089503047	1533	1422	1510	1418
1399500889119804634	1525	1438	1510	1418
1399500889154742538	1525	1340	1510	1418
1399500889174679182	1525	1450	1511	1418
1399500889189754741	1526	1449	1511	1418
1399500889204698298	1525	1467	1510	1418
1399500889224709851	1524	1466	1510	1418
1399500889239714652	1523	1468	1511	1417
1399500889269801133	1521	1474	1511	1418
1399500889284717982	1520	1476	1511	1417
1399500889304849205	1513	1498	1511	1417
1399500889324736240	1514	1498	1511	1417
1399500889339826293	1514	1498	1511	1416
1399500889369821607	1513	1502	1511	1417
1399500889404710534	1513	1484	1511	1415
1399500889424545216	1513	1485	1511	1416
1399500889439797130	1513	1484	1511	1415
1399500889454796500	1515	1391	1511	1415
1399500889474852221	1516	1466	1511	1414
1399500889489776704	1516	1468	1511	1414
1399500889519807121	1524	1427	1511	1414
1399500889539847758	1525	1429	1511	1415
1399500889569671348	1527	1425	1510	1414
1399500889589806531	1529	1424	1510	1414
1399500889619719662	1541	1419	1510	1415
1399500889654868994	1547	1389	1510	1415
1399500889674926851	1547	1412	1510	1415
1399500889689872026	1549	1412	1510	1415
1399500889704835615	1549	1419	1510	1415
1399500889724810626	1550	1418	1510	1415
1399500889754798138	1545	1416	1510	1416
1399500889774819420	1546	1433	1510	1415
1399500889789780964	1547	1434	1510	1416
1399500889819525940	1541	1460	1510	1416
1399500889839712446	1542	1463	1510	1416
1399500889869524788	1534	1496	1510	1415
1399500889899746533	1526	1508	1510	1415
1399500889914702028	1526	1510	1511	1415
1399500889929733764	1525	1511	1511	1415
1399500889949658908	1513	1506	1511	1416
1399500889964833701	1513	1507	1511	1415
1399500889989760540	1513	1511	1512	1415
1399500890019802659	1508	1522	1512	1414
1399500890039697777	1507	1524	1513	1414
1399500890069764317	1510	1516	1513	1415
1399500890089732563	1509	1517	1513	1414
1399500890119746019	1515	1507	1514	1413
1399500890134715945	1514	1507	1514	1413
1399500890149767545	1520	1484	1515	1413
1399500890164712213	1518	1485	1515	1413
1399500890179813437	1517	1486	1516	1413
1399500890199775931	1524	1473	1516	1413
1399500890219708099	1525	1473	1517	1413
1399500890239823951	1526	1471	1517	1412
1399500890269524187	1548	1440	1518	1413
1399500890289805526	1548	1442	1518	1413
1399500890319940800	1552	1440	1519	1414
1399500890339783699	1553	1438	1519	1413
1399500890369776164	1553	1433	1520	1414
1399500890389900019	1553	1433	1520	1414
1399500890404724196	1548	1443	1520	1414
1399500890424827465	1546	1443	1520	1414
1399500890439781036	1547	1443	1520	1413
1399500890454762287	1532	1540	1520	1412
1399500890474753101	1533	1485	1520	1413
1399500890489700704	1534	1483	1520	1413
1399500890519803425	1515	1509	1520	1413
1399500890534779127	1515	1510	1520	1413
1399500890554782761	1510	1556	1520	1413
1399500890574801054	1509	1520	1520	1412
1399500890604582470	1503	1524	1519	1412
1399500890624534368	1503	1523	1519	1411
1399500890639509843	1502	1524	1518	1411
1399500890654486189	1501	1600	1518	1411
1399500890674567287	1504	1516	1518	1410
1399500890689718777	1503	1515	1517	1410
1399500890719528432	1519	1497	1517	1409
1399500890739805104	1518	1498	1516	1409
1399500890769753261	1533	1481	1516	1409
1399500890789782726	1533	1481	1515	1409
1399500890819761432	1556	1440	1515	1408
1399500890839751343	1557	1437	1514	1408
1399500890869762050	1564	1432	1514	1409
1399500890884826063	1564	1430	1513	1409
1399500890899853322	1558	1444	1513	1408
1399500890914724082	1559	1442	1513	1408
1399500890929497424	1560	1441	1512	1409
1399500890949877053	1547	1455	1512	1408
1399500890969867514	1547	1454	1512	1408
1399500890989758056	1548	1452	1512	1409
1399500891019795504	1533	1466	1511	1410
1399500891039802096	1534	1464	1511	1409
1399500891069907851	1522	1478	1510	1410
1399500891104680249	1511	1487	1510	1410
1399500891124787915	1511	1486	1510	1410
1399500891139788604	1511	1484	1510	1410
1399500891154770606	1506	1640	1510	1410
1399500891174734291	1501	1494	1510	1410
1399500891189609492	1500	1493	1510	1411
1399500891219774537	1501	1488	1510	1412
1399500891239553071	1501	1487	1510	1412
1399500891269917200	1507	1472	1511	1411
1399500891289634828	1506	1472	1511	1412
1399500891319732625	1515	1463	1511	1414
1399500891354837791	1526	1532	1512	1414
1399500891374773774	1527	1447	1513	1414
1399500891389609287	1526	1446	1513	1415
1399500891404558858	1544	1431	1513	1414
1399500891424829962	1542	1433	1513	1415
1399500891454852829	1543	1528	1514	1415
1399500891474552877	1544	1437	1514	1416
1399500891504531659	1554	1438	1515	1416
1399500891524560494	1556	1437	1515	1416
1399500891554713674	1553	1625	1515	1416
1399500891574789051	1554	1441	1515	1417
1399500891604785546	1548	1439	1515	1417
1399500891624618983	1547	1434	1515	1417
1399500891639528755	1548	1435	1515	1418
1399500891654760254	1546	1622	1515	1418
1399500891674820396	1515	1415	1515	1417
1399500891689814172	1514	1411	1514	1418
1399500891719829606	1506	1385	1514	1419
1399500891734813002	1506	1381	1514	1418
1399500891754880419	1504	1481	1513	1419
1399500891774720136	1497	1334	1513	1419
1399500891789809495	1495	1332	1512	1419
1399500891819812400	1494	1332	1512	1420
1399500891854760061	1492	1364	1512	1420
1399500891874759324	1491	1332	1511	1420
1399500891889818265	1489	1332	1511	1420
1399500891904643841	1503	1332	1511	1421
1399500891924646087	1502	1332	1511	1421
1399500891939893186	1501	1332	1511	1421
1399500891969761622	1522	1336	1511	1420
1399500891984733006	1520	1337	1511	1421
1399500892004849795	1526	1380	1511	1421
1399500892024571377	1524	1379	1511	1421
1399500892054764122	1525	1489	1511	1421
1399500892074689968	1525	1480	1511	1421
1399500892089762137	1526	1480	1511	1420
1399500892104687614	1524	1504	1511	1419
1399500892124549230	1523	1506	1510	1419
1399500892139839543	1523	1507	1510	1419
1399500892154884740	1518	1699	1510	1417
1399500892174449168	1513	1510	1510	1418
1399500892204861166	1504	1482	1509	1417
1399500892224725377	1502	1485	1509	1417
1399500892254811105	1505	1611	1509	1416
1399500892274456642	1497	1467	1508	1415
1399500892304827374	1488	1367	1507	1414
1399500892334752347	1487	1372	1507	1413
1399500892349692370	1487	1332	1506	1411
1399500892364822870	1484	1332	1506	1412
1399500892379799117	1483	1332	1506	1412
1399500892399760197	1488	1332	1505	1413
1399500892419868249	1489	1332	1505	1411
1399500892434910879	1487	1332	1505	1410
1399500892454723987	1495	1379	1504	1411
1399500892474740847	1490	1332	1504	1411
1399500892489763636	1489	1332	1504	1410
1399500892519693401	1498	1332	1504	1409
1399500892534775549	1498	1332	1503	1409
1399500892564840767	1506	1332	1503	1406
1399500892579791718	1505	1332	1502	1407
1399500892599784738	1512	1358	1502	1407
1399500892614771613	1512	1360	1501	1409
1399500892629929937	1511	1363	1501	1409
1399500892654797765	1527	1549	1500	1408
1399500892674777062	1517	1419	1500	1409
1399500892704607107	1511	1476	1499	1408
1399500892724759908	1514	1479	1499	1408
1399500892754874977	1506	1665	1499	1408
1399500892774736719	1497	1536	1499	1409
1399500892804730708	1482	1484	1499	1410
1399500892824758114	1483	1494	1500	1410
1399500892839828265	1483	1497	1500	1410
1399500892854827537	1503	1699	1501	1410
1399500892874841609	1487	1500	1501	1410
1399500892889893353	1488	1505	1502	1411
1399500892919721752	1493	1418	1503	1410
1399500892934724266	1493	1422	1504	1410
1399500892954759889	1520	1526	1505	1410
1399500892974758696	1518	1392	1506	1411
1399500892989625383	1520	1395	1507	1410
1399500893019622508	1529	1377	1508	1412
1399500893054532593	1541	1376	1509	1411
1399500893074553715	1543	1383	1510	1410
1399500893089537030	1543	1387	1511	1411
1399500893104551848	1554	1389	1512	1411
1399500893124590555	1554	1390	1512	1411
1399500893139526028	1553	1394	1513	1412
1399500893169866543	1543	1444	1514	1412
1399500893184821935	1543	1448	1515	1413
1399500893204860912	1525	1489	1516	1413
1399500893224791714	1526	1493	1517	1413
1399500893239803637	1529	1495	1517	1412
1399500893269804488	1502	1548	1518	1413
1399500893304807200	1494	1562	1520	1414
1399500893324794765	1494	1566	1521	1414
1399500893339805304	1492	1572	1521	1414
1399500893354756845	1475	1699	1522	1413
1399500893374728927	1488	1577	1522	1414
1399500893389851217	1490	1576	1523	1415
1399500893419852133	1490	1551	1523	1414
1399500893439874631	1489	1552	1524	1415
1399500893469565120	1495	1513	1524	1415
1399500893489543848	1494	1512	1525	1415
1399500893519538502	1507	1467	1525	1414
1399500893539501328	1506	1465	1526	1415
1399500893564546503	1556	1395	1526	1415
1399500893579491062	1558	1390	1526	1415
1399500893599568196	1565	1415	1526	1415
1399500893614537362	1569	1409	1526	1414
1399500893639884825	1569	1405	1526	1416
1399500893669763064	1575	1414	1526	1417
1399500893689543148	1577	1411	1525	1417
1399500893719801974	1559	1520	1525	1420
1399500893734823546	1560	1517	1525	1417
1399500893754764845	1532	1699	1524	1418
1399500893789731307	1548	1552	1524	1419
1399500893804688656	1521	1580	1524	1419
1399500893824697329	1522	1579	1524	1418
1399500893839717794	1522	1582	1524	1420
1399500893854733358	1496	1699	1524	1420
1399500893874877209	1506	1605	1524	1420
1399500893889783597	1506	1605	1524	1420
1399500893919789026	1503	1570	1523	1420
1399500893934889612	1505	1569	1523	1420
1399500893954938001	1500	1664	1523	1420
1399500893974587516	1504	1544	1523	1421
1399500894004825115	1548	1440	1523	1420
1399500894024818972	1546	1438	1522	1421
1399500894039882334	1548	1435	1522	1420
1399500894054760419	1548	1617	1522	1421
1399500894074737289	1560	1398	1522	1421
1399500894089668184	1560	1394	1522	1420
1399500894104702760	1576	1391	1522	1421
1399500894124724631	1573	1389	1522	1421
1399500894154793795	1566	1544	1521	1420
1399500894174794891	1570	1427	1521	1419
1399500894204805352	1559	1459	1520	1420
1399500894224761268	1558	1458	1520	1420
1399500894254702395	1532	1614	1520	1420
1399500894284810772	1534	1538	1520	1420
1399500894299827018	1511	1573	1520	1421
1399500894314748451	1509	1574	1520	1421
1399500894329535678	1508	1573	1520	1420
1399500894349766542	1503	1551	1519	1420
1399500894369774252	1501	1554	1519	1420
1399500894384804769	1500	1555	1519	1420
1399500894404845539	1494	1552	1519	1421
1399500894424800154	1492	1552	1519	1421
1399500894439709681	1490	1551	1518	1421
1399500894469864180	1506	1478	1518	1421
1399500894484625886	1504	1477	1518	1421
1399500894519797621	1511	1452	1517	1422
1399500894529792807	1509	1450	1517	1422
1399500894549807506	1537	1390	1517	1423
1399500894564741261	1534	1390	1517	1422
1399500894579748284	1534	1389	1517	1421
1399500894604777033	1552	1384	1517	1422
1399500894624836461	1552	1384	1517	1423
1399500894654874047	1545	1519	1517	1423
1399500894674720683	1547	1418	1517	1423
1399500894704754316	1547	1436	1517	1423
1399500894739778345	1548	1431	1517	1423
1399500894769790668	1519	1490	1517	1424
1399500894784766554	1519	1492	1517	1423
1399500894799899311	1503	1511	1517	1423
1399500894814713827	1500	1514	1517	1424
1399500894829778100	1499	1514	1517	1423
1399500894854734633	1487	1629	1517	1422
1399500894874700879	1485	1542	1517	1423
1399500894904833203	1474	1523	1517	1421
1399500894924503898	1472	1523	1517	1420
1399500894939507984	1471	1525	1517	1421
1399500894969548974	1473	1500	1517	1420
1399500895004561701	1488	1440	1517	1420
1399500895024584317	1488	1437	1517	1420
1399500895039528776	1489	1435	1516	1421
1399500895054582479	1510	1507	1517	1421
1399500895074868067	1512	1353	1516	1419
1399500895089635550	1514	1352	1516	1419
1399500895119781825	1535	1332	1515	1419
1399500895134710376	1535	1332	1514	1420
1399500895154760105	1557	1392	1513	1420
1399500895174779922	1559	1332	1512	1419
1399500895204869856	1563	1371	1511	1419
1399500895234888959	1560	1374	1510	1421
1399500895254840802	1539	1526	1508	1421
1399500895274736430	1540	1460	1508	1421
1399500895289774170	1537	1460	1507	1422
1399500895304727984	1503	1544	1507	1421
1399500895324831816	1501	1545	1507	1420
1399500895354878073	1478	1641	1506	1420
1399500895374775252	1477	1586	1505	1419
1399500895404707885	1433	1607	1504	1418
1399500895424717913	1432	1612	1504	1417
1399500895454764599	1438	1669	1503	1415
1399500895474821440	1431	1569	1503	1415
1399500895504823311	1450	1505	1502	1414
1399500895524770817	1447	1504	1502	1413
1399500895539787036	1450	1505	1502	1413
1399500895554574730	1470	1542	1502	1412
1399500895574713658	1469	1444	1502	1412
1399500895589684804	1468	1442	1502	1412
1399500895619890615	1539	1332	1502	1412
1399500895634801693	1540	1332	1503	1412
1399500895654945756	1571	1332	1504	1411
1399500895674750317	1572	1332	1504	1412
1399500895689697318	1574	1332	1505	1412
1399500895719837719	1579	1332	1505	1412
1399500895754771143	1600	1332	1506	1412
1399500895774879324	1603	1332	1505	1415
1399500895789763866	1607	1332	1505	1412
1399500895804808773	1598	1332	1505	1412
1399500895824764679	1600	1332	1505	1412
1399500895839703944	1599	1332	1505	1413
1399500895869940817	1553	1409	1505	1413
1399500895884586454	1559	1404	1506	1412
1399500895904545785	1503	1490	1507	1412
1399500895924536031	1504	1489	1507	1412
1399500895954582845	1452	1583	1509	1410
1399500895974577335	1453	1561	1510	1410
1399500895989575071	1451	1566	1511	1409
1399500896004588083	1423	1590	1512	1409
1399500896024598689	1421	1595	1513	1409
1399500896039796668	1421	1599	1514	1409
1399500896054855808	1411	1628	1515	1409
1399500896074776653	1410	1596	1516	1408
1399500896104765332	1423	1589	1518	1407
1399500896124709016	1418	1591	1519	1407
1399500896154750315	1496	1449	1521	1406
1399500896174769023	1496	1439	1522	1407
1399500896204809207	1556	1364	1524	1406
1399500896224788845	1560	1361	1525	1406
1399500896239674876	1560	1361	1526	1407
1399500896254667073	1639	1332	1527	1407
1399500896274802033	1640	1332	1528	1407
1399500896289638966	1645	1332	1529	1406
1399500896304835013	1674	1332	1530	1404
1399500896337394508	1520	1516	1514	1350
1399500896357269215	1520	1516	1514	1349
1399500896376609186	1520	1516	1514	1348
1399500896396539963	1520	1516	1514	1346
1399500896416637666	1520	1516	1514	1345
1399500896436343537	1520	1516	1514	1344
1399500896457247576	1520	1516	1514	1343
1399500896476607734	1520	1516	1514	1342
1399500896496431139	1520	1516	1514	1341
1399500896516840469	1520	1516	1514	1340
1399500896536184233	1520	1516	1514	1339
1399500896556772446	1520	1516	1514	1338
1399500896576324221	1520	1516	1514	1337
1399500896597044903	1520	1516	1514	1335
1399500896616719648	1520	1516	1514	1334
1399500896636250526	1520	1516	1514	1333
1399500896657015378	1520	1516	1514	1332
1399500896676456361	1520	1516	1514	1331
1399500896697249690	1520	1516	1514	1330
1399500896717064371	1520	1516	1514	1329
1399500896736762574	1520	1516	1514	1328
1399500896756598690	1520	1516	1514	1327
1399500896776859433	1520	1516	1514	1326
1399500896796430907	1520	1516	1514	1325
1399500896817299076	1520	1516	1514	1323
1399500896836460717	1520	1516	1514	1322
1399500896856270987	1520	1516	1514	1321
1399500896876735829	1520	1516	1514	1320
1399500896897353946	1520	1516	1514	1319
1399500896917323794	1520	1516	1514	1318
1399500896936731767	1520	1516	1514	1317
1399500896956588694	1520	1516	1514	1316
1399500896976918572	1520	1516	1514	1315
1399500896996384020	1520	1516	1514	1314
1399500897016502698	1520	1516	1514	1312
1399500897036516373	1520	1516	1514	1311
1399500897056394716	1520	1516	1514	1310
1399500897076829988	1520	1516	1514	1309
1399500897096533250	1520	1516	1514	1308
1399500897117360145	1520	1516	1514	1307
1399500897136590793	1520	1516	1514	1306
1399500897156434430	1520	1516	1514	1305
1399500897176848400	1520	1516	1514	1304
1399500897196572465	1520	1516	1514	1303
1399500897216451311	1520	1516	1514	1302
1399500897236729267	1520	1516	1514	1300
1399500897256789272	1520	1516	1514	1299
1399500897277015034	1520	1516	1514	1298
1399500897297071904	1520	1516	1514	1297
1399500897316963989	1520	1516	1514	1296
1399500897336472411	1520	1516	1514	1295
1399500897356494701	1520	1516	1514	1294
1399500897376351764	1520	1516	1514	1293
1399500897396726814	1520	1516	1101	1105
1399500897497090325	1520	1516	1101	1105
1399500897597429048	1520	1516	1101	1105
1399500897697765927	1520	1516	1101	1105
1399500897798079542	1520	1516	1101	1105
1399500897898433393	1520	1516	1101	1105
1399500897998738837	1520	1516	1101	1105
1399500898099079512	1520	1516	1101	1105
1399500898199492507	1520	1516	1101	1105
1399500898299771572	1520	1516	1101	1105
1399500898400071516	1520	1516	1101	1105
1399500898500410360	1520	1516	1101	1105
1399500898600746516	1520	1516	1101	1105
1399500898701026695	1520	1516	1101	1105
1399500898801319434	1520	1516	1101	1105
1399500898901613621	1520	1516	1101	1105
1399500899002004541	1520	1516	1101	1105
1399500899102435664	1520	1516	1101	1105
1399500899202823221	1520	1516	1101	1105
1399500899303095366	1520	1516	1101	1105
1399500899403335991	1520	1516	1101	1105
1399500899503605059	1520	1516	1101	1105
1399500899603976160	1520	1516	1101	1105
1399500899704380032	1520	1516	1101	1105
1399500899804621621	1520	1516	1101	1105
1399500899904996352	1520	1516	1101	1105
1399500900005242420	1520	1516	1101	1105
1399500900105572487	1520	1516	1101	1105
1399500900205861807	1520	1516	1101	1105
1399500900306124917	1520	1516	1101	1105
1399500900406384935	1520	1516	1513	1105
