#Time	 Roll 	 Pitch 	 Yaw 	 Thrust
1399897699787439909	1520	1525	1501	1389
1399897699807421703	1520	1527	1501	1399
1399897699822396740	1517	1525	1501	1399
1399897699837455539	1519	1521	1501	1410
1399897699852485290	1516	1523	1501	1420
1399897699877379425	1517	1524	1501	1431
1399897699892409032	1519	1524	1501	1431
1399897699912487673	1515	1525	1501	1431
1399897699927377185	1520	1526	1501	1432
1399897699942504708	1517	1522	1501	1432
1399897699962483392	1519	1523	1501	1432
1399897699977486278	1520	1524	1501	1432
1399897699992427343	1517	1523	1501	1433
1399897700022526882	1518	1524	1501	1433
1399897700042459736	1518	1528	1501	1432
1399897700062434454	1517	1525	1501	1433
1399897700077470586	1520	1524	1501	1433
1399897700092365082	1517	1524	1501	1433
1399897700112487027	1516	1526	1501	1433
1399897700127365118	1516	1528	1501	1434
1399897700142632378	1518	1522	1501	1434
1399897700162428190	1518	1522	1501	1434
1399897700177472520	1515	1525	1501	1434
1399897700192466219	1516	1525	1501	1435
1399897700212419071	1517	1524	1501	1435
1399897700227425288	1518	1524	1501	1434
1399897700242512459	1519	1523	1501	1435
1399897700262370256	1519	1526	1501	1435
1399897700287442181	1520	1524	1501	1435
1399897700307447085	1517	1521	1501	1435
1399897700322414601	1520	1522	1501	1435
1399897700337532398	1518	1525	1501	1435
1399897700352374850	1514	1527	1501	1436
1399897700372343538	1520	1525	1501	1436
1399897700387446622	1513	1526	1501	1435
1399897700407521644	1519	1526	1501	1436
1399897700422508502	1513	1528	1501	1436
1399897700437442511	1512	1528	1501	1436
1399897700457466188	1519	1520	1501	1437
1399897700472420165	1516	1525	1501	1437
1399897700487440793	1510	1521	1501	1437
1399897700507440918	1515	1522	1501	1436
1399897700522305086	1512	1526	1501	1436
1399897700537499707	1506	1520	1501	1436
1399897700557411376	1504	1528	1501	1435
1399897700572317590	1510	1516	1502	1435
1399897700587374275	1516	1524	1502	1433
1399897700612477949	1511	1525	1502	1432
1399897700627460258	1515	1531	1503	1431
1399897700642500406	1515	1529	1504	1430
1399897700662464707	1509	1541	1504	1429
1399897700677514547	1502	1538	1505	1428
1399897700692381053	1500	1537	1505	1428
1399897700712399946	1506	1520	1506	1426
1399897700727445709	1504	1536	1507	1426
1399897700752548271	1495	1529	1508	1424
1399897700777387806	1503	1528	1509	1423
1399897700792424509	1495	1544	1510	1421
1399897700822389896	1508	1531	1511	1421
1399897700837314381	1505	1528	1512	1420
1399897700857407007	1507	1534	1513	1419
1399897700872445094	1506	1525	1513	1419
1399897700887406324	1519	1530	1514	1418
1399897700907435992	1502	1527	1515	1418
1399897700922434137	1515	1527	1516	1417
1399897700937398583	1501	1539	1516	1415
1399897700957403740	1511	1514	1517	1417
1399897700972326344	1514	1526	1518	1416
1399897700987307420	1511	1510	1518	1417
1399897701007392022	1508	1525	1519	1415
1399897701022443127	1505	1529	1519	1415
1399897701037372356	1504	1526	1519	1415
1399897701052345328	1505	1526	1520	1415
1399897701067379271	1503	1518	1520	1416
1399897701092414100	1508	1520	1520	1416
1399897701112334995	1519	1518	1521	1415
1399897701127333559	1507	1526	1521	1417
1399897701142344052	1519	1521	1521	1413
1399897701162531604	1517	1551	1521	1414
1399897701177438195	1504	1537	1521	1414
1399897701192446429	1521	1539	1521	1414
1399897701212355225	1501	1525	1521	1416
1399897701237417355	1514	1525	1520	1416
1399897701262595896	1514	1547	1520	1415
1399897701277442388	1503	1526	1520	1417
1399897701302417851	1504	1532	1520	1417
1399897701317519081	1497	1535	1520	1417
1399897701337486242	1497	1537	1520	1418
1399897701357471847	1508	1525	1520	1418
1399897701372425072	1508	1531	1520	1419
1399897701387489919	1503	1522	1519	1420
1399897701407429548	1504	1526	1519	1420
1399897701422410387	1505	1532	1519	1419
1399897701437372233	1507	1527	1519	1421
1399897701457480448	1505	1529	1519	1420
1399897701472491246	1503	1532	1519	1420
1399897701492439461	1499	1525	1518	1421
1399897701512384729	1510	1529	1518	1420
1399897701527400474	1517	1519	1518	1422
1399897701542397498	1505	1510	1518	1422
1399897701562409928	1499	1518	1518	1422
1399897701577352537	1500	1527	1517	1422
1399897701607417053	1501	1525	1517	1423
1399897701622391808	1509	1529	1517	1423
1399897701642467052	1505	1528	1517	1422
1399897701662136451	1494	1529	1517	1424
1399897701677386785	1498	1519	1517	1423
1399897701707345561	1500	1535	1516	1424
1399897701722098010	1499	1528	1516	1423
1399897701742522501	1500	1528	1516	1424
1399897701757414987	1506	1537	1516	1425
1399897701787347282	1506	1541	1516	1424
1399897701802417578	1512	1543	1516	1424
1399897701822527629	1498	1543	1516	1425
1399897701842469117	1508	1539	1516	1425
1399897701862426256	1493	1540	1515	1426
1399897701877321240	1499	1530	1515	1426
1399897701907555451	1507	1542	1515	1424
1399897701922446851	1504	1541	1515	1425
1399897701942522759	1505	1531	1515	1426
1399897701962453768	1501	1546	1515	1425
1399897701977365401	1505	1536	1515	1426
1399897702007367909	1497	1533	1515	1425
1399897702037440904	1488	1529	1514	1426
1399897702052700813	1497	1531	1514	1426
1399897702072466050	1502	1537	1514	1427
1399897702087455823	1499	1527	1514	1427
1399897702107444426	1500	1526	1514	1428
1399897702122498976	1506	1524	1514	1426
1399897702137470919	1517	1531	1514	1426
1399897702157404327	1504	1532	1514	1426
1399897702172459188	1503	1527	1513	1427
1399897702187625872	1502	1521	1513	1427
1399897702207458309	1502	1518	1513	1427
1399897702222400219	1510	1518	1513	1427
1399897702242479529	1509	1504	1513	1428
1399897702262381622	1510	1525	1513	1427
1399897702277381317	1509	1530	1513	1427
1399897702292366116	1510	1532	1513	1427
1399897702312419840	1511	1531	1513	1428
1399897702327475724	1508	1521	1512	1429
1399897702342470107	1508	1520	1512	1428
1399897702362521487	1514	1521	1512	1428
1399897702377428084	1515	1527	1512	1427
1399897702392406204	1515	1527	1512	1427
1399897702412478029	1510	1520	1512	1428
1399897702427437731	1508	1515	1512	1429
1399897702442452143	1508	1507	1512	1430
1399897702462409654	1513	1507	1512	1430
1399897702477488838	1518	1505	1512	1430
1399897702492424449	1516	1508	1512	1429
1399897702512546779	1513	1524	1512	1430
1399897702527379339	1511	1516	1511	1429
1399897702552467298	1523	1515	1511	1429
1399897702572395928	1523	1517	1512	1430
1399897702587340095	1515	1517	1511	1430
1399897702602550798	1511	1506	1511	1430
1399897702622509171	1518	1503	1511	1430
1399897702637493718	1520	1504	1511	1430
1399897702652467251	1519	1518	1511	1430
1399897702672401020	1517	1521	1511	1431
1399897702687380526	1518	1512	1511	1431
1399897702722512321	1513	1520	1511	1431
1399897702737525226	1514	1519	1511	1431
1399897702752362089	1516	1532	1511	1430
1399897702777412874	1514	1524	1511	1432
1399897702792525234	1516	1531	1511	1431
1399897702812459312	1518	1527	1511	1431
1399897702827444864	1515	1530	1511	1430
1399897702842308952	1516	1529	1511	1431
1399897702862414591	1513	1521	1511	1432
1399897702877248745	1511	1520	1511	1432
1399897702892457331	1511	1517	1511	1433
1399897702912450237	1511	1518	1511	1432
1399897702927469440	1516	1529	1511	1432
1399897702942490842	1519	1535	1511	1431
1399897702962472657	1517	1528	1511	1431
1399897702977407558	1513	1524	1511	1431
1399897702992325866	1510	1511	1510	1432
1399897703012467918	1514	1518	1510	1433
1399897703027368161	1514	1524	1510	1432
1399897703042473867	1515	1528	1510	1431
1399897703062440140	1520	1532	1510	1431
1399897703077463091	1517	1526	1510	1432
1399897703107470801	1521	1523	1510	1432
1399897703122336476	1514	1544	1510	1432
1399897703142449789	1513	1539	1510	1432
1399897703162332923	1517	1530	1510	1432
1399897703177380434	1508	1534	1510	1433
1399897703207397334	1508	1528	1510	1433
1399897703222397438	1507	1523	1509	1433
1399897703242464449	1509	1531	1509	1433
1399897703262458295	1503	1530	1509	1432
1399897703277384603	1507	1531	1509	1433
1399897703292400446	1509	1528	1509	1433
1399897703312471583	1508	1528	1509	1433
1399897703327423020	1510	1526	1509	1434
1399897703342435721	1505	1534	1509	1434
1399897703362464616	1508	1525	1509	1433
1399897703377438038	1509	1523	1509	1433
1399897703392515420	1512	1518	1509	1434
1399897703412397432	1509	1512	1509	1434
1399897703427413160	1510	1506	1510	1435
1399897703442388675	1509	1506	1510	1435
1399897703462540401	1502	1519	1510	1434
1399897703477334901	1506	1523	1510	1434
1399897703492411013	1499	1521	1510	1435
1399897703512368500	1504	1516	1511	1436
1399897703527089942	1505	1518	1511	1436
1399897703542383644	1500	1523	1511	1435
1399897703562447848	1502	1531	1512	1436
1399897703577390428	1498	1534	1512	1435
1399897703592408488	1494	1526	1513	1436
1399897703612363058	1497	1528	1513	1437
1399897703627293984	1502	1523	1513	1436
1399897703642508865	1499	1519	1514	1436
1399897703662779134	1501	1514	1514	1436
1399897703677428190	1489	1518	1514	1436
1399897703707567394	1493	1520	1514	1437
1399897703722438935	1491	1513	1515	1436
1399897703737420190	1501	1515	1515	1436
1399897703752481061	1499	1510	1515	1437
1399897703767370671	1486	1504	1515	1436
1399897703787383665	1489	1510	1515	1437
1399897703807548289	1499	1515	1515	1436
1399897703822403920	1502	1520	1516	1436
1399897703837489019	1497	1502	1516	1437
1399897703857442437	1503	1499	1516	1437
1399897703872516808	1502	1505	1516	1437
1399897703887363079	1512	1508	1516	1438
1399897703907496923	1504	1508	1516	1438
1399897703922582927	1499	1507	1516	1438
1399897703937492224	1501	1510	1516	1437
1399897703962466831	1504	1503	1516	1438
1399897703977367349	1504	1510	1516	1438
1399897703992352131	1505	1506	1516	1438
1399897704012419777	1508	1507	1516	1438
1399897704027447333	1510	1506	1516	1438
1399897704042434296	1515	1508	1516	1438
1399897704062432187	1520	1511	1516	1438
1399897704077472501	1515	1514	1516	1438
1399897704092382062	1515	1509	1516	1439
1399897704112248285	1513	1513	1515	1439
1399897704127467402	1515	1519	1515	1439
1399897704142447690	1510	1520	1515	1439
1399897704162449005	1506	1515	1515	1440
1399897704177435702	1506	1514	1515	1440
1399897704192498299	1508	1513	1515	1440
1399897704212411259	1516	1512	1515	1439
1399897704227482636	1518	1517	1515	1439
1399897704242501667	1520	1517	1515	1439
1399897704262510632	1511	1506	1515	1439
1399897704277494495	1512	1513	1515	1439
1399897704307529735	1511	1508	1514	1440
1399897704322492883	1513	1512	1514	1439
1399897704342415274	1514	1512	1514	1439
1399897704362341702	1511	1513	1514	1439
1399897704377330700	1520	1530	1514	1440
1399897704407457678	1524	1513	1513	1439
1399897704422405572	1521	1512	1513	1439
1399897704437454082	1521	1503	1513	1440
1399897704462476185	1522	1515	1513	1440
1399897704477373213	1521	1510	1513	1440
1399897704492394174	1515	1518	1513	1440
1399897704512479837	1527	1525	1513	1440
1399897704527411830	1521	1526	1513	1439
1399897704542321023	1520	1519	1513	1440
1399897704562480605	1521	1516	1513	1440
1399897704577407444	1518	1523	1513	1440
1399897704592467628	1514	1522	1513	1440
1399897704612463213	1513	1513	1513	1441
1399897704627403137	1518	1513	1513	1441
1399897704642435403	1517	1516	1513	1440
1399897704662388566	1512	1522	1513	1439
1399897704677347178	1508	1516	1513	1440
1399897704692420612	1506	1519	1513	1439
1399897704712354416	1509	1524	1513	1439
1399897704727371987	1513	1526	1513	1439
1399897704742404840	1514	1527	1513	1438
1399897704762465277	1510	1523	1513	1438
1399897704777359964	1509	1515	1513	1438
1399897704792421617	1504	1522	1513	1437
1399897704812494545	1506	1535	1513	1437
1399897704827472100	1515	1530	1513	1436
1399897704842521445	1513	1519	1513	1437
1399897704862392074	1512	1512	1513	1437
1399897704877418464	1504	1520	1513	1437
1399897704892462687	1512	1524	1513	1437
1399897704912415683	1514	1521	1513	1437
1399897704927385694	1512	1513	1513	1437
1399897704942330769	1517	1525	1513	1437
1399897704962498847	1510	1518	1513	1436
1399897704977359895	1502	1520	1513	1437
1399897704992371069	1504	1514	1513	1437
1399897705012452901	1515	1525	1513	1436
1399897705027440679	1515	1525	1513	1436
1399897705057487785	1504	1517	1513	1437
1399897705072354363	1506	1511	1513	1437
1399897705092685105	1507	1508	1513	1437
1399897705112344251	1490	1515	1513	1437
1399897705127395551	1499	1512	1513	1437
1399897705157444417	1495	1526	1513	1437
1399897705172366991	1489	1529	1513	1436
1399897705192377498	1488	1522	1513	1437
1399897705212398788	1504	1523	1513	1437
1399897705227388351	1496	1529	1513	1436
1399897705242337207	1498	1528	1513	1436
1399897705262403265	1502	1521	1513	1437
1399897705277327615	1494	1516	1512	1437
1399897705292340043	1503	1521	1512	1437
1399897705312353182	1512	1529	1512	1436
1399897705327333932	1514	1528	1512	1437
1399897705342383824	1513	1520	1512	1437
1399897705362431940	1513	1516	1512	1437
1399897705377495633	1516	1528	1512	1436
1399897705407349544	1508	1523	1512	1436
1399897705422424317	1516	1526	1512	1436
1399897705437371265	1519	1527	1512	1436
1399897705452431028	1498	1518	1512	1437
1399897705467415291	1500	1516	1512	1437
1399897705487498033	1509	1524	1512	1436
1399897705507369282	1505	1511	1512	1436
1399897705522482977	1499	1509	1512	1437
1399897705537378358	1499	1510	1511	1436
1399897705557366371	1506	1516	1511	1436
1399897705572166607	1509	1516	1511	1437
1399897705587548443	1505	1512	1511	1437
1399897705607537645	1501	1511	1511	1436
1399897705622455551	1505	1518	1511	1436
1399897705637594580	1503	1516	1511	1437
1399897705657470146	1511	1516	1511	1437
1399897705672363330	1512	1511	1510	1438
1399897705687513674	1509	1517	1510	1437
1399897705702390508	1507	1529	1510	1437
1399897705717365413	1514	1518	1510	1439
1399897705737336220	1511	1513	1510	1439
1399897705757335481	1515	1517	1510	1440
1399897705772511253	1520	1524	1510	1439
1399897705787173478	1516	1530	1510	1439
1399897705807169364	1514	1522	1510	1440
1399897705822182587	1511	1516	1510	1440
1399897705837176146	1514	1523	1510	1440
1399897705857427599	1520	1521	1510	1440
1399897705872210206	1519	1519	1510	1441
1399897705887390689	1515	1516	1510	1441
1399897705907448145	1511	1512	1510	1441
1399897705922483542	1517	1518	1510	1441
1399897705937332198	1518	1521	1509	1441
1399897705952337172	1513	1517	1509	1442
1399897705972066177	1513	1515	1509	1442
1399897705987423407	1516	1519	1509	1442
1399897706007501750	1518	1520	1509	1442
1399897706022448516	1520	1519	1509	1442
1399897706037396541	1518	1511	1509	1443
1399897706057420765	1512	1518	1509	1443
1399897706072424583	1510	1523	1509	1443
1399897706087546520	1513	1527	1509	1443
1399897706107606138	1517	1532	1509	1442
1399897706122451387	1510	1532	1509	1443
1399897706137530699	1506	1534	1509	1442
1399897706157455675	1516	1534	1509	1442
1399897706172487145	1519	1538	1510	1442
1399897706187440186	1516	1534	1510	1442
1399897706202497314	1511	1526	1510	1442
1399897706222464203	1513	1530	1510	1443
1399897706242473165	1507	1532	1510	1443
1399897706262471571	1510	1530	1510	1443
1399897706277459573	1514	1540	1510	1442
1399897706307682538	1508	1524	1510	1444
1399897706322412358	1506	1537	1510	1444
1399897706342576681	1506	1538	1510	1443
1399897706362431527	1513	1538	1510	1443
1399897706377511066	1507	1534	1510	1443
1399897706402416063	1506	1532	1510	1444
1399897706422454647	1508	1538	1510	1444
1399897706437495323	1499	1539	1510	1444
1399897706452356894	1495	1533	1510	1445
1399897706472599371	1497	1538	1509	1444
1399897706487448164	1502	1543	1509	1444
1399897706507497746	1500	1540	1509	1445
1399897706522422688	1491	1531	1509	1446
1399897706537426440	1486	1534	1509	1446
1399897706557432172	1495	1538	1508	1446
1399897706572374831	1497	1535	1508	1446
1399897706587411487	1490	1541	1508	1446
1399897706607456155	1486	1534	1508	1447
1399897706622903413	1490	1525	1508	1447
1399897706637212420	1485	1537	1508	1446
1399897706657379156	1490	1537	1508	1447
1399897706672419981	1473	1521	1507	1448
1399897706687292083	1490	1523	1508	1448
1399897706707573668	1484	1521	1507	1448
1399897706722168318	1482	1528	1507	1448
1399897706737446084	1495	1534	1507	1447
1399897706757459531	1490	1536	1507	1447
1399897706772619112	1486	1531	1507	1448
1399897706787442348	1477	1532	1507	1448
1399897706807513746	1492	1530	1507	1448
1399897706822464278	1496	1529	1507	1446
1399897706837513919	1485	1531	1507	1447
1399897706857366745	1488	1522	1507	1447
1399897706877373482	1480	1525	1507	1447
1399897706892085858	1484	1518	1507	1448
1399897706912255983	1482	1523	1507	1448
1399897706927309227	1491	1523	1507	1446
1399897706942278119	1485	1538	1506	1446
1399897706962424886	1495	1525	1506	1446
1399897706977310854	1484	1518	1506	1446
1399897706992473125	1488	1521	1505	1447
1399897707012430996	1489	1524	1505	1446
1399897707027371125	1490	1523	1505	1446
1399897707042337833	1491	1515	1504	1447
1399897707062378441	1488	1515	1504	1447
1399897707077490245	1487	1524	1503	1446
1399897707092311962	1489	1523	1503	1445
1399897707122469325	1498	1519	1502	1447
1399897707137560552	1497	1527	1502	1446
1399897707152471883	1500	1523	1501	1446
1399897707167349866	1501	1523	1501	1446
1399897707187373101	1504	1517	1501	1447
1399897707207427792	1501	1513	1501	1447
1399897707222425479	1503	1512	1501	1447
1399897707237381780	1503	1521	1500	1447
1399897707257471506	1501	1520	1500	1446
1399897707272447110	1505	1515	1500	1446
1399897707287394363	1512	1515	1500	1447
1399897707307593508	1511	1508	1500	1447
1399897707322562106	1513	1512	1500	1446
1399897707337343339	1516	1513	1500	1446
1399897707362490878	1517	1514	1500	1446
1399897707377465622	1520	1508	1501	1446
1399897707392402626	1525	1510	1501	1446
1399897707412428450	1526	1508	1501	1445
1399897707427446254	1522	1506	1501	1446
1399897707442530180	1524	1511	1502	1445
1399897707462468824	1518	1513	1502	1446
1399897707477388905	1517	1506	1502	1445
1399897707497442619	1516	1506	1503	1445
1399897707512504032	1522	1510	1503	1445
1399897707527503654	1524	1509	1504	1445
1399897707542335064	1526	1511	1504	1446
1399897707562285815	1536	1504	1505	1445
1399897707577381191	1526	1507	1505	1445
1399897707592387104	1529	1520	1506	1444
1399897707612390267	1538	1520	1506	1443
1399897707627410984	1539	1521	1507	1444
1399897707642433892	1531	1511	1507	1443
1399897707662608284	1532	1518	1508	1445
1399897707677588443	1533	1517	1508	1443
1399897707692317735	1528	1523	1508	1444
1399897707712312008	1532	1511	1509	1444
1399897707727342839	1531	1516	1509	1444
1399897707742271059	1535	1519	1510	1443
1399897707762430708	1527	1512	1510	1443
1399897707777494606	1527	1518	1510	1443
1399897707792435741	1522	1526	1510	1442
1399897707812434926	1509	1512	1511	1443
1399897707837356614	1512	1520	1511	1442
1399897707857548970	1519	1521	1511	1442
1399897707872439351	1520	1522	1512	1442
1399897707887379845	1509	1515	1512	1443
1399897707902416899	1513	1515	1512	1443
1399897707917347737	1515	1524	1512	1442
1399897707937389416	1505	1528	1512	1442
1399897707957440210	1510	1534	1512	1441
1399897707972419389	1507	1529	1512	1442
1399897707987337963	1499	1525	1512	1442
1399897708007390405	1493	1528	1512	1443
1399897708022494070	1494	1525	1512	1442
1399897708037324701	1490	1528	1512	1443
1399897708057612204	1498	1536	1512	1442
1399897708072347810	1499	1542	1512	1441
1399897708087464040	1502	1535	1511	1441
1399897708107430934	1490	1542	1511	1441
1399897708122478108	1494	1538	1511	1441
1399897708137378026	1486	1528	1511	1442
1399897708152410580	1493	1532	1510	1442
1399897708172415470	1492	1537	1510	1441
1399897708192463285	1494	1535	1509	1441
1399897708212374359	1499	1542	1509	1441
1399897708227396436	1500	1534	1509	1440
1399897708257457667	1482	1547	1509	1440
1399897708272416102	1483	1533	1508	1440
1399897708292551706	1482	1542	1508	1439
1399897708312408006	1490	1536	1508	1439
1399897708327408169	1490	1534	1508	1439
1399897708352544605	1487	1542	1507	1439
1399897708372489469	1486	1545	1507	1439
1399897708387413646	1486	1544	1507	1438
1399897708402384249	1485	1539	1507	1439
1399897708422485208	1481	1537	1507	1438
1399897708437370680	1487	1544	1507	1439
1399897708457508612	1475	1537	1507	1439
1399897708472419764	1484	1529	1507	1438
1399897708487501686	1477	1543	1507	1438
1399897708507469817	1488	1528	1507	1439
1399897708522448404	1489	1535	1508	1438
1399897708537468439	1486	1525	1508	1439
1399897708557399776	1488	1530	1508	1438
1399897708577380401	1494	1527	1508	1439
1399897708592421073	1491	1531	1508	1438
1399897708612424246	1501	1526	1508	1439
1399897708627420875	1492	1524	1508	1439
1399897708647398684	1492	1520	1508	1440
1399897708662487960	1491	1531	1508	1440
1399897708677282035	1499	1530	1508	1439
1399897708692423352	1495	1538	1508	1440
1399897708712392437	1500	1539	1508	1440
1399897708727446537	1502	1534	1508	1440
1399897708742440810	1502	1536	1508	1440
1399897708762546126	1495	1541	1508	1440
1399897708777392175	1498	1539	1508	1441
1399897708792446578	1500	1541	1508	1441
1399897708822490961	1499	1532	1508	1441
1399897708837385595	1499	1528	1508	1442
1399897708852400368	1508	1525	1507	1441
1399897708867321716	1514	1531	1507	1441
1399897708887440064	1506	1528	1507	1442
1399897708907451292	1508	1530	1507	1442
1399897708922393818	1508	1526	1507	1441
1399897708937344525	1513	1526	1507	1442
1399897708957147048	1505	1526	1506	1442
1399897708972404213	1501	1521	1506	1442
1399897708987397274	1512	1524	1506	1442
1399897709007370893	1511	1525	1506	1442
1399897709022430752	1512	1525	1505	1441
1399897709037395481	1512	1526	1505	1441
1399897709057499306	1509	1531	1505	1441
1399897709072436754	1505	1527	1504	1441
1399897709087409882	1507	1516	1504	1442
1399897709102336138	1513	1516	1504	1442
1399897709117325948	1503	1520	1503	1442
1399897709142309048	1509	1522	1503	1441
1399897709162395841	1516	1519	1502	1441
1399897709177292239	1516	1523	1502	1441
1399897709197419507	1514	1522	1502	1442
1399897709212456545	1519	1515	1502	1442
1399897709227412524	1520	1508	1501	1442
1399897709242419924	1518	1513	1501	1442
1399897709262473414	1515	1515	1501	1441
1399897709277452056	1516	1511	1501	1441
1399897709292381932	1515	1509	1501	1441
1399897709312446772	1516	1515	1501	1442
1399897709327365751	1515	1514	1501	1441
1399897709342445699	1513	1513	1501	1441
1399897709362411070	1515	1512	1501	1442
1399897709377546927	1513	1503	1501	1442
1399897709392314486	1510	1502	1501	1441
1399897709412406106	1514	1512	1502	1441
1399897709427452535	1509	1516	1502	1441
1399897709442400316	1511	1514	1503	1440
1399897709462450704	1512	1511	1503	1440
1399897709477443259	1508	1517	1503	1440
1399897709492362509	1510	1513	1504	1440
1399897709512461820	1515	1504	1504	1440
1399897709527292546	1517	1505	1505	1441
1399897709542270070	1513	1503	1505	1441
1399897709562303947	1511	1501	1506	1441
1399897709577400856	1509	1500	1506	1442
1399897709592318663	1510	1501	1507	1442
1399897709612407721	1508	1501	1507	1442
1399897709627352692	1517	1497	1508	1442
1399897709642417525	1515	1509	1508	1442
1399897709662199728	1508	1512	1508	1441
1399897709677486185	1509	1506	1509	1442
1399897709692381833	1508	1504	1509	1443
1399897709712393820	1514	1495	1510	1444
1399897709727345757	1506	1503	1510	1443
1399897709742472684	1506	1510	1510	1443
1399897709762510690	1518	1511	1511	1443
1399897709787454816	1515	1508	1511	1444
1399897709807424453	1512	1507	1511	1444
1399897709822399128	1507	1510	1511	1444
1399897709837435326	1515	1516	1511	1445
1399897709852456841	1518	1508	1511	1445
1399897709872498673	1520	1503	1511	1446
1399897709887402941	1523	1497	1511	1446
1399897709907590079	1513	1502	1511	1446
1399897709922410003	1510	1515	1511	1446
1399897709937405399	1515	1518	1511	1446
1399897709957508786	1512	1519	1511	1447
1399897709972565816	1512	1508	1511	1448
1399897709987423040	1512	1507	1511	1448
1399897710007521681	1512	1515	1511	1449
1399897710037462816	1509	1519	1510	1448
1399897710057379747	1508	1535	1510	1448
1399897710072300526	1507	1527	1510	1448
1399897710087455207	1507	1521	1510	1449
1399897710102348682	1503	1522	1510	1450
1399897710122516385	1503	1528	1509	1449
1399897710142344544	1505	1531	1509	1450
1399897710162501868	1514	1530	1509	1450
1399897710177478594	1511	1528	1509	1450
1399897710207451137	1511	1525	1509	1449
1399897710222423712	1509	1523	1509	1450
1399897710242422134	1508	1522	1508	1450
1399897710262566161	1510	1528	1508	1449
1399897710277468675	1509	1524	1508	1449
1399897710302406189	1508	1529	1508	1450
1399897710322407115	1512	1535	1508	1449
1399897710337402132	1510	1537	1509	1449
1399897710352426577	1501	1524	1509	1449
1399897710372430769	1502	1513	1509	1450
1399897710387430977	1502	1517	1509	1449
1399897710407437908	1503	1523	1509	1449
1399897710422434437	1504	1530	1510	1448
1399897710437436029	1504	1522	1510	1448
1399897710457485317	1504	1523	1510	1448
1399897710472434414	1507	1520	1510	1448
1399897710487417984	1507	1520	1511	1448
1399897710507464879	1505	1523	1511	1448
1399897710527336407	1508	1515	1511	1448
1399897710542393252	1505	1518	1511	1448
1399897710562428932	1506	1530	1511	1447
1399897710577413471	1510	1530	1512	1446
1399897710592438951	1506	1527	1512	1447
1399897710612474168	1500	1517	1512	1447
1399897710627418360	1501	1515	1512	1447
1399897710642511605	1503	1524	1512	1446
1399897710662514504	1503	1527	1512	1446
1399897710677381395	1504	1533	1512	1445
1399897710692441707	1508	1529	1512	1446
1399897710712441353	1502	1519	1512	1446
1399897710727385549	1501	1515	1512	1447
1399897710742444646	1499	1516	1513	1447
1399897710762498160	1507	1518	1513	1446
1399897710777399181	1507	1519	1512	1445
1399897710792551965	1505	1517	1513	1446
1399897710812419907	1507	1510	1513	1446
1399897710827527177	1507	1503	1513	1447
1399897710842343526	1506	1502	1513	1447
1399897710862410953	1509	1507	1513	1447
1399897710877421960	1511	1511	1513	1446
1399897710892297043	1514	1510	1513	1446
1399897710912393989	1510	1506	1513	1446
1399897710927382109	1511	1502	1513	1447
1399897710942384981	1515	1507	1513	1447
1399897710962413783	1513	1512	1513	1446
1399897710977400869	1514	1508	1513	1447
1399897711007444811	1512	1509	1513	1447
1399897711022414262	1509	1512	1513	1448
1399897711037346991	1515	1504	1514	1449
1399897711052435572	1512	1505	1514	1449
1399897711067410127	1510	1506	1514	1448
1399897711092475759	1510	1505	1514	1449
1399897711112450919	1511	1512	1514	1448
1399897711127410049	1512	1516	1514	1449
1399897711142466162	1514	1516	1514	1449
1399897711162420274	1512	1511	1514	1449
1399897711177319806	1513	1503	1514	1450
1399897711192390883	1516	1511	1514	1449
1399897711212378982	1519	1519	1514	1448
1399897711227324103	1518	1517	1514	1448
1399897711252318878	1518	1512	1514	1449
1399897711272526188	1514	1518	1514	1449
1399897711287321105	1516	1517	1514	1450
1399897711312406796	1519	1520	1514	1450
1399897711327302294	1518	1508	1514	1450
1399897711342308999	1519	1508	1514	1451
1399897711362317758	1515	1519	1514	1450
1399897711377326325	1517	1525	1514	1450
1399897711392399713	1513	1523	1514	1450
1399897711412312264	1515	1524	1513	1450
1399897711427355171	1520	1519	1513	1451
1399897711442397554	1515	1523	1513	1451
1399897711462325840	1519	1523	1513	1450
1399897711487443934	1519	1524	1513	1451
1399897711507449864	1521	1531	1512	1451
1399897711522475622	1524	1530	1512	1451
1399897711537420185	1519	1525	1512	1452
1399897711552463974	1520	1518	1511	1452
1399897711577407054	1522	1531	1511	1452
1399897711592354545	1525	1519	1511	1452
1399897711612421990	1525	1531	1510	1452
1399897711627326070	1521	1538	1510	1451
1399897711642334350	1524	1535	1510	1451
1399897711662505673	1523	1526	1509	1452
1399897711677349404	1525	1510	1509	1453
1399897711692235014	1528	1518	1509	1453
1399897711722426822	1523	1521	1509	1453
1399897711742477175	1526	1515	1509	1452
1399897711762468829	1518	1516	1508	1452
1399897711777362347	1520	1533	1508	1453
1399897711792389935	1515	1525	1508	1452
1399897711812463686	1518	1518	1508	1453
1399897711827398561	1518	1510	1508	1454
1399897711842400692	1515	1513	1508	1453
1399897711862506745	1516	1529	1507	1452
1399897711877412972	1512	1532	1507	1452
1399897711892278861	1515	1530	1507	1453
1399897711912367197	1519	1520	1507	1454
1399897711927398393	1523	1520	1507	1454
1399897711942408814	1523	1529	1507	1453
1399897711962470693	1526	1536	1507	1453
1399897711987451994	1523	1529	1506	1453
1399897712007420432	1524	1528	1506	1452
1399897712022409820	1519	1530	1506	1452
1399897712037396904	1519	1526	1506	1452
1399897712052421178	1520	1530	1506	1452
1399897712072442780	1510	1521	1506	1452
1399897712087560527	1510	1522	1506	1452
1399897712107462504	1518	1520	1506	1451
1399897712122492274	1514	1520	1505	1452
1399897712137421644	1510	1512	1505	1452
1399897712157433219	1509	1516	1505	1452
1399897712172377309	1513	1517	1505	1451
1399897712187401115	1514	1517	1505	1451
1399897712207384400	1515	1525	1505	1451
1399897712227363920	1511	1523	1504	1451
1399897712242347929	1514	1522	1504	1450
1399897712262332460	1515	1536	1504	1450
1399897712277339051	1513	1537	1504	1449
1399897712292229275	1512	1532	1504	1450
1399897712312406750	1512	1532	1504	1450
1399897712327349491	1517	1529	1504	1450
1399897712342270002	1517	1534	1504	1450
1399897712362310725	1519	1522	1504	1449
1399897712377513558	1523	1527	1504	1448
1399897712392386296	1517	1532	1504	1447
1399897712412353841	1521	1519	1504	1448
1399897712427383307	1520	1513	1503	1448
1399897712442450055	1521	1510	1503	1448
1399897712472486684	1510	1512	1503	1448
1399897712487371743	1515	1501	1503	1448
1399897712507366947	1510	1509	1503	1448
1399897712522418177	1508	1521	1503	1447
1399897712537323237	1511	1521	1503	1446
1399897712552086086	1517	1529	1503	1445
1399897712572293315	1511	1525	1503	1446
1399897712587416481	1513	1525	1503	1445
1399897712607461850	1514	1525	1504	1446
1399897712622522825	1508	1528	1504	1445
1399897712637659137	1507	1529	1504	1445
1399897712657469555	1505	1527	1504	1444
1399897712677450706	1501	1530	1504	1443
1399897712692395670	1503	1537	1505	1442
1399897712712414202	1501	1525	1505	1444
1399897712737570148	1504	1528	1505	1442
1399897712752449647	1502	1521	1506	1441
1399897712777403015	1497	1525	1506	1441
1399897712792423714	1496	1516	1506	1441
1399897712812376426	1504	1512	1506	1440
1399897712827400497	1510	1510	1507	1440
1399897712842453053	1500	1514	1507	1440
1399897712862497346	1503	1518	1507	1439
1399897712877325535	1497	1519	1507	1439
1399897712892493600	1496	1521	1508	1439
1399897712912362414	1502	1516	1508	1438
1399897712937449803	1503	1516	1509	1438
1399897712952135106	1504	1516	1509	1438
1399897712972321573	1506	1515	1509	1437
1399897713002496814	1508	1514	1510	1437
1399897713017187962	1504	1515	1511	1436
1399897713037222793	1509	1513	1511	1438
1399897713057150782	1512	1514	1511	1437
1399897713072144672	1505	1518	1512	1436
1399897713087482980	1511	1505	1512	1437
1399897713107472458	1503	1510	1513	1437
1399897713122324489	1507	1502	1513	1437
1399897713137423984	1515	1503	1514	1437
1399897713157433873	1515	1508	1514	1436
1399897713172472185	1509	1517	1515	1436
1399897713192387322	1511	1506	1515	1437
1399897713212361430	1510	1501	1516	1437
1399897713237432480	1509	1511	1516	1436
1399897713252363340	1515	1507	1517	1437
1399897713267433972	1523	1508	1517	1436
1399897713292387757	1516	1512	1517	1436
1399897713312401294	1524	1515	1518	1436
1399897713327292977	1518	1508	1518	1437
1399897713357463463	1527	1514	1518	1436
1399897713372427354	1524	1514	1518	1437
1399897713392399784	1529	1508	1518	1437
1399897713412376795	1524	1497	1518	1438
1399897713427376333	1522	1495	1517	1438
1399897713457562849	1526	1519	1517	1437
1399897713487450773	1522	1507	1517	1438
1399897713502576445	1527	1507	1517	1439
1399897713522459826	1526	1512	1517	1438
1399897713537473644	1522	1510	1516	1440
1399897713557419594	1514	1505	1516	1440
1399897713572437745	1515	1504	1516	1441
1399897713587336057	1521	1516	1516	1440
1399897713607428476	1524	1518	1516	1441
1399897713622337155	1523	1515	1516	1441
1399897713637548862	1518	1515	1516	1442
1399897713657352010	1516	1515	1515	1442
1399897713672207264	1516	1516	1515	1442
1399897713687406647	1516	1521	1515	1442
1399897713707501910	1515	1522	1515	1443
1399897713722498268	1516	1515	1515	1444
1399897713737456031	1511	1511	1514	1445
1399897713752439657	1508	1513	1514	1444
1399897713772482937	1508	1516	1514	1444
1399897713792445656	1505	1516	1514	1444
1399897713812463486	1502	1516	1514	1444
1399897713827316435	1500	1519	1514	1445
1399897713857317458	1506	1509	1513	1445
1399897713872172567	1509	1515	1513	1444
1399897713892397443	1505	1516	1513	1445
1399897713912367060	1505	1514	1512	1444
1399897713927420324	1501	1512	1512	1445
1399897713952442157	1500	1515	1512	1445
1399897713977442754	1505	1508	1511	1446
1399897713997444760	1501	1512	1511	1446
1399897714012411729	1498	1513	1511	1445
1399897714027355811	1502	1517	1511	1445
1399897714057409054	1510	1507	1510	1445
1399897714072419996	1504	1511	1510	1446
1399897714092445696	1504	1508	1510	1446
1399897714112424108	1504	1508	1510	1445
1399897714127499942	1503	1499	1510	1447
1399897714157387789	1494	1516	1509	1445
1399897714172436176	1506	1511	1509	1446
1399897714187378805	1509	1506	1509	1447
1399897714222509146	1504	1507	1508	1447
1399897714237521595	1505	1513	1508	1447
1399897714257611297	1505	1503	1508	1448
1399897714272450015	1507	1502	1508	1448
1399897714287422040	1507	1508	1507	1448
1399897714307438728	1515	1520	1507	1447
1399897714322308867	1513	1518	1507	1448
1399897714337478935	1517	1510	1506	1449
1399897714357437653	1508	1504	1506	1449
1399897714372401173	1508	1509	1505	1449
1399897714387464403	1509	1511	1505	1449
1399897714407618429	1511	1515	1504	1449
1399897714422460453	1510	1512	1504	1450
1399897714437379185	1510	1509	1503	1449
1399897714457407338	1512	1516	1503	1449
1399897714467421373	1510	1519	1502	1449
1399897714487455727	1515	1526	1502	1449
1399897714507464008	1514	1520	1501	1448
1399897714522406024	1515	1519	1501	1449
1399897714537335586	1520	1509	1501	1450
1399897714557462323	1522	1496	1500	1449
1399897714572400903	1525	1503	1500	1448
1399897714587419776	1527	1516	1500	1448
1399897714607515977	1531	1520	1499	1447
1399897714622454507	1533	1512	1499	1447
1399897714637683001	1538	1500	1499	1448
1399897714657369907	1532	1508	1499	1448
1399897714672511959	1532	1509	1499	1446
1399897714687519733	1536	1521	1499	1445
1399897714702556058	1538	1525	1499	1445
1399897714717494852	1539	1518	1499	1446
1399897714737475310	1546	1511	1499	1446
1399897714757573987	1526	1517	1499	1445
1399897714772515153	1534	1517	1500	1445
1399897714792354030	1534	1519	1500	1444
1399897714812391993	1534	1532	1500	1445
1399897714827348252	1540	1530	1501	1445
1399897714857360760	1537	1525	1502	1444
1399897714872488633	1538	1527	1502	1443
1399897714892524868	1538	1523	1503	1444
1399897714912420210	1530	1526	1503	1443
1399897714937389583	1527	1519	1504	1443
1399897714952501693	1525	1524	1505	1443
1399897714967501710	1536	1514	1505	1443
1399897714987365316	1533	1520	1506	1442
1399897715007438960	1535	1523	1506	1442
1399897715022452132	1536	1527	1507	1443
1399897715037414323	1539	1518	1507	1443
1399897715057555025	1541	1515	1507	1444
1399897715072428019	1534	1522	1508	1443
1399897715087447874	1535	1532	1508	1443
1399897715107458564	1531	1532	1508	1443
1399897715122459863	1525	1531	1509	1443
1399897715137368806	1525	1526	1509	1443
1399897715162436653	1531	1529	1509	1443
1399897715177301462	1525	1528	1509	1444
1399897715192399909	1525	1531	1509	1444
1399897715212490540	1521	1527	1509	1444
1399897715227597198	1518	1519	1509	1444
1399897715257531626	1518	1526	1510	1444
1399897715272372366	1515	1518	1509	1445
1399897715292432085	1510	1521	1509	1445
1399897715312365005	1500	1528	1509	1445
1399897715327448067	1507	1524	1509	1445
1399897715357496642	1514	1528	1509	1446
1399897715372472471	1510	1526	1509	1445
1399897715392522286	1502	1530	1509	1446
1399897715422538885	1510	1531	1509	1446
1399897715437497990	1507	1531	1509	1446
1399897715452422177	1506	1536	1509	1447
1399897715467383342	1507	1527	1509	1448
1399897715487444079	1499	1538	1509	1448
1399897715507638654	1501	1526	1509	1448
1399897715522462383	1493	1534	1509	1447
1399897715537388351	1494	1537	1509	1447
1399897715557502737	1489	1541	1509	1448
1399897715572498233	1495	1540	1510	1448
1399897715587325026	1479	1538	1509	1449
1399897715607505616	1497	1521	1509	1449
1399897715622500794	1491	1525	1509	1450
1399897715637643417	1489	1527	1509	1448
1399897715662324824	1493	1533	1509	1449
1399897715677432336	1494	1528	1509	1449
1399897715692347119	1494	1529	1509	1449
1399897715712461869	1487	1530	1508	1449
1399897715727442251	1487	1544	1508	1449
1399897715742552227	1488	1536	1508	1449
1399897715762325224	1490	1537	1508	1449
1399897715777351800	1493	1532	1508	1449
1399897715792331838	1487	1542	1508	1448
1399897715812383394	1494	1526	1507	1448
1399897715827436094	1489	1535	1507	1448
1399897715842415740	1489	1520	1507	1450
1399897715862420906	1487	1534	1507	1449
1399897715877417770	1481	1529	1507	1450
1399897715892395544	1478	1532	1507	1448
1399897715912371872	1486	1532	1506	1448
1399897715937405006	1486	1536	1506	1449
1399897715957415767	1488	1531	1506	1449
1399897715972460658	1488	1539	1506	1449
1399897715987462620	1490	1537	1506	1449
1399897716002478010	1485	1523	1506	1449
1399897716022497481	1490	1537	1506	1448
1399897716037371844	1490	1538	1506	1448
1399897716052407045	1489	1538	1506	1448
1399897716072389079	1486	1540	1506	1448
1399897716087479077	1491	1540	1506	1448
1399897716112475905	1488	1529	1506	1447
1399897716127378690	1491	1530	1506	1448
1399897716152514418	1493	1530	1506	1448
1399897716172448364	1498	1527	1506	1449
1399897716187465589	1498	1520	1506	1448
1399897716207501708	1497	1522	1506	1448
1399897716222463259	1495	1529	1506	1448
1399897716237470893	1496	1535	1506	1447
1399897716257450857	1502	1533	1506	1447
1399897716272436571	1505	1528	1506	1447
1399897716287393469	1507	1526	1506	1447
1399897716307460829	1507	1533	1506	1447
1399897716322457797	1513	1529	1506	1447
1399897716342413293	1513	1526	1506	1447
1399897716362393744	1512	1527	1506	1447
1399897716377366127	1511	1526	1506	1446
1399897716407479341	1513	1520	1506	1447
1399897716422172381	1516	1521	1506	1447
1399897716437465271	1514	1507	1506	1447
1399897716457344503	1514	1516	1506	1447
1399897716472495732	1529	1520	1507	1458
1399897716492493908	1521	1516	1507	1457
1399897716512406725	1524	1508	1507	1455
1399897716527332026	1530	1510	1507	1452
1399897716557420743	1521	1510	1507	1453
1399897716572484012	1523	1508	1508	1450
1399897716592424985	1518	1505	1508	1451
1399897716612475839	1527	1504	1508	1451
1399897716637411562	1522	1504	1508	1452
1399897716652367960	1533	1503	1509	1453
1399897716667374698	1529	1501	1509	1455
1399897716687327387	1527	1495	1509	1457
1399897716707452664	1538	1499	1510	1461
1399897716722417477	1524	1501	1510	1460
1399897716737505349	1541	1500	1510	1463
1399897716757424034	1531	1503	1511	1466
1399897716772446154	1535	1497	1511	1470
1399897716787452722	1542	1501	1511	1472
1399897716807484366	1537	1488	1512	1475
1399897716822432464	1536	1493	1512	1473
1399897716837407096	1544	1489	1513	1475
1399897716862372894	1532	1487	1513	1475
1399897716877447166	1541	1494	1514	1473
1399897716892471076	1534	1491	1514	1469
1399897716912314992	1533	1509	1514	1467
1399897716927511544	1523	1494	1515	1463
1399897716942317132	1535	1496	1515	1465
1399897716962457276	1537	1478	1515	1458
1399897716977415498	1536	1490	1515	1453
1399897716992298475	1541	1493	1515	1446
1399897717012173036	1538	1508	1516	1439
1399897717027381262	1540	1500	1516	1434
1399897717042394465	1534	1487	1516	1434
1399897717062429387	1537	1488	1516	1429
1399897717077410743	1536	1495	1516	1423
1399897717107501509	1530	1494	1516	1418
1399897717122510058	1526	1498	1516	1418
1399897717137441679	1527	1503	1516	1416
1399897717152349719	1524	1515	1516	1415
1399897717167362956	1523	1511	1516	1418
1399897717192499873	1523	1511	1516	1420
1399897717212370364	1527	1515	1516	1423
1399897717227336410	1530	1515	1516	1427
1399897717257437980	1532	1508	1516	1433
1399897717272381294	1527	1515	1515	1438
1399897717292504697	1530	1515	1515	1443
1399897717312458475	1529	1514	1515	1448
1399897717327530923	1524	1514	1515	1452
1399897717357450796	1523	1522	1514	1454
1399897717377465368	1525	1515	1514	1458
1399897717392485761	1521	1512	1514	1460
1399897717412475200	1513	1516	1514	1459
1399897717427553310	1517	1523	1513	1458
1399897717442469522	1523	1532	1513	1458
1399897717462476480	1521	1531	1513	1456
1399897717477420096	1519	1532	1513	1453
1399897717492363480	1521	1531	1512	1451
1399897717512500761	1522	1529	1512	1447
1399897717527448722	1513	1533	1512	1443
1399897717542439765	1511	1530	1512	1444
1399897717562461286	1516	1533	1511	1440
1399897717577383025	1514	1546	1511	1436
1399897717592444671	1509	1545	1511	1433
1399897717612372935	1517	1534	1511	1433
1399897717627616553	1511	1547	1511	1430
1399897717642460747	1512	1545	1511	1431
1399897717662651432	1521	1529	1511	1430
1399897717677363268	1509	1544	1511	1432
1399897717692344440	1524	1535	1510	1433
1399897717712391610	1515	1554	1510	1435
1399897717727356874	1511	1546	1510	1438
1399897717742400247	1510	1548	1510	1438
1399897717762518721	1514	1539	1510	1441
1399897717777281055	1508	1546	1510	1443
1399897717792299314	1518	1546	1509	1446
1399897717822293639	1515	1534	1509	1449
1399897717837275375	1517	1536	1509	1452
1399897717857289311	1510	1531	1509	1453
1399897717872240791	1506	1531	1508	1453
1399897717887291032	1506	1532	1508	1453
1399897717912321612	1515	1529	1508	1453
1399897717927291804	1512	1529	1508	1451
1399897717942268452	1515	1529	1508	1450
1399897717962500881	1518	1527	1507	1448
1399897717977479809	1517	1523	1507	1446
1399897717992452440	1517	1520	1507	1444
1399897718012531983	1515	1519	1507	1442
1399897718027408242	1514	1517	1507	1440
1399897718052598660	1518	1523	1507	1438
1399897718077581563	1518	1526	1507	1436
1399897718092354324	1522	1526	1507	1436
1399897718122578432	1519	1524	1507	1437
1399897718137477822	1522	1531	1507	1438
1399897718157572210	1515	1519	1507	1442
1399897718172388292	1518	1508	1507	1446
1399897718187456015	1512	1506	1507	1450
1399897718207444224	1516	1500	1507	1456
1399897718222493299	1516	1511	1507	1456
1399897718237439599	1517	1511	1507	1460
1399897718257486866	1524	1510	1507	1466
1399897718272351973	1518	1510	1508	1470
1399897718287479903	1518	1514	1508	1475
1399897718312468694	1523	1498	1508	1477
1399897718327407631	1520	1504	1508	1479
1399897718342410204	1523	1504	1508	1480
1399897718362408288	1534	1491	1508	1480
1399897718377416199	1528	1496	1509	1480
1399897718392396066	1535	1492	1509	1478
1399897718412479237	1531	1500	1509	1475
1399897718427372474	1532	1497	1509	1471
1399897718442321101	1534	1493	1509	1470
1399897718462306704	1527	1494	1509	1466
1399897718477302684	1526	1493	1510	1459
1399897718492359917	1530	1489	1510	1453
1399897718512360775	1522	1494	1510	1447
1399897718527401197	1521	1493	1510	1441
1399897718542406889	1522	1496	1510	1440
1399897718562418485	1519	1505	1511	1434
1399897718577559537	1513	1501	1511	1429
1399897718592494342	1506	1502	1511	1427
1399897718612481589	1503	1510	1511	1423
1399897718637617387	1505	1510	1511	1422
1399897718652460009	1524	1498	1511	1421
1399897718672316463	1515	1496	1511	1423
1399897718687448960	1517	1495	1511	1426
1399897718702477955	1517	1501	1511	1425
1399897718722535038	1519	1509	1511	1428
1399897718737477523	1508	1506	1511	1432
1399897718752409505	1514	1504	1511	1437
1399897718772504674	1514	1503	1511	1442
1399897718802495057	1522	1508	1511	1447
1399897718822577853	1522	1498	1511	1451
1399897718837511761	1523	1509	1511	1454
1399897718862528078	1522	1511	1510	1458
1399897718877422033	1518	1515	1510	1461
1399897718892372978	1521	1518	1510	1462
1399897718912455077	1524	1525	1510	1462
1399897718927399349	1524	1528	1509	1462
1399897718947517966	1528	1531	1509	1461
1399897718962461139	1529	1538	1509	1461
1399897718977474008	1527	1543	1509	1459
1399897718992384464	1524	1546	1508	1458
1399897719012303894	1524	1542	1508	1456
1399897719027275736	1524	1540	1508	1456
1399897719042412784	1524	1542	1508	1456
1399897719062413561	1522	1533	1507	1454
1399897719077447214	1521	1535	1507	1453
1399897719092548420	1517	1547	1507	1453
1399897719112469854	1523	1546	1507	1453
1399897719127404265	1516	1547	1506	1454
1399897719157479869	1511	1525	1506	1456
1399897719172185131	1504	1539	1505	1460
1399897719192428514	1508	1531	1505	1462
1399897719212527769	1495	1530	1505	1466
1399897719227431203	1493	1521	1505	1469
1399897719247392210	1492	1528	1504	1472
1399897719262320985	1492	1536	1504	1471
1399897719277342947	1492	1534	1504	1473
1399897719307540588	1500	1540	1504	1476
1399897719327376018	1507	1541	1504	1475
1399897719342427704	1501	1538	1504	1475
1399897719362526362	1502	1544	1504	1474
1399897719377504631	1502	1537	1504	1471
1399897719392486049	1512	1533	1504	1469
1399897719412298375	1505	1532	1505	1464
1399897719427435320	1505	1541	1505	1459
1399897719442650707	1513	1539	1505	1457
1399897719462437306	1511	1544	1506	1451
1399897719477431823	1520	1535	1506	1445
1399897719492367497	1531	1534	1506	1439
1399897719512378431	1498	1540	1507	1433
1399897719527391096	1500	1520	1507	1428
1399897719542381467	1494	1527	1508	1427
1399897719562306916	1499	1531	1508	1422
1399897719577341672	1493	1533	1509	1417
1399897719592340362	1498	1530	1509	1415
1399897719612427907	1506	1523	1510	1414
1399897719627406922	1507	1511	1510	1415
1399897719642481948	1505	1516	1511	1414
1399897719662455240	1507	1521	1511	1415
1399897719677383617	1506	1523	1512	1417
1399897719692406799	1506	1526	1513	1420
1399897719712383620	1500	1538	1513	1423
1399897719727476864	1503	1519	1514	1427
1399897719742333852	1506	1515	1514	1427
1399897719762328032	1495	1515	1515	1433
1399897719777336277	1498	1511	1515	1436
1399897719792407541	1506	1522	1516	1439
1399897719812394083	1510	1518	1516	1441
1399897719827368959	1511	1516	1516	1444
1399897719842303213	1518	1527	1516	1444
1399897719862535182	1513	1519	1516	1446
1399897719877408905	1522	1528	1516	1447
1399897719892415048	1521	1518	1516	1446
1399897719912405222	1516	1506	1516	1445
1399897719927392192	1520	1517	1516	1441
1399897719942392887	1516	1513	1516	1442
1399897719962115818	1520	1515	1516	1437
1399897719977452042	1520	1518	1516	1434
1399897719992315626	1525	1515	1516	1429
1399897720012342219	1517	1510	1516	1425
1399897720037452736	1524	1507	1516	1420
1399897720057445432	1519	1510	1516	1417
1399897720072427337	1514	1508	1516	1414
1399897720087408905	1520	1497	1516	1412
1399897720102327546	1512	1497	1516	1412
1399897720122378221	1510	1512	1516	1411
1399897720137323232	1511	1506	1515	1410
1399897720157354149	1514	1516	1515	1411
1399897720172335021	1517	1515	1515	1413
1399897720187421738	1519	1514	1515	1416
1399897720207471259	1515	1511	1514	1419
1399897720222376893	1506	1505	1514	1420
1399897720237450231	1509	1507	1514	1423
1399897720257486433	1517	1505	1513	1426
1399897720272385713	1520	1507	1513	1429
1399897720292419446	1517	1518	1512	1432
1399897720312422813	1519	1516	1511	1434
1399897720327367794	1519	1516	1511	1436
1399897720342431953	1518	1514	1510	1437
1399897720362573336	1529	1520	1510	1438
1399897720377392870	1526	1519	1510	1438
1399897720392387680	1535	1515	1509	1437
1399897720412431777	1526	1513	1509	1436
1399897720427408403	1522	1517	1508	1434
1399897720442391692	1529	1525	1508	1435
1399897720472425701	1524	1516	1507	1431
1399897720487407188	1529	1507	1507	1429
1399897720507461429	1521	1517	1507	1428
1399897720522480480	1526	1521	1506	1428
1399897720537448641	1520	1513	1506	1428
1399897720552516090	1513	1521	1506	1428
1399897720577430736	1519	1524	1506	1429
1399897720592451095	1527	1531	1506	1430
1399897720612385138	1523	1517	1505	1434
1399897720627486478	1509	1521	1505	1438
1399897720642344858	1527	1517	1505	1438
1399897720662458319	1524	1519	1506	1444
1399897720677417730	1518	1527	1506	1449
1399897720692444500	1513	1527	1506	1455
1399897720722423435	1517	1525	1506	1460
1399897720742474196	1517	1523	1506	1467
1399897720762489282	1532	1522	1506	1472
1399897720787458232	1528	1527	1506	1479
1399897720802640010	1532	1523	1507	1480
1399897720817319572	1531	1525	1507	1480
1399897720837391672	1532	1526	1507	1481
1399897720857472055	1523	1531	1507	1480
1399897720872477426	1522	1521	1507	1480
1399897720887483633	1527	1527	1508	1476
1399897720907433141	1520	1506	1508	1474
1399897720922510945	1523	1518	1508	1472
1399897720937419683	1528	1514	1508	1467
1399897720957376665	1519	1530	1508	1461
1399897720977414884	1523	1517	1509	1456
1399897720992409856	1521	1522	1509	1450
1399897721022536479	1524	1527	1509	1444
1399897721037398973	1525	1519	1509	1439
1399897721062515473	1521	1521	1509	1434
1399897721077445203	1522	1516	1509	1431
1399897721092498437	1518	1516	1509	1429
1399897721112466621	1525	1524	1509	1427
1399897721127453968	1523	1520	1509	1427
1399897721142413857	1523	1520	1510	1427
1399897721162335157	1520	1526	1510	1427
1399897721177525082	1537	1524	1510	1430
1399897721192383145	1534	1515	1510	1433
1399897721212333936	1527	1515	1510	1437
1399897721227355802	1536	1510	1511	1441
1399897721242331988	1538	1502	1511	1441
1399897721262462049	1534	1508	1511	1446
1399897721277429785	1537	1508	1511	1449
1399897721302395417	1535	1509	1512	1452
1399897721322432022	1540	1503	1512	1456
1399897721337386242	1536	1502	1512	1457
1399897721352408708	1532	1507	1512	1459
1399897721372422482	1544	1506	1513	1459
1399897721387453706	1547	1516	1513	1458
1399897721402465286	1537	1494	1513	1459
1399897721422708336	1532	1501	1513	1458
1399897721437489442	1532	1505	1514	1457
1399897721472494045	1529	1496	1514	1452
1399897721487406282	1529	1496	1514	1450
1399897721502420103	1537	1496	1514	1450
1399897721527375502	1537	1504	1515	1446
1399897721542535400	1533	1498	1515	1447
1399897721562513119	1526	1497	1515	1446
1399897721577515761	1532	1488	1515	1445
1399897721597502173	1517	1497	1515	1447
1399897721612389570	1524	1497	1514	1448
1399897721627442493	1516	1509	1514	1450
1399897721642486072	1522	1499	1514	1450
1399897721662373218	1537	1491	1514	1454
1399897721687447376	1534	1494	1514	1460
1399897721712350512	1534	1491	1514	1463
1399897721727337749	1533	1501	1514	1467
1399897721742376670	1536	1496	1513	1466
1399897721762452067	1537	1501	1513	1470
1399897721787411251	1533	1500	1513	1474
1399897721802436264	1523	1503	1513	1473
1399897721822591586	1533	1500	1512	1475
1399897721837329326	1524	1493	1512	1474
1399897721852435226	1523	1498	1512	1473
1399897721872475534	1515	1501	1512	1470
1399897721887505862	1520	1512	1511	1466
1399897721902398094	1525	1503	1511	1466
1399897721922476949	1523	1507	1510	1462
1399897721937448233	1523	1501	1510	1458
1399897721962629343	1520	1518	1509	1452
1399897721977396507	1523	1513	1509	1448
1399897722002528995	1522	1507	1508	1444
1399897722022487550	1521	1509	1508	1440
1399897722037408687	1523	1508	1508	1437
1399897722057450728	1529	1506	1507	1436
1399897722072483141	1527	1510	1507	1435
1399897722087484591	1524	1504	1507	1436
1399897722107472446	1518	1509	1507	1438
1399897722122463502	1515	1512	1507	1437
1399897722137390208	1517	1516	1506	1440
1399897722157537349	1513	1520	1506	1444
1399897722172450227	1517	1517	1506	1448
1399897722192399572	1517	1517	1506	1453
1399897722212446210	1517	1523	1506	1458
1399897722237390980	1515	1519	1506	1464
1399897722257499196	1521	1523	1506	1469
1399897722267397070	1519	1525	1507	1473
1399897722287402428	1516	1526	1507	1477
1399897722302295374	1519	1522	1507	1476
1399897722322387193	1522	1523	1507	1479
1399897722337640216	1525	1526	1507	1480
1399897722357461848	1520	1524	1508	1479
1399897722372370991	1517	1526	1508	1478
1399897722387450759	1516	1526	1508	1475
1399897722407446311	1514	1517	1508	1472
1399897722422383097	1518	1513	1509	1473
1399897722437388889	1523	1513	1509	1468
1399897722457462496	1522	1514	1509	1462
1399897722487479440	1521	1514	1510	1452
1399897722502402552	1522	1512	1510	1451
1399897722527356596	1522	1513	1510	1441
1399897722542417595	1524	1505	1510	1441
1399897722562572235	1523	1509	1511	1438
1399897722577472739	1520	1501	1511	1435
1399897722592517900	1518	1510	1511	1433
1399897722612417555	1535	1510	1511	1432
1399897722627433224	1537	1507	1511	1432
1399897722642489836	1535	1501	1512	1432
1399897722672585011	1537	1507	1512	1435
1399897722692423323	1549	1515	1512	1436
1399897722712437822	1540	1508	1512	1439
1399897722727453985	1540	1503	1512	1441
1399897722752363295	1540	1500	1512	1444
1399897722767301709	1544	1506	1512	1446
1399897722787380593	1542	1497	1512	1448
1399897722807489817	1535	1498	1512	1449
1399897722822483596	1546	1502	1512	1449
1399897722837458304	1542	1498	1512	1449
1399897722857473883	1546	1498	1512	1448
1399897722872669890	1550	1499	1513	1447
1399897722887507568	1545	1498	1513	1446
1399897722907504346	1543	1491	1512	1444
1399897722922436279	1549	1496	1513	1444
1399897722937443561	1546	1501	1513	1442
1399897722957470803	1561	1500	1512	1438
1399897722972497766	1561	1498	1513	1438
1399897722987465319	1566	1490	1513	1437
1399897723002511888	1561	1490	1513	1436
1399897723027417560	1561	1493	1513	1436
1399897723042468428	1568	1496	1513	1436
1399897723062535095	1561	1501	1513	1437
1399897723077395127	1567	1500	1513	1438
1399897723092374630	1568	1498	1513	1441
1399897723112467681	1559	1516	1513	1446
1399897723127469190	1559	1502	1513	1451
1399897723142536823	1555	1498	1513	1451
1399897723172486842	1554	1510	1513	1461
1399897723192433056	1548	1510	1513	1467
1399897723212379147	1538	1522	1513	1472
1399897723237436446	1533	1522	1513	1477
1399897723252522678	1526	1525	1513	1482
1399897723272441199	1519	1531	1513	1485
1399897723287380921	1524	1530	1513	1487
1399897723307464531	1549	1507	1513	1487
1399897723322447859	1547	1508	1513	1488
1399897723337375611	1547	1511	1513	1487
1399897723357481594	1543	1505	1513	1485
1399897723372417519	1542	1504	1513	1482
1399897723387357004	1540	1507	1513	1478
1399897723407507792	1543	1510	1512	1472
1399897723422398390	1539	1518	1512	1471
1399897723442490950	1534	1510	1512	1465
1399897723462463831	1539	1510	1512	1458
1399897723477342805	1537	1514	1512	1452
1399897723497396958	1535	1511	1512	1447
1399897723512458320	1532	1505	1512	1442
1399897723527435822	1538	1510	1512	1437
1399897723542451991	1532	1506	1512	1436
1399897723562579287	1527	1518	1512	1433
1399897723577389034	1530	1508	1512	1430
1399897723592491262	1518	1505	1512	1430
1399897723612443353	1524	1524	1512	1431
1399897723627402731	1516	1522	1512	1430
1399897723642492572	1517	1520	1512	1430
1399897723662474045	1509	1517	1512	1434
1399897723687419487	1508	1526	1512	1439
1399897723707421871	1522	1524	1512	1443
1399897723722314213	1501	1525	1512	1444
1399897723737499620	1502	1525	1512	1447
1399897723752454703	1508	1510	1512	1451
1399897723772387782	1505	1521	1512	1454
1399897723787336278	1515	1525	1512	1455
1399897723807484828	1511	1524	1512	1456
1399897723822477778	1505	1533	1512	1456
1399897723837438999	1504	1524	1512	1456
1399897723857482931	1498	1528	1512	1456
1399897723872396889	1504	1527	1512	1454
1399897723887436232	1499	1523	1512	1454
1399897723907394025	1507	1512	1512	1450
1399897723927301070	1493	1527	1512	1446
1399897723942418964	1494	1523	1512	1447
1399897723962466845	1492	1510	1512	1444
1399897723977552259	1487	1507	1512	1440
1399897723992319733	1498	1510	1512	1437
1399897724012445830	1498	1525	1512	1434
1399897724027420785	1490	1530	1513	1431
1399897724042327316	1488	1523	1513	1432
1399897724062551868	1497	1508	1513	1432
1399897724077426279	1491	1505	1513	1432
1399897724092416103	1499	1514	1513	1431
1399897724112388172	1497	1515	1513	1434
1399897724127480083	1502	1519	1513	1435
1399897724142416980	1486	1520	1514	1434
1399897724162411667	1508	1515	1514	1438
1399897724187349866	1502	1523	1514	1443
1399897724207423543	1499	1524	1514	1446
1399897724217431874	1502	1522	1514	1445
1399897724257539872	1503	1521	1515	1450
1399897724272372154	1506	1525	1515	1451
1399897724287390652	1501	1528	1515	1450
1399897724302511262	1498	1525	1515	1451
1399897724322531404	1500	1519	1515	1450
1399897724337440878	1501	1519	1515	1449
1399897724352400665	1499	1508	1515	1447
1399897724372491598	1497	1509	1515	1445
1399897724392095970	1503	1521	1515	1439
1399897724412490737	1506	1516	1514	1437
1399897724437360378	1504	1518	1514	1433
1399897724452515394	1503	1520	1514	1428
1399897724467489023	1508	1525	1514	1425
1399897724487458945	1517	1526	1514	1423
1399897724507483683	1520	1526	1513	1422
1399897724522397100	1523	1532	1513	1422
1399897724537407409	1518	1530	1513	1421
1399897724557420100	1525	1538	1513	1422
1399897724572382662	1524	1524	1512	1425
1399897724587387382	1522	1533	1512	1429
1399897724607362976	1528	1525	1511	1433
1399897724627327494	1529	1538	1511	1438
1399897724642444831	1531	1532	1510	1439
1399897724662407806	1524	1529	1510	1446
1399897724677352280	1526	1527	1509	1452
1399897724692404865	1522	1526	1509	1459
1399897724722456932	1528	1527	1508	1465
1399897724737126767	1537	1525	1507	1470
1399897724752545407	1528	1535	1507	1474
1399897724772370452	1530	1528	1506	1480
1399897724787359930	1530	1524	1506	1484
1399897724802554559	1531	1513	1505	1484
1399897724822380572	1535	1517	1505	1485
1399897724837425070	1535	1523	1505	1485
1399897724852430451	1536	1521	1504	1483
1399897724872363833	1548	1529	1504	1481
1399897724892420387	1542	1508	1504	1479
1399897724912459118	1543	1518	1504	1475
1399897724937499452	1541	1509	1504	1470
1399897724952547871	1535	1508	1504	1466
1399897724972440193	1537	1506	1504	1461
1399897724992444158	1537	1504	1504	1456
1399897725012407364	1527	1497	1505	1452
1399897725027440032	1525	1498	1505	1448
1399897725057407129	1509	1487	1505	1446
1399897725072464839	1509	1491	1506	1443
1399897725092396848	1511	1489	1506	1443
1399897725112551284	1531	1498	1507	1443
1399897725127411036	1518	1498	1507	1443
1399897725157465405	1530	1504	1508	1443
1399897725187479550	1526	1498	1509	1447
1399897725202476612	1523	1495	1510	1447
1399897725222492535	1530	1492	1510	1448
1399897725237401904	1527	1496	1510	1450
1399897725257447824	1530	1500	1511	1449
1399897725272442475	1528	1502	1512	1451
1399897725287448138	1528	1500	1512	1450
1399897725307471163	1523	1497	1512	1449
1399897725322557689	1529	1495	1513	1450
1399897725337383673	1519	1500	1514	1449
1399897725357513039	1531	1496	1514	1447
1399897725377462394	1529	1503	1515	1443
1399897725392432896	1529	1497	1515	1441
1399897725412488169	1513	1482	1515	1437
1399897725427383139	1513	1482	1516	1435
1399897725447520885	1521	1489	1516	1432
1399897725462519972	1506	1490	1516	1432
1399897725477424639	1510	1491	1517	1429
1399897725492387597	1512	1482	1517	1429
1399897725512490717	1504	1494	1517	1429
1399897725527401859	1507	1498	1517	1430
1399897725542431279	1510	1498	1518	1429
1399897725562336934	1515	1503	1518	1431
1399897725577433970	1517	1496	1518	1435
1399897725592381684	1513	1492	1518	1439
1399897725622437233	1519	1497	1518	1442
1399897725637477807	1516	1498	1518	1449
1399897725657474987	1513	1497	1518	1454
1399897725672336128	1517	1504	1518	1459
1399897725687373362	1521	1506	1518	1464
1399897725712494239	1516	1506	1518	1469
1399897725727421772	1522	1510	1518	1472
1399897725742345383	1523	1512	1517	1473
1399897725762308576	1521	1511	1517	1475
1399897725777332202	1523	1510	1517	1478
1399897725792404453	1528	1511	1516	1479
1399897725812531661	1527	1516	1516	1478
1399897725827428279	1526	1517	1516	1476
1399897725852470795	1535	1509	1515	1473
1399897725877417179	1539	1518	1515	1468
1399897725892481424	1540	1513	1515	1465
1399897725922510634	1533	1515	1515	1459
1399897725937523418	1534	1512	1514	1453
1399897725957483103	1547	1502	1514	1448
1399897725972437315	1548	1508	1514	1443
1399897725987407397	1554	1520	1514	1438
1399897726007413166	1554	1503	1514	1434
1399897726022452562	1553	1505	1514	1435
1399897726037363312	1554	1518	1513	1431
1399897726057454595	1564	1528	1513	1431
1399897726072425275	1557	1518	1513	1431
1399897726087462068	1549	1519	1513	1433
1399897726112347778	1563	1527	1513	1435
1399897726127376141	1558	1521	1513	1437
1399897726142388590	1564	1522	1512	1438
1399897726162390834	1565	1528	1512	1442
1399897726177397769	1562	1522	1512	1446
1399897726192332193	1559	1522	1512	1449
1399897726212287738	1564	1520	1512	1454
1399897726227330572	1567	1514	1511	1458
1399897726242318848	1556	1531	1511	1457
1399897726262388746	1562	1527	1511	1460
1399897726277258573	1563	1518	1511	1462
1399897726292441655	1546	1525	1510	1464
1399897726312330024	1559	1517	1510	1466
1399897726327350681	1558	1520	1510	1465
1399897726342335021	1545	1522	1510	1466
1399897726372450990	1565	1529	1509	1461
1399897726387430016	1559	1533	1509	1458
1399897726402603536	1552	1533	1508	1459
1399897726417393682	1547	1529	1508	1456
