#Time	 Roll 	 Pitch 	 Yaw 	 Thrust
1399896589514016339	1519	1523	1509	1378
1399896589534322199	1517	1520	1509	1379
1399896589559185538	1519	1520	1509	1379
1399896589579056017	1520	1520	1509	1380
1399896589594140581	1519	1519	1509	1380
1399896589609025109	1520	1518	1509	1381
1399896589629069616	1520	1521	1509	1381
1399896589643857145	1516	1521	1509	1382
1399896589663973872	1520	1517	1509	1382
1399896589679092918	1522	1519	1509	1383
1399896589709023406	1519	1521	1509	1384
1399896589729002607	1520	1521	1509	1384
1399896589759160027	1518	1522	1509	1385
1399896589779083603	1520	1520	1509	1385
1399896589809207359	1523	1524	1509	1386
1399896589819135312	1523	1519	1509	1386
1399896589834051128	1520	1521	1509	1386
1399896589854073852	1518	1522	1509	1387
1399896589868976791	1517	1523	1509	1388
1399896589883939773	1520	1519	1509	1388
1399896589904072898	1524	1523	1509	1388
1399896589918962263	1518	1519	1509	1388
1399896589943772841	1520	1524	1509	1389
1399896589964027607	1520	1521	1509	1390
1399896589994006034	1523	1522	1509	1390
1399896590014005495	1524	1520	1509	1391
1399896590044168504	1523	1522	1509	1392
1399896590064158905	1524	1525	1509	1393
1399896590078972445	1524	1524	1509	1393
1399896590094132323	1522	1527	1509	1393
1399896590114037588	1525	1522	1509	1393
1399896590129186328	1524	1522	1509	1394
1399896590143798357	1524	1520	1509	1396
1399896590164177096	1519	1522	1509	1396
1399896590194078825	1524	1524	1509	1396
1399896590214042406	1521	1528	1509	1396
1399896590244100343	1521	1526	1509	1398
1399896590264077961	1524	1532	1509	1398
1399896590294226755	1521	1525	1509	1399
1399896590314053689	1524	1524	1509	1400
1399896590329000985	1520	1520	1509	1401
1399896590344067436	1521	1525	1509	1401
1399896590364072152	1525	1518	1509	1401
1399896590379131944	1516	1520	1509	1402
1399896590394065429	1515	1529	1510	1401
1399896590414075691	1516	1526	1510	1401
1399896590444053577	1510	1524	1510	1402
1399896590464060162	1510	1522	1510	1403
1399896590494136821	1511	1522	1510	1405
1399896590514053033	1517	1526	1510	1405
1399896590544021765	1518	1523	1510	1407
1399896590558985499	1524	1523	1511	1408
1399896590579124694	1522	1516	1511	1408
1399896590594200296	1523	1519	1510	1408
1399896590614083827	1526	1523	1510	1408
1399896590629052302	1520	1523	1510	1409
1399896590644257657	1521	1529	1510	1409
1399896590664020191	1524	1525	1510	1409
1399896590694042508	1522	1525	1511	1409
1399896590714161657	1517	1530	1511	1409
1399896590744089282	1523	1525	1512	1411
1399896590763999705	1519	1524	1512	1411
1399896590784080768	1517	1534	1513	1409
1399896590824050786	1507	1523	1513	1410
1399896590833991985	1516	1519	1513	1410
1399896590854149098	1519	1511	1514	1409
1399896590869077608	1504	1526	1514	1410
1399896590894099083	1513	1521	1514	1409
1399896590914246798	1511	1525	1514	1410
1399896590944231770	1506	1529	1515	1408
1399896590964049328	1497	1525	1515	1409
1399896590994015710	1498	1519	1515	1409
1399896591014076138	1495	1522	1515	1408
1399896591034015148	1493	1516	1515	1408
1399896591054066240	1498	1519	1515	1408
1399896591069040585	1500	1502	1515	1409
1399896591084199582	1494	1510	1516	1409
1399896591104099788	1506	1518	1516	1410
1399896591119117250	1499	1518	1515	1409
1399896591134127006	1500	1516	1515	1410
1399896591164067720	1510	1530	1516	1410
1399896591179075347	1508	1532	1516	1410
1399896591214121624	1491	1527	1516	1410
1399896591234038803	1486	1515	1516	1410
1399896591259096052	1487	1519	1516	1411
1399896591279005649	1486	1525	1516	1412
1399896591294007145	1492	1531	1516	1412
1399896591314090801	1494	1517	1516	1411
1399896591329049414	1503	1528	1517	1412
1399896591344174106	1496	1531	1517	1413
1399896591364034001	1489	1512	1517	1413
1399896591379091126	1504	1506	1517	1413
1399896591394085093	1478	1517	1517	1413
1399896591429037343	1495	1515	1517	1413
1399896591443978168	1503	1516	1517	1413
1399896591464009111	1487	1520	1517	1414
1399896591484026540	1486	1520	1517	1415
1399896591509068615	1504	1514	1517	1414
1399896591528993246	1513	1512	1517	1415
1399896591544155598	1507	1505	1516	1415
1399896591559035261	1514	1523	1517	1414
1399896591579056869	1518	1513	1516	1415
1399896591594333289	1512	1517	1516	1415
1399896591613923976	1520	1514	1516	1414
1399896591629106593	1522	1510	1516	1413
1399896591659195277	1502	1506	1516	1415
1399896591679134490	1501	1514	1516	1414
1399896591709259332	1508	1510	1516	1414
1399896591729136498	1505	1512	1516	1414
1399896591759163465	1505	1494	1515	1415
1399896591769231911	1505	1507	1515	1414
1399896591783943552	1501	1508	1515	1415
1399896591804008436	1506	1516	1515	1414
1399896591818941048	1505	1508	1515	1414
1399896591833968883	1507	1515	1515	1414
1399896591853962382	1512	1508	1515	1414
1399896591869075740	1516	1500	1515	1414
1399896591893704732	1515	1506	1515	1414
1399896591919122624	1521	1504	1515	1412
1399896591934097414	1518	1505	1514	1414
1399896591964209558	1521	1510	1514	1413
1399896591979123748	1517	1503	1514	1414
1399896592009071562	1519	1506	1514	1414
1399896592029096886	1517	1498	1514	1413
1399896592044120038	1522	1508	1514	1412
1399896592064042655	1519	1508	1513	1413
1399896592079166175	1516	1509	1513	1413
1399896592094087226	1520	1503	1513	1414
1399896592114064774	1519	1495	1513	1416
1399896592144011632	1520	1502	1513	1414
1399896592164102949	1518	1514	1513	1414
1399896592194108954	1520	1506	1513	1415
1399896592214018776	1519	1510	1513	1416
1399896592244061288	1518	1510	1513	1416
1399896592264035806	1530	1504	1513	1417
1399896592278960683	1526	1504	1513	1417
1399896592294072873	1527	1511	1512	1417
1399896592314069582	1528	1520	1512	1416
1399896592329055118	1533	1516	1512	1416
1399896592344068308	1519	1510	1512	1418
1399896592363996314	1522	1503	1512	1419
1399896592394052106	1521	1514	1512	1418
1399896592414056105	1523	1513	1512	1417
1399896592444090349	1522	1518	1512	1418
1399896592464084908	1516	1519	1512	1419
1399896592484033107	1525	1526	1512	1418
1399896592504123248	1514	1517	1512	1418
1399896592519038287	1514	1524	1512	1418
1399896592534114824	1512	1523	1512	1418
1399896592553812337	1511	1510	1511	1418
1399896592568980752	1511	1510	1511	1419
1399896592583984653	1498	1517	1511	1418
1399896592614149219	1518	1518	1511	1418
1399896592644219976	1509	1515	1511	1418
1399896592664064559	1515	1530	1511	1418
1399896592694173576	1515	1518	1511	1418
1399896592709169499	1510	1522	1511	1420
1399896592729041829	1516	1523	1512	1418
1399896592753782286	1518	1516	1512	1419
1399896592768885973	1510	1526	1512	1419
1399896592783910818	1511	1534	1512	1418
1399896592803926814	1517	1526	1512	1418
1399896592819005093	1511	1522	1512	1419
1399896592834023791	1512	1527	1512	1418
1399896592859084936	1513	1510	1512	1419
1399896592879005201	1510	1517	1512	1418
1399896592909074527	1511	1523	1512	1418
1399896592929170107	1511	1520	1512	1418
1399896592959185227	1502	1515	1512	1419
1399896592979051009	1505	1515	1512	1419
1399896592994168347	1502	1519	1512	1418
1399896593009043434	1504	1513	1512	1419
1399896593029105704	1508	1515	1512	1420
1399896593044108210	1509	1519	1512	1419
1399896593064094301	1513	1529	1512	1418
1399896593079036530	1513	1529	1512	1418
1399896593094068424	1514	1522	1512	1419
1399896593113988373	1511	1507	1512	1419
1399896593144039862	1511	1522	1511	1419
1399896593164135084	1519	1532	1511	1419
1399896593194102211	1516	1519	1511	1419
1399896593214111060	1505	1514	1511	1420
1399896593244043801	1512	1519	1511	1420
1399896593264065573	1515	1523	1511	1420
1399896593279081091	1514	1515	1511	1420
1399896593294034167	1512	1516	1511	1421
1399896593314004696	1508	1516	1511	1421
1399896593344180177	1509	1519	1510	1421
1399896593364015292	1511	1523	1510	1421
1399896593394117954	1510	1515	1510	1421
1399896593414039485	1515	1513	1510	1422
1399896593443937910	1518	1509	1510	1422
1399896593464084230	1520	1508	1510	1422
1399896593478948046	1523	1514	1510	1421
1399896593494081338	1520	1511	1510	1421
1399896593514009140	1516	1511	1510	1422
1399896593529207267	1517	1506	1510	1422
1399896593543960721	1518	1511	1510	1422
1399896593564027751	1526	1516	1510	1422
1399896593579117748	1521	1517	1510	1422
1399896593604056976	1514	1510	1510	1422
1399896593619072334	1519	1510	1510	1422
1399896593644054244	1522	1511	1510	1422
1399896593664106793	1522	1510	1510	1422
1399896593678801720	1517	1514	1510	1422
1399896593708977929	1517	1508	1511	1422
1399896593728837961	1520	1506	1511	1423
1399896593743956810	1514	1507	1511	1423
1399896593759083150	1520	1514	1511	1423
1399896593779018928	1522	1519	1511	1422
1399896593794061897	1526	1521	1511	1422
1399896593809048878	1525	1516	1511	1423
1399896593829061983	1519	1514	1512	1423
1399896593859122309	1525	1520	1512	1423
1399896593879081396	1523	1514	1512	1423
1399896593909134737	1519	1519	1513	1423
1399896593929155342	1518	1519	1513	1423
1399896593959112584	1512	1519	1513	1423
1399896593979097162	1513	1523	1513	1423
1399896593994207355	1511	1527	1513	1423
1399896594014156826	1506	1515	1513	1423
1399896594029131512	1506	1515	1514	1424
1399896594044089018	1505	1507	1514	1425
1399896594064080612	1513	1514	1514	1424
1399896594079043189	1513	1519	1514	1424
1399896594109095881	1515	1512	1514	1425
1399896594129112609	1512	1519	1514	1425
1399896594159047748	1511	1522	1514	1425
1399896594179076125	1506	1516	1514	1426
1399896594204060709	1518	1523	1514	1425
1399896594219009970	1515	1518	1514	1426
1399896594234022230	1510	1508	1515	1427
1399896594254114369	1502	1511	1515	1427
1399896594269055091	1506	1515	1515	1427
1399896594284051432	1505	1518	1515	1426
1399896594303956348	1508	1514	1515	1427
1399896594329020333	1508	1518	1515	1427
1399896594359026733	1502	1516	1515	1427
1399896594378960013	1498	1512	1515	1427
1399896594408969751	1509	1511	1515	1427
1399896594429040840	1507	1508	1514	1426
1399896594443974157	1507	1512	1514	1426
1399896594459026683	1514	1512	1514	1426
1399896594479143342	1510	1508	1514	1427
1399896594494111318	1514	1503	1514	1427
1399896594514137925	1511	1507	1513	1427
1399896594529083160	1512	1510	1513	1426
1399896594544004702	1518	1507	1513	1427
1399896594564037264	1514	1508	1513	1427
1399896594593852799	1518	1511	1512	1425
1399896594614097800	1519	1514	1512	1424
1399896594629102253	1518	1504	1512	1424
1399896594654153739	1518	1501	1512	1425
1399896594674052132	1513	1501	1511	1426
1399896594694168568	1512	1505	1511	1425
1399896594709125463	1516	1499	1511	1426
1399896594729121404	1518	1498	1510	1426
1399896594744079398	1521	1507	1510	1425
1399896594764038311	1526	1507	1510	1425
1399896594779034798	1527	1501	1510	1425
1399896594794126119	1517	1502	1510	1425
1399896594814051305	1515	1510	1509	1425
1399896594844122369	1522	1501	1509	1424
1399896594864024229	1531	1498	1509	1425
1399896594894060320	1522	1509	1509	1424
1399896594913818361	1537	1507	1509	1424
1399896594934103660	1539	1511	1509	1424
1399896594954079224	1530	1511	1509	1424
1399896594968989269	1533	1504	1510	1425
1399896594984073697	1527	1497	1510	1426
1399896595004163400	1535	1497	1510	1426
1399896595019059321	1533	1510	1510	1424
1399896595039091563	1538	1504	1510	1425
1399896595064130497	1539	1500	1511	1425
1399896595084056689	1536	1517	1511	1425
1399896595104135260	1536	1519	1511	1425
1399896595129087440	1533	1516	1511	1425
1399896595144119523	1537	1507	1512	1426
1399896595174190827	1531	1524	1512	1425
1399896595184115155	1525	1521	1512	1426
1399896595204273875	1536	1502	1512	1427
1399896595219077001	1531	1513	1512	1427
1399896595234025624	1531	1511	1512	1427
1399896595253990139	1529	1512	1512	1427
1399896595268986066	1524	1510	1512	1428
1399896595293970216	1525	1521	1512	1427
1399896595313845007	1527	1515	1511	1428
1399896595344017909	1524	1520	1511	1427
1399896595364063876	1520	1532	1511	1427
1399896595394169057	1511	1521	1511	1428
1399896595414020880	1516	1528	1511	1428
1399896595429148617	1521	1535	1510	1427
1399896595443914331	1510	1539	1510	1427
1399896595459023983	1498	1523	1510	1428
1399896595479081670	1509	1528	1510	1428
1399896595494013451	1500	1527	1510	1428
1399896595514021201	1499	1534	1509	1428
1399896595529021716	1497	1538	1509	1427
1399896595559036338	1498	1537	1509	1428
1399896595579057254	1493	1537	1509	1428
1399896595609144922	1500	1529	1509	1428
1399896595629135077	1492	1528	1509	1428
1399896595659087846	1499	1523	1509	1427
1399896595669058962	1497	1524	1509	1428
1399896595684051017	1487	1528	1509	1428
1399896595704089781	1479	1526	1509	1429
1399896595719111016	1491	1522	1509	1429
1399896595734207009	1492	1528	1509	1429
1399896595754032283	1476	1546	1510	1427
1399896595769097537	1480	1535	1510	1429
1399896595794034730	1477	1536	1510	1429
1399896595814116164	1473	1546	1509	1428
1399896595844074252	1476	1543	1509	1430
1399896595864203360	1478	1529	1509	1430
1399896595894193266	1475	1523	1509	1431
1399896595924065572	1474	1528	1509	1431
1399896595939134890	1462	1531	1509	1430
1399896595954051633	1484	1510	1509	1431
1399896595969127034	1465	1510	1509	1433
1399896595984087360	1480	1517	1508	1432
1399896596009087086	1475	1515	1508	1431
1399896596029069635	1489	1510	1508	1433
1399896596044170083	1479	1511	1508	1431
1399896596074156729	1489	1514	1508	1432
1399896596094083739	1490	1512	1507	1432
1399896596124102540	1501	1505	1507	1433
1399896596144103906	1502	1500	1507	1432
1399896596174080121	1505	1506	1507	1432
1399896596184013997	1508	1493	1507	1432
1399896596204058067	1508	1508	1507	1431
1399896596218998324	1515	1507	1507	1432
1399896596234049878	1514	1504	1508	1432
1399896596259013745	1509	1489	1508	1433
1399896596279054617	1513	1493	1508	1431
1399896596309060562	1527	1488	1508	1431
1399896596329176776	1520	1499	1508	1430
1399896596359217872	1517	1509	1507	1430
1399896596379132941	1526	1508	1507	1430
1399896596394012044	1529	1500	1507	1430
1399896596414015387	1514	1524	1507	1429
1399896596429036738	1523	1521	1506	1428
1399896596444024563	1531	1525	1506	1429
1399896596464052433	1540	1496	1506	1429
1399896596479052913	1540	1491	1506	1431
1399896596494072480	1543	1502	1506	1430
1399896596529123936	1535	1496	1505	1430
1399896596544135014	1532	1500	1505	1430
1399896596579126170	1532	1499	1505	1431
1399896596604066490	1539	1510	1504	1431
1399896596624006627	1541	1502	1504	1430
1399896596644149969	1538	1504	1504	1430
1399896596659121343	1532	1502	1504	1431
1399896596679082284	1526	1506	1503	1431
1399896596694099592	1538	1512	1503	1431
1399896596714170061	1528	1521	1503	1430
1399896596729128196	1514	1522	1503	1430
1399896596744121461	1519	1531	1503	1430
1399896596763950271	1513	1533	1503	1430
1399896596794103294	1514	1527	1502	1430
1399896596814095532	1525	1513	1502	1431
1399896596844085907	1517	1519	1501	1430
1399896596864008631	1521	1510	1501	1430
1399896596884039603	1514	1519	1501	1431
1399896596904104865	1509	1512	1501	1431
1399896596919000855	1503	1514	1501	1431
1399896596934083900	1496	1525	1501	1430
1399896596954143457	1500	1526	1501	1430
1399896596969114053	1507	1518	1501	1430
1399896596983801049	1500	1516	1501	1430
1399896597009076931	1506	1528	1502	1430
1399896597029073831	1507	1524	1502	1430
1399896597059064546	1493	1519	1502	1430
1399896597079055574	1504	1527	1502	1429
1399896597109156575	1501	1524	1502	1429
1399896597119044294	1499	1531	1503	1428
1399896597134098790	1507	1531	1503	1429
1399896597154122290	1502	1542	1503	1429
1399896597169109149	1501	1531	1503	1428
1399896597184063776	1504	1530	1503	1429
1399896597204093075	1504	1516	1504	1429
1399896597219150152	1507	1522	1504	1429
1399896597234056484	1501	1528	1504	1428
1399896597264077989	1515	1528	1505	1428
1399896597284033551	1518	1519	1506	1427
1399896597313790090	1492	1526	1506	1428
1399896597334014502	1497	1521	1507	1428
1399896597359115751	1493	1521	1507	1428
1399896597379073910	1489	1523	1507	1427
1399896597394080216	1491	1509	1508	1428
1399896597414000140	1496	1511	1508	1429
1399896597429075685	1488	1518	1509	1427
1399896597443982116	1495	1523	1509	1427
1399896597464109598	1495	1525	1509	1427
1399896597479086916	1493	1518	1509	1428
1399896597509097973	1498	1535	1510	1427
1399896597529155894	1501	1522	1510	1428
1399896597558822009	1503	1518	1511	1429
1399896597578790991	1504	1522	1511	1429
1399896597608874604	1504	1533	1511	1427
1399896597618842699	1503	1535	1511	1427
1399896597633862544	1509	1530	1511	1428
1399896597654131241	1506	1525	1512	1429
1399896597668949417	1503	1520	1512	1430
1399896597683984270	1508	1523	1512	1429
1399896597704137804	1511	1520	1512	1428
1399896597728884591	1509	1521	1512	1429
1399896597764090779	1519	1519	1512	1429
1399896597779063079	1519	1523	1513	1429
1399896597814205718	1517	1513	1513	1430
1399896597829110521	1521	1516	1513	1430
1399896597859206820	1526	1517	1514	1431
1399896597878988253	1534	1518	1514	1430
1399896597894202982	1522	1503	1514	1432
1399896597914133110	1530	1525	1514	1431
1399896597929100278	1532	1516	1514	1431
1399896597944185118	1534	1535	1514	1431
1399896597964028240	1540	1526	1514	1430
1399896597994100199	1537	1524	1514	1430
1399896598014076793	1538	1534	1514	1430
1399896598044219396	1542	1530	1514	1430
1399896598064050434	1534	1528	1514	1429
1399896598094119737	1540	1530	1513	1428
1399896598114081379	1543	1528	1513	1427
1399896598129106657	1541	1519	1513	1426
1399896598144157712	1542	1520	1513	1428
1399896598164066802	1542	1516	1512	1426
1399896598179057711	1548	1506	1512	1427
1399896598194048837	1541	1513	1512	1426
1399896598214118564	1541	1511	1512	1426
1399896598244076525	1535	1509	1512	1425
1399896598264143059	1553	1505	1512	1425
1399896598294127442	1541	1513	1512	1425
1399896598314086318	1537	1522	1512	1424
1399896598334069289	1526	1520	1512	1424
1399896598354121179	1530	1527	1512	1424
1399896598368984712	1525	1523	1512	1425
1399896598384016688	1529	1513	1512	1425
1399896598404018635	1520	1526	1511	1426
1399896598419076326	1528	1520	1511	1424
1399896598434086057	1526	1530	1511	1425
1399896598464158781	1532	1515	1511	1425
1399896598494170788	1532	1514	1511	1426
1399896598514155746	1534	1511	1511	1426
1399896598544164986	1531	1504	1511	1426
1399896598559049137	1517	1510	1511	1427
1399896598578790825	1519	1511	1511	1427
1399896598604217453	1515	1510	1511	1427
1399896598619109893	1517	1512	1511	1427
1399896598633849599	1516	1504	1511	1428
1399896598654018748	1519	1496	1511	1429
1399896598668794354	1513	1497	1511	1430
1399896598684123705	1514	1505	1511	1429
1399896598708965516	1515	1511	1511	1430
1399896598729137755	1516	1512	1511	1430
1399896598759105865	1515	1504	1511	1430
1399896598779069586	1515	1508	1511	1431
1399896598809182358	1528	1518	1511	1431
1399896598829103972	1522	1511	1511	1432
1399896598844147333	1526	1525	1511	1432
1399896598859045689	1515	1506	1511	1432
1399896598878856597	1512	1503	1511	1433
1399896598893906726	1514	1505	1510	1433
1399896598914021639	1518	1514	1510	1433
1399896598929121649	1517	1514	1510	1433
1399896598944065852	1512	1507	1510	1434
1399896598964094764	1513	1506	1510	1435
1399896598994137567	1514	1514	1510	1434
1399896599014064851	1507	1519	1510	1433
1399896599044072637	1502	1516	1509	1435
1399896599064132661	1508	1525	1509	1435
1399896599094149628	1509	1527	1509	1435
1399896599114167407	1506	1528	1508	1436
1399896599129128950	1511	1531	1508	1435
1399896599144014482	1513	1527	1508	1435
1399896599164063483	1508	1523	1508	1436
1399896599194141329	1506	1532	1507	1435
1399896599213976838	1507	1543	1507	1435
1399896599244107557	1508	1533	1507	1435
1399896599264104486	1501	1535	1506	1435
1399896599294197366	1506	1534	1506	1435
1399896599314108938	1502	1532	1506	1435
1399896599329067630	1501	1540	1505	1434
1399896599344058834	1507	1532	1505	1435
1399896599363962414	1496	1538	1505	1435
1399896599379053247	1504	1540	1505	1434
1399896599394065500	1496	1538	1505	1434
1399896599414043310	1491	1549	1505	1435
1399896599429086721	1488	1552	1505	1435
1399896599454044123	1494	1557	1505	1433
1399896599468986275	1492	1558	1505	1433
1399896599494093507	1492	1552	1505	1434
1399896599514098134	1492	1558	1505	1433
1399896599529088909	1493	1551	1505	1433
1399896599559091581	1491	1547	1505	1434
1399896599579068528	1484	1551	1505	1434
1399896599594117519	1482	1545	1505	1434
1399896599614023865	1493	1543	1505	1434
1399896599629008206	1485	1546	1505	1433
1399896599644151674	1493	1543	1505	1433
1399896599664115763	1489	1531	1505	1433
1399896599679110416	1483	1552	1506	1432
1399896599704161165	1489	1523	1506	1434
1399896599719057592	1493	1529	1506	1433
1399896599744154478	1490	1524	1506	1434
1399896599764073100	1494	1531	1507	1434
1399896599779007139	1495	1536	1507	1433
1399896599809095352	1501	1530	1507	1434
1399896599829049367	1501	1527	1507	1434
1399896599844007809	1505	1518	1508	1435
1399896599864033834	1492	1530	1508	1435
1399896599879071205	1493	1531	1508	1435
1399896599894082069	1495	1537	1508	1435
1399896599914169687	1493	1532	1508	1435
1399896599944170107	1505	1526	1509	1436
1399896599964089577	1500	1518	1509	1436
1399896599994094544	1499	1527	1509	1436
1399896600014061195	1496	1530	1509	1435
1399896600044102875	1497	1518	1509	1437
1399896600064279826	1500	1513	1509	1438
1399896600079121557	1494	1513	1509	1437
1399896600094169745	1501	1510	1509	1437
1399896600114275234	1491	1512	1509	1437
1399896600129102899	1497	1521	1509	1436
1399896600144083488	1499	1513	1508	1437
1399896600164213786	1506	1506	1508	1437
1399896600184111126	1499	1507	1508	1437
1399896600214117833	1506	1506	1508	1437
1399896600244099080	1514	1505	1507	1437
1399896600259103429	1510	1509	1507	1436
1399896600279044325	1513	1510	1507	1436
1399896600304157481	1508	1505	1506	1437
1399896600319057303	1510	1502	1506	1435
1399896600334005639	1515	1510	1506	1435
1399896600354061174	1500	1517	1506	1435
1399896600369081243	1514	1499	1505	1436
1399896600384078342	1508	1496	1505	1436
1399896600414068729	1504	1496	1505	1436
1399896600444031129	1505	1500	1505	1436
1399896600463970625	1504	1491	1504	1436
1399896600494110478	1500	1495	1504	1437
1399896600509015736	1513	1491	1504	1438
1399896600529001614	1507	1489	1504	1438
1399896600553978229	1520	1490	1504	1437
1399896600569057766	1514	1488	1503	1438
1399896600584114434	1515	1488	1503	1437
1399896600604095627	1533	1487	1503	1437
1399896600619051420	1535	1494	1503	1438
1399896600634403529	1529	1488	1503	1437
1399896600659199291	1532	1504	1503	1437
1399896600679183635	1531	1501	1504	1437
1399896600709015466	1520	1510	1504	1438
1399896600729124486	1523	1507	1504	1437
1399896600759024251	1514	1511	1504	1437
1399896600779129793	1524	1512	1504	1437
1399896600794144382	1524	1512	1504	1437
1399896600809021707	1523	1502	1504	1436
1399896600829058316	1525	1505	1504	1437
1399896600844136313	1524	1507	1504	1437
1399896600864258675	1515	1507	1504	1436
1399896600879034454	1518	1507	1504	1436
1399896600894101030	1523	1508	1504	1436
1399896600914124003	1525	1508	1504	1436
1399896600944156786	1521	1508	1504	1435
1399896600964116844	1528	1510	1504	1436
1399896600994075232	1519	1507	1504	1435
1399896601014156419	1529	1514	1504	1435
1399896601029132411	1527	1507	1504	1435
1399896601044043385	1531	1512	1504	1435
1399896601059077536	1531	1511	1505	1434
1399896601079053690	1530	1519	1505	1433
1399896601094070031	1532	1520	1505	1433
1399896601114078132	1530	1524	1505	1433
1399896601129103796	1537	1516	1506	1434
1399896601159118068	1525	1523	1506	1433
1399896601179071902	1534	1523	1506	1433
1399896601209128262	1532	1531	1507	1432
1399896601229207643	1531	1525	1508	1432
1399896601259131646	1531	1516	1509	1433
1399896601269052268	1533	1517	1509	1433
1399896601284072748	1534	1526	1510	1432
1399896601304064261	1536	1521	1510	1431
1399896601319098762	1531	1524	1510	1431
1399896601334054995	1539	1522	1511	1432
1399896601354053589	1526	1525	1511	1431
1399896601369119999	1530	1516	1512	1430
1399896601394064061	1532	1519	1512	1431
1399896601414057957	1528	1523	1513	1430
1399896601444113652	1523	1519	1513	1430
1399896601464054256	1530	1521	1513	1430
1399896601494080107	1536	1524	1514	1430
1399896601524101425	1533	1525	1514	1429
1399896601539176021	1529	1527	1514	1430
1399896601554062990	1525	1530	1514	1429
1399896601569082681	1529	1529	1515	1429
1399896601584086329	1531	1529	1515	1429
1399896601604026934	1526	1524	1515	1429
1399896601629081527	1521	1526	1515	1429
1399896601644158171	1528	1525	1515	1429
1399896601663932588	1531	1522	1515	1429
1399896601694102542	1530	1520	1515	1429
1399896601714065775	1533	1526	1515	1429
1399896601744135586	1536	1520	1515	1429
1399896601774169154	1531	1523	1515	1429
1399896601789123754	1535	1526	1515	1429
1399896601804160948	1527	1527	1515	1429
1399896601819088780	1523	1521	1515	1430
1399896601834102241	1522	1518	1516	1430
1399896601859105364	1519	1522	1516	1430
1399896601879054190	1521	1521	1516	1431
1399896601894137663	1518	1526	1516	1430
1399896601924027946	1508	1519	1517	1431
1399896601944184160	1509	1522	1517	1431
1399896601974124530	1518	1526	1517	1431
1399896601994028051	1521	1523	1518	1432
1399896602024064039	1521	1510	1518	1433
1399896602034156180	1524	1515	1518	1433
1399896602054058137	1527	1521	1518	1433
1399896602069001397	1523	1522	1518	1433
1399896602084141549	1522	1518	1518	1433
1399896602104203976	1522	1513	1518	1434
1399896602129085430	1521	1515	1518	1434
1399896602159095472	1529	1528	1518	1433
1399896602179168380	1528	1521	1518	1434
1399896602209092290	1516	1520	1518	1434
1399896602229116601	1518	1519	1518	1434
1399896602244131040	1518	1515	1518	1434
1399896602264162758	1520	1529	1517	1433
1399896602279173102	1518	1530	1517	1433
1399896602294119345	1514	1529	1517	1434
1399896602314106309	1523	1525	1517	1434
1399896602329129567	1522	1526	1517	1434
1399896602364232837	1523	1515	1516	1434
1399896602384121938	1525	1515	1516	1434
1399896602414076814	1523	1516	1516	1434
1399896602444170944	1525	1511	1515	1434
1399896602459071164	1519	1508	1515	1435
1399896602479075753	1525	1508	1515	1435
1399896602504209224	1525	1511	1514	1434
1399896602519022749	1527	1510	1514	1434
1399896602534055155	1527	1515	1514	1434
1399896602554090792	1525	1514	1513	1434
1399896602569039886	1522	1508	1513	1435
1399896602584057312	1520	1507	1513	1435
1399896602609095177	1519	1512	1513	1434
1399896602629099821	1519	1512	1512	1435
1399896602659160494	1523	1517	1511	1435
1399896602679168297	1525	1516	1511	1435
1399896602709044639	1526	1513	1510	1436
1399896602729152687	1528	1516	1510	1436
1399896602744056766	1524	1521	1509	1436
1399896602758996813	1523	1514	1509	1436
1399896602779082867	1523	1516	1509	1437
1399896602794112737	1524	1511	1508	1438
1399896602814051692	1527	1505	1508	1438
1399896602829130604	1526	1512	1508	1438
1399896602844046108	1527	1520	1507	1437
1399896602864047497	1522	1529	1507	1437
1399896602894093116	1524	1516	1506	1438
1399896602914101696	1519	1506	1506	1439
1399896602944066695	1525	1514	1505	1438
1399896602964105102	1522	1516	1505	1438
1399896602994151085	1523	1515	1504	1437
1399896603014207500	1522	1516	1504	1438
1399896603029191279	1519	1509	1504	1438
1399896603044161792	1522	1509	1504	1438
1399896603064050164	1529	1516	1504	1437
1399896603094149959	1526	1515	1504	1437
1399896603114056797	1526	1513	1504	1436
1399896603144081208	1527	1510	1504	1437
1399896603164114470	1524	1509	1504	1437
1399896603194122778	1526	1516	1504	1436
1399896603214090163	1522	1517	1504	1435
1399896603244095080	1521	1515	1505	1435
1399896603259026728	1518	1513	1505	1435
1399896603279036930	1518	1512	1505	1435
1399896603294062705	1518	1511	1505	1435
1399896603309057078	1520	1510	1505	1435
1399896603329001522	1522	1509	1505	1434
1399896603359179098	1523	1512	1506	1433
1399896603379057972	1520	1516	1506	1433
1399896603409141176	1518	1517	1506	1432
1399896603429139852	1517	1513	1506	1432
1399896603459166593	1520	1518	1507	1431
1399896603479150178	1517	1523	1507	1431
1399896603494142867	1518	1517	1507	1431
1399896603514120794	1523	1513	1507	1430
1399896603528817515	1516	1510	1507	1430
1399896603544048632	1520	1514	1507	1430
1399896603564068353	1514	1512	1507	1429
1399896603578984609	1521	1517	1507	1428
1399896603604077115	1511	1509	1507	1429
1399896603619088377	1509	1509	1507	1428
1399896603644225360	1505	1512	1508	1428
1399896603664065253	1510	1509	1507	1428
1399896603679058257	1509	1515	1507	1429
1399896603709105824	1507	1513	1507	1428
1399896603729004128	1507	1515	1507	1429
1399896603744059267	1507	1514	1507	1429
1399896603763963819	1508	1523	1507	1428
1399896603778972001	1509	1523	1507	1428
1399896603793970620	1507	1526	1506	1429
1399896603814018468	1514	1518	1506	1429
1399896603844115805	1506	1521	1506	1429
1399896603864029145	1490	1517	1505	1428
1399896603894142304	1492	1513	1505	1428
1399896603913780129	1495	1507	1505	1429
1399896603943910874	1492	1515	1504	1428
1399896603963815832	1503	1515	1504	1427
1399896603978776663	1509	1513	1504	1429
1399896603993807026	1500	1512	1504	1427
1399896604013930335	1503	1511	1504	1428
1399896604028803537	1501	1517	1504	1427
1399896604043747662	1500	1517	1504	1427
1399896604079089498	1510	1506	1504	1429
1399896604104052857	1508	1517	1504	1429
1399896604129166711	1513	1512	1505	1429
1399896604154121729	1512	1510	1505	1430
1399896604174034243	1515	1510	1505	1430
1399896604194129194	1518	1512	1505	1431
1399896604209076254	1512	1519	1506	1432
1399896604229083038	1512	1525	1506	1432
1399896604244076550	1516	1527	1506	1432
1399896604264074444	1507	1528	1506	1433
1399896604278941082	1510	1523	1506	1434
1399896604294149938	1510	1522	1506	1435
1399896604314104375	1518	1513	1506	1435
1399896604344051597	1516	1518	1505	1435
1399896604364154827	1515	1516	1505	1436
1399896604394128363	1514	1519	1505	1436
1399896604414140524	1519	1513	1505	1436
1399896604434052560	1526	1517	1505	1436
1399896604454010389	1525	1526	1505	1435
1399896604469135637	1530	1519	1505	1436
1399896604484170703	1526	1519	1505	1436
1399896604504079145	1528	1515	1505	1436
1399896604518995350	1529	1512	1505	1437
1399896604534141338	1526	1514	1505	1436
1399896604559216054	1521	1519	1505	1436
1399896604579098373	1525	1520	1505	1437
1399896604609059587	1520	1521	1505	1436
1399896604629093918	1516	1520	1505	1436
1399896604659084281	1518	1517	1506	1435
1399896604679116694	1514	1515	1506	1435
1399896604694001064	1510	1512	1506	1435
1399896604709011424	1513	1510	1507	1435
1399896604728973268	1513	1511	1507	1435
1399896604743963264	1513	1507	1507	1435
1399896604764194141	1516	1512	1508	1435
1399896604778992599	1514	1515	1508	1434
1399896604793961201	1516	1518	1508	1434
1399896604814164742	1523	1517	1509	1434
1399896604844084346	1518	1512	1509	1434
1399896604864094110	1523	1517	1510	1434
1399896604894182359	1526	1516	1510	1433
1399896604914082209	1524	1512	1510	1434
1399896604944162276	1521	1516	1510	1433
1399896604959060612	1509	1514	1511	1432
1399896604979042119	1517	1511	1511	1432
1399896604994050581	1517	1505	1511	1432
1399896605014039318	1516	1505	1511	1432
1399896605044079178	1513	1505	1511	1432
1399896605063986428	1517	1501	1512	1432
1399896605094164573	1517	1505	1512	1431
1399896605113755461	1517	1508	1512	1431
1399896605143856952	1520	1506	1513	1431
1399896605163857593	1518	1510	1513	1431
1399896605179106934	1514	1508	1513	1431
1399896605193756224	1521	1512	1513	1431
1399896605214133291	1518	1520	1513	1431
1399896605228941115	1520	1521	1513	1430
1399896605244021995	1519	1524	1514	1431
1399896605263992972	1518	1510	1514	1431
1399896605279147843	1521	1517	1514	1431
1399896605304051404	1526	1512	1514	1430
1399896605329050671	1526	1514	1514	1430
1399896605354192696	1529	1506	1514	1431
1399896605369060842	1527	1506	1513	1430
1399896605394169415	1527	1513	1513	1430
1399896605419128090	1528	1518	1513	1430
1399896605434094787	1530	1517	1513	1429
1399896605454174050	1524	1514	1512	1431
1399896605469061384	1529	1521	1512	1430
1399896605484075549	1546	1513	1512	1431
1399896605504140011	1535	1515	1512	1431
1399896605519054069	1540	1520	1512	1431
1399896605544160313	1542	1513	1511	1431
1399896605564089772	1546	1514	1511	1432
1399896605594110204	1547	1517	1511	1430
1399896605619046336	1550	1510	1511	1430
1399896605644042970	1549	1519	1511	1430
1399896605668979298	1546	1526	1511	1429
1399896605684026088	1553	1517	1511	1429
1399896605704099219	1547	1517	1511	1430
1399896605718974870	1549	1514	1511	1429
1399896605734158212	1549	1511	1511	1430
1399896605754045462	1537	1518	1511	1430
1399896605779115368	1543	1514	1512	1430
1399896605809147900	1562	1511	1513	1430
1399896605829128451	1547	1513	1513	1430
1399896605859080913	1552	1519	1514	1429
1399896605879022336	1542	1509	1514	1430
1399896605904034030	1539	1504	1515	1431
1399896605918934305	1542	1516	1515	1431
1399896605934058790	1545	1514	1516	1430
1399896605954052568	1539	1504	1516	1431
1399896605968945840	1537	1507	1516	1432
1399896605984186084	1537	1509	1516	1433
1399896606004041827	1536	1512	1517	1432
1399896606029108921	1536	1508	1517	1433
1399896606059158499	1528	1501	1517	1434
1399896606079168895	1526	1507	1517	1434
1399896606109125202	1527	1507	1517	1433
1399896606129103346	1523	1508	1517	1434
1399896606159205049	1524	1510	1518	1435
1399896606179084257	1525	1512	1518	1435
1399896606194058756	1516	1509	1518	1435
1399896606214062045	1520	1510	1518	1435
1399896606229034769	1517	1519	1518	1435
1399896606259115195	1521	1513	1518	1437
1399896606269058165	1523	1521	1518	1436
1399896606294140039	1517	1513	1518	1437
1399896606314029425	1519	1513	1518	1437
1399896606344133256	1510	1509	1518	1438
1399896606364059207	1509	1516	1518	1438
1399896606384103909	1507	1502	1518	1439
1399896606404162464	1514	1514	1518	1439
1399896606419094232	1504	1514	1518	1439
1399896606434040984	1503	1513	1518	1438
1399896606454313101	1511	1516	1518	1438
1399896606468860503	1501	1500	1518	1439
1399896606484096609	1503	1515	1517	1438
1399896606514091036	1503	1512	1517	1439
1399896606529084597	1499	1509	1517	1439
1399896606564222178	1499	1512	1516	1439
1399896606584081358	1505	1522	1516	1438
1399896606609128735	1500	1520	1516	1438
1399896606629081624	1507	1525	1516	1437
1399896606644147108	1502	1529	1516	1438
1399896606664055483	1505	1521	1516	1437
1399896606678842546	1507	1515	1515	1438
1399896606693786578	1505	1518	1515	1437
1399896606714157937	1516	1521	1515	1437
1399896606729199207	1512	1520	1515	1437
1399896606764028018	1511	1520	1515	1437
1399896606794103635	1510	1520	1515	1437
1399896606814006180	1510	1516	1515	1438
1399896606833987272	1515	1521	1515	1436
1399896606859142385	1514	1516	1515	1437
1399896606879015222	1512	1520	1515	1437
1399896606894233089	1514	1514	1515	1437
1399896606909016914	1516	1516	1515	1437
1399896606929094506	1518	1517	1514	1437
1399896606944020859	1517	1519	1514	1437
1399896606964074984	1521	1522	1514	1437
1399896606979004290	1520	1522	1514	1438
1399896607009120844	1517	1540	1513	1437
1399896607029149963	1522	1533	1513	1437
1399896607059088212	1514	1535	1512	1438
1399896607079241676	1519	1537	1512	1438
1399896607108890509	1526	1524	1511	1439
1399896607119146649	1526	1534	1511	1439
1399896607134159965	1520	1534	1511	1438
1399896607154084994	1528	1531	1510	1438
1399896607169265387	1532	1531	1510	1438
1399896607184100011	1534	1531	1509	1440
1399896607204135037	1531	1513	1509	1440
1399896607219061730	1533	1511	1508	1439
1399896607244036883	1531	1524	1508	1439
1399896607269059878	1535	1522	1507	1439
1399896607294049089	1537	1522	1506	1439
1399896607319102679	1528	1533	1506	1438
1399896607344049949	1535	1523	1506	1440
1399896607368954485	1533	1520	1505	1440
1399896607384060528	1531	1520	1505	1440
1399896607404094312	1529	1530	1505	1440
1399896607418987021	1528	1532	1504	1439
1399896607434140596	1528	1536	1504	1439
1399896607454236309	1527	1535	1504	1439
1399896607479081226	1522	1532	1504	1439
1399896607514097882	1536	1516	1503	1439
1399896607529147816	1535	1514	1503	1439
1399896607564148022	1529	1514	1502	1438
1399896607579098940	1536	1513	1502	1438
1399896607609156653	1540	1508	1501	1437
1399896607629102874	1533	1510	1501	1437
1399896607644216461	1538	1510	1501	1437
1399896607664093892	1542	1508	1500	1436
1399896607679087955	1540	1503	1500	1437
1399896607694016448	1541	1493	1500	1437
1399896607714185662	1531	1508	1500	1436
1399896607744054847	1530	1510	1500	1436
1399896607764098663	1527	1516	1500	1435
1399896607794141947	1528	1510	1500	1436
1399896607814103593	1530	1502	1500	1436
1399896607843958907	1531	1508	1500	1435
1399896607859087982	1534	1510	1501	1435
1399896607878990615	1527	1511	1501	1435
1399896607894258856	1523	1509	1501	1434
1399896607914113262	1522	1508	1501	1435
1399896607929076020	1526	1507	1501	1435
1399896607944122252	1526	1504	1501	1435
1399896607964036566	1520	1507	1501	1435
1399896607994053650	1516	1504	1502	1435
1399896608014101936	1517	1501	1502	1436
1399896608029117688	1518	1502	1503	1436
1399896608054150107	1519	1504	1503	1435
1399896608074200963	1518	1512	1504	1434
1399896608094171201	1522	1513	1504	1435
1399896608109059807	1514	1505	1505	1434
1399896608129003055	1519	1509	1505	1433
1399896608144133788	1514	1509	1505	1433
1399896608164041227	1519	1509	1506	1434
1399896608179046291	1516	1502	1506	1434
1399896608194142266	1514	1502	1506	1434
1399896608214074578	1512	1511	1507	1434
1399896608244094859	1511	1516	1507	1434
1399896608264059242	1512	1515	1507	1434
1399896608294030823	1510	1516	1508	1433
1399896608313995886	1509	1520	1508	1433
1399896608334065710	1509	1518	1508	1433
1399896608354066849	1510	1522	1508	1431
1399896608369074539	1504	1520	1508	1432
1399896608384037916	1504	1527	1508	1432
1399896608404118869	1514	1528	1508	1432
1399896608419021652	1509	1529	1508	1431
1399896608434050900	1514	1528	1508	1431
1399896608464114895	1515	1527	1508	1431
1399896608484045564	1511	1534	1508	1431
1399896608514116911	1520	1522	1508	1430
1399896608534024477	1514	1520	1508	1430
1399896608559136223	1518	1519	1508	1429
1399896608579114170	1517	1515	1508	1429
1399896608594084648	1516	1517	1508	1429
1399896608614094447	1534	1514	1508	1428
1399896608629121558	1528	1506	1508	1429
1399896608643812387	1529	1506	1509	1428
1399896608664179833	1527	1516	1509	1428
1399896608678885197	1521	1529	1509	1427
1399896608714021043	1525	1515	1509	1427
1399896608733935683	1535	1527	1510	1426
1399896608754142064	1529	1523	1510	1426
1399896608779039032	1530	1523	1510	1427
1399896608793950497	1531	1523	1510	1426
1399896608824002745	1532	1520	1511	1427
1399896608833947004	1532	1516	1511	1427
1399896608853934605	1525	1530	1511	1426
1399896608869036017	1539	1530	1511	1426
1399896608884027439	1540	1527	1512	1426
1399896608903803953	1540	1525	1512	1425
1399896608919045723	1540	1525	1512	1425
1399896608943847820	1543	1519	1512	1425
1399896608964186976	1545	1510	1513	1425
1399896608993870198	1549	1513	1513	1424
1399896609014073595	1549	1497	1513	1425
1399896609044130275	1550	1493	1514	1426
1399896609064199144	1560	1507	1514	1426
1399896609079150289	1551	1505	1514	1426
1399896609094158521	1565	1516	1514	1425
1399896609114117267	1558	1509	1514	1425
1399896609129052385	1564	1507	1515	1425
1399896609144039853	1557	1506	1515	1426
1399896609164035920	1556	1517	1515	1425
1399896609178944396	1553	1523	1515	1426
1399896609214066401	1548	1507	1516	1427
1399896609234034638	1552	1515	1516	1426
1399896609264059080	1547	1507	1516	1427
1399896609279061028	1544	1514	1516	1427
1399896609309131610	1552	1506	1517	1428
1399896609329013090	1546	1518	1517	1427
1399896609344184138	1546	1505	1517	1428
1399896609364221986	1541	1499	1517	1430
1399896609379059668	1536	1498	1517	1430
1399896609394070087	1534	1504	1517	1430
1399896609414154104	1527	1510	1517	1430
1399896609444128932	1521	1507	1517	1431
1399896609468799594	1518	1511	1517	1431
1399896609494144796	1512	1509	1517	1431
1399896609519069973	1526	1503	1517	1432
1399896609544063227	1525	1506	1517	1432
1399896609568985223	1516	1507	1517	1433
1399896609584107710	1511	1509	1517	1434
1399896609603878724	1516	1505	1516	1434
1399896609619059403	1517	1494	1517	1434
1399896609654128970	1511	1496	1516	1434
1399896609679023185	1504	1506	1516	1434
1399896609709069913	1516	1509	1516	1434
1399896609729010369	1503	1516	1516	1435
1399896609759150810	1514	1507	1516	1436
1399896609779041243	1514	1508	1515	1435
1399896609804049063	1511	1514	1515	1435
1399896609819004566	1512	1509	1515	1437
1399896609834034452	1510	1509	1514	1436
1399896609854074183	1498	1506	1514	1436
1399896609869062575	1506	1523	1514	1436
1399896609884047401	1507	1506	1514	1437
1399896609904035272	1503	1513	1514	1437
1399896609929088094	1498	1513	1513	1436
1399896609959088241	1500	1523	1513	1436
1399896609979050759	1501	1508	1513	1437
1399896610009140702	1500	1519	1513	1437
1399896610029160569	1502	1517	1513	1437
1399896610059218376	1512	1520	1513	1437
1399896610078974670	1512	1506	1513	1438
1399896610094064142	1510	1512	1513	1438
1399896610114445273	1517	1519	1513	1437
1399896610129040179	1522	1519	1512	1437
1399896610159113889	1535	1520	1512	1437
1399896610179117200	1538	1521	1512	1437
1399896610209062418	1539	1509	1512	1439
1399896610229320209	1537	1517	1512	1438
1399896610258810119	1527	1532	1511	1436
1399896610279063852	1530	1521	1511	1437
1399896610294117437	1531	1529	1511	1437
1399896610314021865	1532	1525	1511	1437
1399896610329062237	1528	1522	1511	1437
1399896610344148986	1524	1516	1511	1438
1399896610364030224	1528	1520	1511	1437
1399896610379075438	1527	1522	1511	1437
1399896610393975319	1531	1522	1511	1437
1399896610418937423	1518	1526	1511	1437
1399896610434113540	1513	1526	1511	1437
1399896610463969225	1526	1521	1511	1437
1399896610483798017	1524	1520	1511	1436
1399896610509089951	1534	1523	1511	1437
1399896610529069169	1540	1523	1511	1437
1399896610544037547	1540	1514	1511	1438
1399896610564071731	1530	1518	1511	1437
1399896610579055487	1530	1519	1511	1437
1399896610594028685	1532	1520	1511	1437
1399896610614043332	1538	1524	1511	1437
1399896610629060039	1539	1523	1511	1437
1399896610643979808	1532	1517	1511	1437
1399896610679183662	1534	1525	1511	1437
1399896610694139157	1533	1521	1511	1437
1399896610729121161	1535	1530	1511	1437
1399896610744053789	1535	1533	1511	1436
1399896610773989822	1524	1521	1511	1436
1399896610784145535	1525	1525	1510	1436
1399896610804151919	1524	1522	1510	1436
1399896610819141982	1522	1519	1510	1436
1399896610834101293	1522	1518	1510	1436
1399896610854050928	1527	1524	1510	1436
1399896610868974444	1525	1524	1509	1436
1399896610894137036	1521	1523	1509	1435
1399896610914040235	1521	1516	1509	1436
1399896610944075180	1521	1523	1508	1434
1399896610964113935	1520	1528	1508	1434
1399896610994172139	1514	1521	1508	1434
1399896611013993830	1513	1517	1508	1435
1399896611029159352	1509	1518	1507	1434
1399896611043967723	1514	1520	1507	1433
1399896611064009010	1518	1528	1507	1433
1399896611079025202	1508	1531	1507	1432
1399896611094128223	1500	1534	1507	1432
1399896611114116646	1517	1532	1506	1433
1399896611129115112	1513	1528	1506	1433
1399896611158980302	1506	1532	1506	1432
1399896611179107556	1507	1528	1506	1433
1399896611209046681	1505	1519	1506	1432
1399896611229150455	1508	1521	1506	1432
1399896611254115345	1510	1520	1506	1432
1399896611269111870	1510	1521	1506	1431
1399896611284025521	1513	1511	1505	1432
1399896611304067224	1512	1515	1505	1432
1399896611319046661	1515	1516	1505	1431
1399896611334038755	1516	1514	1505	1430
1399896611354073730	1506	1523	1505	1430
1399896611379119491	1509	1519	1505	1430
1399896611409093350	1511	1514	1505	1431
1399896611429088531	1510	1517	1505	1430
1399896611459149342	1502	1517	1506	1429
1399896611479125919	1510	1516	1506	1429
1399896611504143829	1510	1516	1506	1428
1399896611519125256	1513	1515	1506	1428
1399896611534075483	1512	1514	1506	1428
1399896611554126978	1518	1516	1506	1427
1399896611569121860	1517	1518	1506	1426
1399896611584035844	1518	1514	1507	1426
1399896611614048665	1515	1517	1507	1426
1399896611644089598	1512	1512	1507	1425
1399896611663805155	1525	1517	1507	1425
1399896611679031227	1523	1511	1507	1426
1399896611703883430	1523	1519	1507	1424
1399896611724093758	1525	1516	1508	1424
1399896611743962319	1529	1513	1508	1425
1399896611769073500	1523	1509	1508	1424
1399896611784027746	1524	1508	1508	1424
1399896611804198293	1521	1514	1508	1424
1399896611818828409	1520	1513	1508	1423
1399896611834028409	1523	1511	1508	1424
1399896611853930309	1521	1503	1508	1425
1399896611879038692	1523	1507	1508	1423
1399896611909131281	1531	1516	1508	1423
1399896611929084891	1528	1513	1508	1423
1399896611969003241	1528	1510	1508	1421
1399896611983964233	1533	1513	1508	1422
1399896612004101617	1531	1509	1508	1422
1399896612018989636	1530	1505	1508	1422
1399896612034061334	1535	1503	1508	1423
1399896612054060338	1537	1499	1508	1423
1399896612069149838	1532	1496	1508	1423
1399896612093984638	1532	1500	1508	1423
1399896612129068257	1536	1504	1508	1423
1399896612144087013	1535	1503	1509	1423
1399896612179149317	1527	1500	1509	1423
1399896612204034896	1533	1515	1509	1422
1399896612224148610	1531	1512	1510	1422
1399896612243868215	1526	1506	1510	1423
1399896612259044189	1528	1513	1510	1423
1399896612279086424	1531	1514	1510	1422
1399896612294087249	1535	1509	1511	1423
1399896612314078601	1536	1508	1511	1424
1399896612328988497	1538	1506	1511	1425
1399896612344187889	1532	1507	1511	1425
1399896612363997911	1526	1506	1511	1426
1399896612394040012	1527	1510	1512	1426
1399896612414102429	1522	1498	1512	1427
1399896612444193441	1522	1502	1513	1427
1399896612464027271	1528	1503	1513	1428
1399896612479070926	1530	1505	1513	1427
1399896612494022419	1530	1506	1513	1428
1399896612514077757	1531	1507	1513	1428
1399896612529019592	1529	1501	1513	1430
1399896612544085577	1523	1496	1514	1430
1399896612563984033	1522	1502	1514	1431
1399896612579136572	1525	1500	1514	1431
1399896612593994202	1522	1500	1514	1433
1399896612629089593	1520	1511	1514	1433
1399896612644158730	1520	1519	1514	1433
1399896612679070465	1528	1504	1514	1435
1399896612694069272	1526	1508	1514	1436
1399896612724027289	1522	1518	1514	1436
1399896612733978267	1526	1516	1514	1436
1399896612754201607	1528	1522	1514	1438
1399896612769161649	1523	1518	1513	1439
1399896612784053477	1526	1521	1513	1439
1399896612803850552	1525	1512	1513	1441
1399896612818999275	1528	1507	1513	1442
1399896612843911452	1523	1514	1513	1441
1399896612863903669	1522	1508	1513	1443
1399896612893951377	1525	1512	1512	1442
1399896612913891923	1521	1512	1512	1442
1399896612943905262	1521	1513	1511	1444
1399896612963897406	1520	1520	1511	1444
1399896612978907876	1521	1526	1510	1443
1399896612993859594	1523	1522	1510	1443
1399896613013925913	1518	1524	1510	1443
1399896613029004712	1519	1524	1509	1444
1399896613044042063	1518	1523	1509	1444
1399896613064152798	1515	1523	1509	1444
1399896613079052926	1514	1525	1509	1444
1399896613114196604	1519	1517	1508	1443
1399896613129003877	1514	1525	1508	1442
1399896613144009332	1513	1527	1507	1441
1399896613169038243	1513	1524	1507	1442
1399896613194111422	1508	1522	1507	1441
1399896613219177615	1511	1525	1507	1440
1399896613234113809	1510	1531	1507	1438
1399896613254126735	1504	1535	1507	1438
1399896613268986082	1511	1527	1507	1438
1399896613284038774	1501	1525	1508	1438
1399896613304104640	1500	1521	1508	1437
1399896613328803707	1500	1519	1508	1438
1399896613359089157	1506	1515	1509	1438
1399896613379153271	1501	1514	1509	1437
1399896613409013894	1493	1520	1509	1437
1399896613428972145	1505	1515	1510	1437
1399896613454228487	1495	1513	1511	1437
1399896613469061109	1500	1515	1511	1436
1399896613484025344	1498	1522	1512	1435
1399896613504135153	1492	1516	1512	1436
1399896613519061408	1501	1513	1513	1438
1399896613534016529	1497	1504	1514	1437
1399896613564164798	1507	1514	1514	1436
1399896613594160177	1503	1514	1515	1435
1399896613614133318	1501	1510	1516	1437
1399896613644181584	1497	1511	1517	1435
1399896613659092157	1504	1528	1517	1434
1399896613679027580	1501	1518	1517	1435
1399896613709098730	1499	1510	1518	1436
1399896613729003517	1501	1509	1519	1436
1399896613743982098	1500	1513	1519	1435
1399896613764011187	1494	1513	1519	1435
1399896613779046142	1497	1516	1520	1435
1399896613794509310	1501	1514	1520	1436
1399896613814130766	1497	1513	1520	1437
1399896613844122313	1500	1513	1520	1436
1399896613864161512	1499	1518	1521	1436
1399896613894035376	1502	1513	1521	1436
1399896613914015071	1508	1505	1521	1437
1399896613934020375	1504	1504	1521	1437
1399896613954081136	1504	1501	1521	1438
1399896613969071173	1506	1505	1521	1436
1399896613984046747	1508	1515	1521	1435
1399896614004105737	1512	1526	1522	1435
1399896614019048798	1513	1526	1522	1435
1399896614034067339	1511	1523	1522	1435
1399896614059129316	1512	1523	1522	1436
1399896614078861487	1515	1526	1522	1436
1399896614108850837	1513	1525	1522	1434
1399896614129238023	1510	1522	1522	1435
1399896614159061038	1509	1516	1523	1436
1399896614179112591	1511	1520	1523	1436
1399896614194048063	1511	1517	1523	1437
1399896614209060291	1509	1516	1523	1437
1399896614229050661	1507	1518	1523	1438
1399896614244132200	1507	1511	1523	1439
1399896614264111549	1517	1505	1523	1441
1399896614279244698	1517	1509	1523	1441
1399896614294144008	1515	1510	1523	1441
1399896614314013518	1507	1509	1522	1441
1399896614344168185	1517	1509	1522	1443
1399896614364017669	1521	1522	1522	1443
1399896614394230107	1521	1518	1522	1446
1399896614414005097	1515	1525	1522	1445
1399896614444179330	1517	1527	1522	1446
1399896614464048319	1513	1538	1522	1448
1399896614479019483	1509	1532	1522	1448
1399896614494180007	1513	1534	1521	1449
1399896614514147562	1508	1542	1521	1449
1399896614544066193	1512	1544	1521	1449
1399896614564040178	1514	1517	1521	1451
1399896614594111919	1520	1536	1520	1451
1399896614614103757	1514	1530	1520	1451
1399896614644088658	1517	1527	1520	1451
1399896614664188280	1521	1517	1519	1451
1399896614678947026	1521	1523	1519	1450
1399896614694052087	1525	1519	1519	1452
1399896614713977079	1526	1523	1519	1452
1399896614729047933	1525	1523	1519	1451
1399896614744074246	1522	1525	1519	1451
1399896614764086543	1520	1523	1518	1451
1399896614779008379	1511	1518	1518	1453
1399896614804152007	1525	1518	1518	1452
1399896614829141713	1527	1516	1517	1452
1399896614864170928	1524	1523	1517	1452
1399896614879146753	1524	1525	1517	1451
1399896614909131768	1523	1519	1516	1451
1399896614929109897	1533	1524	1516	1452
1399896614944142856	1528	1518	1516	1452
1399896614964072231	1518	1515	1516	1452
1399896614979007684	1523	1513	1515	1451
1399896614993995379	1526	1517	1515	1451
1399896615014120021	1530	1503	1515	1452
1399896615029060743	1528	1500	1515	1453
1399896615044020214	1531	1499	1515	1452
1399896615063979768	1536	1502	1514	1452
1399896615094159789	1538	1499	1514	1451
1399896615114050961	1540	1500	1514	1451
1399896615161786229	1545	1495	1513	1451
1399896615168884308	1551	1493	1513	1452
1399896615183928822	1540	1489	1512	1451
1399896615204049245	1549	1498	1512	1450
1399896615218979519	1547	1501	1512	1449
1399896615233982783	1543	1504	1511	1450
1399896615254091542	1545	1492	1511	1450
1399896615278984405	1540	1500	1511	1448
1399896615303879861	1533	1498	1510	1448
1399896615329109498	1539	1504	1510	1448
1399896615364099934	1549	1496	1509	1447
1399896615379176501	1545	1499	1508	1447
1399896615409150040	1544	1487	1507	1447
1399896615429095272	1547	1485	1507	1448
1399896615444048622	1542	1498	1506	1447
1399896615464114271	1551	1495	1506	1447
1399896615479007157	1548	1491	1506	1446
1399896615494015041	1548	1496	1505	1447
1399896615514041654	1540	1493	1505	1446
1399896615544057991	1545	1487	1504	1447
1399896615563992538	1531	1489	1504	1447
1399896615594132043	1529	1488	1504	1446
1399896615613826901	1531	1500	1504	1445
1399896615643842825	1524	1495	1504	1446
1399896615658785483	1527	1499	1504	1445
1399896615678847408	1520	1500	1504	1445
1399896615693823113	1516	1499	1504	1445
1399896615713828720	1516	1511	1504	1444
1399896615728808693	1517	1516	1505	1445
1399896615743759070	1516	1522	1505	1443
1399896615763739630	1514	1508	1505	1442
1399896615794175473	1517	1513	1505	1443
1399896615814051293	1509	1520	1506	1442
1399896615844128003	1515	1520	1506	1442
1399896615864015431	1507	1520	1506	1442
1399896615884025700	1509	1526	1507	1441
1399896615904132315	1503	1523	1507	1442
1399896615919158273	1501	1525	1507	1441
1399896615934087268	1502	1521	1507	1442
1399896615953815306	1495	1521	1507	1442
1399896615969076890	1494	1530	1507	1441
1399896615984038145	1493	1536	1507	1440
1399896616009078599	1494	1536	1507	1440
1399896616029037229	1492	1540	1507	1440
1399896616059145223	1496	1547	1507	1439
1399896616079078898	1489	1538	1507	1438
1399896616109065346	1489	1534	1507	1438
1399896616129110705	1487	1540	1507	1438
1399896616143985517	1488	1529	1507	1438
1399896616164008027	1498	1531	1506	1438
1399896616179102027	1489	1539	1506	1435
1399896616194030658	1495	1540	1506	1433
1399896616214063315	1486	1540	1506	1436
1399896616229018633	1488	1538	1506	1436
1399896616264035707	1487	1528	1505	1435
1399896616284020713	1486	1519	1505	1435
1399896616314258315	1479	1535	1505	1436
1399896616334016077	1480	1534	1505	1436
1399896616359106592	1485	1535	1505	1437
1399896616379051935	1476	1538	1505	1435
1399896616394064478	1493	1523	1506	1437
1399896616414049180	1483	1533	1506	1439
1399896616428990496	1481	1519	1506	1438
1399896616444035064	1484	1524	1507	1439
1399896616464063464	1480	1521	1507	1440
1399896616479050414	1486	1514	1507	1440
1399896616494049996	1486	1523	1508	1441
1399896616529023187	1495	1523	1509	1440
1399896616544036199	1499	1526	1509	1442
1399896616579100421	1506	1512	1510	1442
1399896616594056928	1510	1518	1511	1440
1399896616624087066	1510	1499	1512	1441
1399896616635932966	1515	1509	1512	1441
1399896616654041996	1505	1514	1512	1441
1399896616669328776	1505	1502	1513	1442
1399896616684081682	1505	1497	1513	1443
1399896616704027471	1495	1501	1513	1444
1399896616719035499	1496	1496	1514	1445
1399896616744063144	1506	1500	1514	1443
1399896616763960671	1506	1507	1514	1445
1399896616779106559	1497	1497	1514	1445
1399896616809166169	1502	1512	1515	1443
1399896616829104719	1501	1515	1514	1443
1399896616859083010	1523	1491	1515	1444
1399896616869021315	1510	1495	1514	1443
1399896616884076461	1510	1489	1514	1443
1399896616904070997	1521	1496	1514	1443
1399896616919092092	1520	1502	1514	1442
1399896616934082706	1520	1498	1514	1441
1399896616954115293	1528	1496	1514	1442
1399896616979094672	1519	1497	1513	1441
1399896617014108860	1528	1494	1513	1442
1399896617029020996	1532	1496	1512	1440
1399896617044017746	1539	1496	1512	1441
1399896617069023979	1528	1498	1512	1440
1399896617094103969	1535	1493	1512	1441
1399896617119061325	1531	1481	1512	1442
1399896617134047176	1537	1487	1512	1441
1399896617154005678	1528	1507	1512	1440
1399896617169126602	1522	1510	1511	1438
1399896617184035528	1531	1512	1511	1438
1399896617204047448	1534	1509	1511	1438
1399896617229061816	1533	1506	1511	1438
1399896617259001128	1529	1497	1512	1438
1399896617274096426	1522	1507	1511	1437
1399896617294118847	1531	1505	1512	1438
1399896617314066293	1530	1498	1512	1437
1399896617344154523	1529	1505	1512	1438
1399896617359232680	1523	1500	1512	1437
1399896617379006506	1526	1497	1512	1438
1399896617394164127	1531	1499	1512	1438
1399896617414132086	1526	1503	1512	1437
1399896617429109829	1525	1499	1512	1437
1399896617444032723	1522	1493	1512	1438
1399896617463998980	1530	1495	1512	1439
1399896617494143370	1527	1503	1512	1438
1399896617514090710	1524	1508	1512	1439
1399896617544076603	1523	1501	1512	1439
1399896617564019867	1528	1499	1513	1440
1399896617583974430	1528	1503	1513	1439
1399896617624156081	1535	1501	1513	1440
1399896617634462316	1526	1504	1513	1440
1399896617653907374	1525	1508	1513	1441
1399896617669049274	1527	1512	1513	1440
1399896617684039021	1526	1511	1513	1441
1399896617709115503	1523	1522	1513	1442
1399896617729228960	1524	1526	1514	1442
1399896617759120152	1523	1529	1514	1443
1399896617779102332	1521	1521	1514	1443
1399896617809063195	1517	1525	1514	1444
1399896617829069274	1518	1524	1514	1444
1399896617859132614	1517	1520	1513	1445
1399896617879075644	1514	1520	1513	1446
1399896617894042602	1518	1516	1513	1446
1399896617909058307	1516	1518	1513	1444
1399896617929117056	1520	1529	1512	1445
1399896617959129831	1516	1515	1512	1446
1399896617979143862	1507	1506	1512	1448
1399896618009142929	1513	1528	1511	1447
1399896618029011895	1512	1532	1511	1447
1399896618059044999	1508	1526	1511	1448
1399896618079095793	1503	1533	1511	1449
1399896618104052969	1502	1526	1510	1449
1399896618119052006	1499	1527	1510	1449
1399896618134012936	1499	1532	1510	1450
1399896618154082895	1494	1527	1510	1452
1399896618169167403	1496	1531	1510	1452
1399896618184051433	1497	1526	1510	1452
1399896618209037166	1502	1521	1510	1453
1399896618229133411	1504	1523	1510	1453
1399896618258986868	1504	1532	1510	1453
1399896618279041928	1511	1526	1510	1454
1399896618309059353	1506	1523	1510	1453
1399896618318954894	1501	1527	1510	1453
1399896618334073117	1500	1520	1510	1454
1399896618354107726	1503	1514	1510	1455
1399896618369056639	1499	1522	1510	1454
1399896618384091238	1502	1532	1510	1452
1399896618404121796	1503	1526	1511	1453
1399896618419111713	1499	1520	1511	1454
1399896618444177047	1499	1517	1511	1453
1399896618469112994	1500	1519	1511	1453
1399896618494189329	1502	1516	1511	1453
1399896618529173248	1505	1518	1511	1452
1399896618544120816	1506	1514	1511	1452
1399896618574091482	1507	1513	1511	1452
1399896618584039747	1509	1512	1512	1452
1399896618604015084	1511	1516	1512	1451
1399896618619114920	1514	1515	1512	1451
1399896618634262675	1515	1520	1512	1450
1399896618654110936	1516	1519	1512	1450
1399896618668991211	1519	1514	1512	1450
1399896618694106452	1515	1515	1512	1449
1399896618714035931	1514	1516	1513	1449
1399896618744105103	1521	1507	1513	1448
1399896618764103216	1523	1508	1513	1447
1399896618794096199	1524	1510	1513	1445
1399896618814035370	1517	1514	1514	1445
1399896618829021371	1519	1511	1514	1444
1399896618844109701	1525	1514	1514	1444
1399896618859023917	1524	1507	1514	1443
1399896618879087242	1523	1506	1514	1443
1399896618894001875	1521	1497	1514	1444
1399896618913978043	1508	1504	1514	1443
1399896618929048232	1517	1508	1514	1441
1399896618958754129	1531	1491	1514	1442
1399896618979023110	1525	1499	1514	1442
1399896619009205844	1532	1514	1515	1440
1399896619029070259	1530	1507	1515	1440
1399896619054101099	1521	1497	1515	1441
1399896619069010743	1530	1503	1515	1440
1399896619083979415	1531	1506	1515	1439
1399896619104078094	1527	1511	1516	1439
1399896619118996833	1526	1507	1516	1440
1399896619134132053	1529	1503	1516	1440
1399896619154097065	1530	1504	1516	1440
1399896619179222036	1529	1506	1516	1440
1399896619209195879	1527	1517	1517	1438
1399896619229072618	1532	1516	1517	1438
1399896619259105395	1530	1505	1517	1439
1399896619279101138	1526	1515	1518	1438
1399896619303791658	1530	1516	1518	1436
1399896619318852804	1532	1523	1518	1436
1399896619334167464	1526	1520	1518	1436
1399896619354071264	1526	1514	1518	1437
1399896619369143355	1526	1509	1518	1438
1399896619384016973	1528	1503	1519	1438
1399896619414020537	1529	1507	1519	1438
1399896619444037906	1529	1517	1519	1437
1399896619464051323	1531	1516	1519	1438
1399896619494128594	1529	1517	1519	1438
1399896619509099958	1531	1516	1520	1438
1399896619529086140	1532	1517	1520	1438
1399896619554114590	1524	1505	1520	1439
1399896619569059207	1524	1515	1520	1439
1399896619584051516	1526	1515	1520	1438
1399896619603984316	1526	1517	1520	1438
1399896619618960525	1527	1511	1520	1439
1399896619634533368	1518	1508	1521	1440
1399896619664026784	1528	1522	1521	1440
1399896619694006576	1523	1523	1521	1440
1399896619714009730	1517	1520	1521	1441
1399896619729096142	1521	1524	1521	1441
1399896619754056840	1523	1528	1521	1441
1399896619774073480	1523	1530	1521	1441
1399896619794009757	1522	1529	1521	1442
1399896619809103059	1522	1530	1520	1441
1399896619829052002	1519	1536	1520	1440
1399896619843995805	1518	1529	1520	1441
1399896619864052666	1518	1518	1520	1442
1399896619879047588	1517	1519	1519	1443
1399896619894160209	1520	1522	1519	1443
1399896619914028497	1518	1523	1519	1443
1399896619943821849	1519	1519	1518	1443
1399896619964009943	1513	1514	1518	1444
1399896619994061970	1509	1514	1518	1443
1399896620014029682	1506	1518	1517	1443
1399896620034025496	1511	1524	1517	1441
1399896620054037773	1508	1523	1516	1443
1399896620069033440	1509	1520	1516	1443
1399896620084090802	1511	1520	1515	1443
1399896620104064911	1513	1524	1515	1442
1399896620119027661	1512	1525	1515	1441
1399896620144090369	1516	1526	1514	1441
1399896620179082992	1514	1532	1514	1440
1399896620194123480	1520	1526	1513	1439
1399896620229122998	1510	1519	1513	1439
1399896620243998748	1506	1513	1513	1439
1399896620274092691	1510	1528	1512	1437
1399896620284043586	1505	1525	1512	1438
