#Time	 Roll 	 Pitch 	 Yaw 	 Thrust
1399095273419329120	1520	1516	1926	1105
1399095273519611378	1520	1516	1926	1105
1399095273619841236	1520	1516	1926	1105
1399095273720060220	1520	1516	1926	1105
1399095273820273418	1520	1516	1926	1105
1399095273920531998	1520	1516	1513	1105
1399095284764544008	1512	1517	1514	1378
1399095284774550750	1511	1518	1514	1378
1399095284784837449	1512	1517	1514	1378
1399095284789885990	1512	1517	1514	1378
1399095284799914777	1511	1518	1514	1379
1399095284809788915	1512	1517	1514	1378
1399095284819800052	1511	1517	1514	1378
1399095284824731932	1511	1517	1514	1378
1399095284834915786	1511	1517	1514	1378
1399095284839864390	1511	1517	1514	1378
1399095284849648158	1511	1517	1514	1378
1399095284859703605	1511	1517	1514	1379
1399095284869576432	1511	1517	1514	1378
1399095284874728833	1511	1517	1514	1378
1399095284889706452	1511	1517	1514	1378
1399095284899798374	1511	1517	1514	1378
1399095284904763958	1511	1517	1514	1378
1399095284925089151	1510	1517	1514	1378
1399095284934781035	1511	1517	1514	1378
1399095284954871270	1510	1517	1514	1378
1399095284959815548	1511	1517	1514	1378
1399095284969815080	1510	1517	1514	1378
1399095284974736223	1511	1517	1514	1378
1399095284984857037	1511	1517	1514	1378
1399095284989768979	1510	1517	1514	1378
1399095284999848945	1511	1516	1514	1378
1399095285009916724	1511	1518	1514	1379
1399095285014986430	1512	1516	1514	1377
1399095285024894120	1511	1518	1514	1378
1399095285034805959	1511	1517	1514	1378
1399095285049939906	1512	1517	1514	1378
1399095285054768327	1511	1517	1514	1378
1399095285064979058	1512	1516	1514	1378
1399095285074923980	1511	1517	1514	1378
1399095285084907277	1511	1516	1514	1378
1399095285094867634	1512	1518	1514	1378
1399095285104881161	1512	1517	1514	1378
1399095285109738384	1512	1517	1514	1378
1399095285119781974	1512	1517	1514	1378
1399095285124764674	1512	1517	1514	1377
1399095285139798565	1512	1518	1514	1378
1399095285155083539	1512	1517	1514	1378
1399095285159838495	1512	1518	1514	1378
1399095285174970695	1512	1517	1514	1377
1399095285190006670	1512	1516	1514	1377
1399095285204645399	1512	1517	1514	1377
1399095285209840336	1511	1517	1514	1377
1399095285219658966	1511	1516	1514	1377
1399095285224839599	1510	1519	1514	1378
1399095285234744708	1511	1516	1514	1377
1399095285239769802	1511	1518	1514	1377
1399095285249842300	1511	1515	1514	1377
1399095285259793790	1513	1517	1514	1378
1399095285264856177	1512	1516	1514	1434
1399095285274667561	1512	1516	1514	1426
1399095285284752460	1512	1516	1514	1427
1399095285289655909	1511	1515	1514	1427
1399095285299887292	1512	1516	1514	1427
1399095285309787256	1511	1516	1514	1427
1399095285314695742	1512	1516	1514	1427
1399095285329786321	1511	1518	1514	1428
1399095285339751457	1512	1516	1514	1427
1399095285354831171	1512	1517	1514	1427
1399095285359683814	1510	1515	1514	1427
1399095285364771648	1511	1517	1514	1428
1399095285374647338	1510	1515	1514	1427
1399095285389853239	1510	1515	1514	1428
1399095285404996707	1511	1515	1514	1428
1399095285409785784	1511	1515	1514	1428
1399095285424945224	1511	1515	1514	1428
1399095285439910784	1511	1515	1514	1428
1399095285454883568	1511	1516	1514	1427
1399095285459725710	1513	1517	1514	1428
1399095285474867494	1511	1516	1514	1427
1399095285490048711	1510	1515	1514	1427
1399095285505004147	1508	1513	1514	1427
1399095285509845855	1507	1512	1514	1427
1399095285519760224	1508	1512	1514	1427
1399095285524737173	1505	1510	1514	1426
1399095285529713578	1508	1509	1514	1426
1399095285539832549	1507	1509	1514	1425
1399095285549886914	1505	1504	1514	1425
1399095285559914419	1505	1505	1514	1424
1399095285574808992	1504	1503	1514	1423
1399095285589893719	1505	1503	1514	1422
1399095285599796897	1502	1503	1514	1420
1399095285609751079	1501	1498	1514	1420
1399095285625012933	1503	1499	1514	1419
1399095285634738913	1505	1500	1514	1420
1399095285639878937	1506	1500	1514	1417
1399095285654903754	1505	1495	1514	1417
1399095285659814030	1504	1495	1514	1416
1399095285674868020	1504	1497	1514	1416
1399095285689981572	1502	1495	1514	1414
1399095285704652840	1508	1492	1514	1413
1399095285709728856	1509	1493	1514	1413
1399095285719722854	1507	1491	1514	1412
1399095285724567478	1506	1492	1514	1410
1399095285734455575	1505	1491	1514	1410
1399095285739715267	1505	1490	1514	1409
1399095285749847541	1507	1493	1514	1408
1399095285759874593	1500	1494	1514	1406
1399095285764814892	1502	1492	1514	1406
1399095285774818877	1503	1494	1514	1405
1399095285784924475	1501	1490	1514	1404
1399095285789713664	1502	1494	1514	1403
1399095285799882281	1495	1490	1514	1404
1399095285809852811	1496	1492	1514	1402
1399095285814821004	1494	1489	1514	1402
1399095285824651916	1496	1487	1514	1400
1399095285834794918	1497	1488	1514	1401
1399095285839822614	1493	1489	1514	1401
1399095285854615600	1498	1485	1514	1399
1399095285859846528	1495	1483	1514	1398
1399095285874941341	1497	1485	1514	1398
1399095285889993851	1496	1484	1514	1397
1399095285905017380	1500	1481	1514	1395
1399095285909801350	1500	1484	1514	1396
1399095285924927951	1501	1481	1514	1394
1399095285939822942	1498	1480	1514	1394
1399095285949706532	1497	1479	1514	1392
1399095285959741496	1500	1478	1514	1393
1399095285964798526	1499	1476	1514	1393
1399095285974767845	1501	1477	1514	1392
1399095285984977292	1501	1477	1514	1392
1399095285989763013	1501	1477	1514	1391
1399095285999927400	1498	1479	1514	1394
1399095286009965271	1499	1473	1514	1390
1399095286014703455	1496	1473	1514	1390
1399095286029829359	1496	1472	1514	1391
1399095286039841943	1496	1473	1514	1389
1399095286054757422	1500	1471	1514	1391
1399095286074897501	1502	1470	1514	1389
1399095286090022086	1500	1469	1514	1389
1399095286099762554	1501	1468	1514	1389
1399095286109798203	1505	1471	1514	1390
1399095286114704996	1502	1468	1514	1388
1399095286124849309	1503	1474	1514	1390
1399095286139828343	1503	1469	1514	1389
1399095286155068466	1505	1478	1514	1389
1399095286159678673	1505	1478	1514	1391
1399095286174926446	1505	1476	1514	1389
1399095286189838121	1505	1474	1514	1389
1399095286204951294	1505	1481	1514	1389
1399095286209685973	1508	1478	1514	1389
1399095286219831078	1506	1480	1514	1390
1399095286224856129	1507	1481	1514	1390
1399095286234716448	1507	1481	1514	1389
1399095286239707654	1508	1478	1514	1389
1399095286249854636	1506	1482	1514	1390
1399095286259757059	1506	1482	1514	1390
1399095286264692734	1508	1483	1514	1390
1399095286274771810	1505	1482	1514	1390
1399095286284742312	1510	1482	1514	1391
1399095286289736642	1507	1482	1514	1391
1399095286299875956	1507	1483	1514	1390
1399095286309844707	1503	1484	1514	1392
1399095286319856837	1505	1481	1514	1391
1399095286324772842	1503	1481	1514	1391
1399095286344947110	1505	1483	1514	1391
1399095286354903778	1504	1480	1514	1393
1399095286359753583	1503	1479	1514	1392
1399095286369632760	1502	1480	1514	1392
1399095286374648891	1504	1481	1514	1393
1399095286389877736	1503	1480	1514	1393
1399095286404915906	1500	1478	1514	1393
1399095286424862212	1500	1478	1514	1394
1399095286439938822	1500	1479	1514	1395
1399095286454887957	1501	1478	1514	1394
1399095286459807971	1500	1477	1514	1395
1399095286464818318	1499	1477	1514	1396
1399095286474734347	1497	1477	1514	1395
1399095286484764233	1497	1476	1514	1396
1399095286489730823	1498	1477	1514	1396
1399095286499932830	1498	1475	1514	1397
1399095286509864279	1499	1474	1514	1396
1399095286514803582	1499	1476	1514	1396
1399095286530330187	1499	1474	1514	1396
1399095286539871965	1498	1475	1514	1397
1399095286554826089	1497	1475	1514	1398
1399095286559691613	1496	1472	1514	1397
1399095286564681548	1496	1475	1514	1397
1399095286579920723	1496	1473	1514	1398
1399095286589638443	1496	1475	1514	1398
1399095286604839607	1497	1475	1514	1399
1399095286619596295	1498	1474	1514	1398
1399095286624855616	1496	1475	1514	1398
1399095286639766158	1498	1474	1514	1399
1399095286654769056	1499	1473	1514	1399
1399095286659812914	1500	1476	1514	1401
1399095286674894787	1499	1473	1514	1399
1399095286684889324	1498	1472	1514	1399
1399095286689605105	1501	1473	1514	1400
1399095286699768746	1498	1473	1514	1400
1399095286709951873	1501	1476	1514	1401
1399095286714797827	1501	1473	1514	1400
1399095286724728225	1501	1475	1514	1401
1399095286734766729	1501	1472	1514	1400
1399095286739697518	1500	1475	1514	1400
1399095286749845472	1503	1477	1514	1401
1399095286754757331	1501	1478	1514	1401
1399095286764829648	1503	1476	1514	1401
1399095286774755597	1500	1476	1514	1401
1399095286779727965	1503	1478	1514	1402
1399095286789787944	1502	1476	1514	1401
1399095286799895071	1505	1478	1514	1401
1399095286809899926	1505	1476	1514	1401
1399095286814774381	1505	1477	1514	1401
1399095286824823154	1506	1476	1514	1401
1399095286839810036	1505	1479	1514	1402
1399095286854902256	1505	1479	1514	1402
1399095286859538008	1505	1479	1514	1402
1399095286874979888	1506	1480	1514	1402
1399095286889771668	1506	1479	1514	1402
1399095286904891819	1503	1482	1514	1402
1399095286909745208	1504	1484	1514	1403
1399095286924967924	1503	1483	1514	1403
1399095286929840230	1503	1485	1514	1403
1399095286949915682	1502	1485	1514	1403
1399095286959837819	1502	1483	1514	1403
1399095286964718483	1503	1487	1514	1404
1399095286974720844	1502	1483	1514	1402
1399095286984790125	1503	1486	1514	1404
1399095286999784238	1501	1484	1514	1403
1399095287004627853	1500	1486	1514	1404
1399095287009740552	1501	1487	1514	1403
1399095287019736410	1501	1486	1514	1404
1399095287024568856	1500	1488	1514	1404
1399095287034718441	1500	1487	1514	1404
1399095287044859756	1500	1489	1514	1405
1399095287054728701	1501	1487	1514	1403
1399095287059660269	1501	1491	1514	1405
1399095287069777994	1501	1488	1514	1403
1399095287074712632	1501	1490	1514	1404
1399095287084886178	1501	1490	1514	1404
1399095287089793996	1500	1489	1514	1405
1399095287104887097	1502	1489	1514	1404
1399095287109805350	1500	1488	1514	1404
1399095287119835808	1501	1490	1514	1405
1399095287124786944	1500	1487	1514	1404
1399095287139909794	1500	1488	1514	1404
1399095287154911500	1503	1485	1514	1405
1399095287159837399	1504	1484	1514	1405
1399095287174810560	1503	1485	1514	1405
1399095287189913496	1503	1484	1514	1404
1399095287205083661	1501	1481	1514	1404
1399095287209768990	1502	1484	1514	1404
1399095287219763650	1502	1481	1514	1404
1399095287224850742	1503	1485	1514	1405
1399095287234851527	1501	1483	1514	1405
1399095287244842200	1503	1484	1514	1405
1399095287249792103	1502	1482	1514	1405
1399095287259812729	1504	1480	1514	1405
1399095287274845740	1504	1482	1514	1405
1399095287289989073	1504	1481	1514	1404
1399095287309900392	1506	1479	1514	1405
1399095287325359617	1507	1479	1514	1405
1399095287339916902	1507	1478	1514	1405
1399095287359856948	1508	1480	1514	1405
1399095287364778666	1508	1478	1514	1404
1399095287389896298	1507	1480	1514	1405
1399095287394782561	1508	1480	1514	1405
1399095287400098049	1507	1480	1514	1405
1399095287409897570	1506	1478	1514	1405
1399095287424865083	1506	1478	1514	1405
1399095287439893050	1507	1478	1514	1405
1399095287455046729	1504	1477	1514	1406
1399095287459812650	1505	1477	1514	1405
1399095287464783708	1505	1477	1514	1406
1399095287474842555	1505	1476	1514	1405
1399095287484886696	1506	1477	1514	1406
1399095287489815882	1505	1477	1514	1406
1399095287499833011	1507	1476	1514	1406
1399095287509917138	1506	1478	1514	1407
1399095287514809817	1509	1476	1514	1406
1399095287524741377	1506	1478	1514	1407
1399095287539983087	1507	1477	1514	1407
1399095287559823200	1507	1480	1514	1407
1399095287574920345	1506	1480	1514	1407
1399095287590088238	1507	1480	1514	1407
1399095287609866594	1506	1481	1514	1408
1399095287614750607	1506	1481	1514	1408
1399095287624728121	1506	1481	1514	1408
1399095287629872551	1507	1482	1514	1409
1399095287654932409	1507	1482	1514	1408
1399095287659622224	1507	1482	1514	1409
1399095287669734702	1507	1483	1514	1408
1399095287674686468	1507	1481	1514	1409
1399095287684843220	1507	1482	1514	1408
1399095287689868974	1507	1482	1514	1409
1399095287699759246	1508	1482	1514	1409
1399095287709828043	1509	1480	1514	1409
1399095287714781524	1509	1481	1514	1409
1399095287724790276	1509	1481	1514	1409
1399095287734974541	1508	1480	1514	1410
1399095287739819126	1509	1483	1514	1409
1399095287749966224	1509	1479	1514	1410
1399095287759871679	1510	1482	1514	1410
1399095287774587973	1509	1481	1514	1410
1399095287784859525	1509	1481	1514	1409
1399095287789574605	1510	1482	1514	1410
1399095287799847894	1507	1484	1514	1409
1399095287809865157	1506	1482	1514	1410
1399095287825226369	1507	1483	1514	1410
1399095287839922844	1507	1483	1514	1410
1399095287854968893	1505	1483	1514	1411
1399095287859744547	1505	1482	1514	1409
1399095287874978797	1505	1483	1514	1410
1399095287889928880	1505	1483	1514	1410
1399095287905036498	1503	1483	1514	1410
1399095287909860930	1503	1485	1514	1411
1399095287914791147	1502	1484	1514	1409
1399095287924840389	1502	1485	1514	1411
1399095287934812002	1502	1484	1514	1410
1399095287939701373	1502	1484	1514	1411
1399095287949804756	1500	1484	1514	1410
1399095287959808021	1501	1483	1514	1410
1399095287964976740	1500	1484	1514	1410
1399095287974779481	1500	1484	1514	1410
1399095287979723624	1499	1485	1514	1411
1399095287989830873	1499	1484	1514	1410
1399095288004897189	1500	1484	1514	1411
1399095288009784747	1498	1483	1514	1410
1399095288019855717	1500	1484	1514	1410
1399095288024804230	1498	1484	1514	1410
1399095288034902068	1499	1483	1514	1410
1399095288044845463	1497	1484	1514	1410
1399095288054842178	1498	1486	1514	1410
1399095288059804279	1497	1485	1514	1410
1399095288069756544	1496	1485	1514	1410
1399095288074713919	1497	1486	1514	1410
1399095288089832175	1496	1486	1514	1410
1399095288105018372	1493	1487	1514	1410
1399095288109749087	1496	1487	1514	1410
1399095288119849042	1494	1488	1514	1410
1399095288124743445	1494	1487	1514	1410
1399095288139861397	1494	1487	1514	1410
1399095288155048846	1494	1487	1514	1410
1399095288159761123	1492	1488	1514	1409
1399095288174857563	1493	1488	1514	1410
1399095288189884748	1493	1488	1514	1410
1399095288214854577	1496	1489	1514	1410
1399095288224888729	1498	1488	1514	1410
1399095288229826431	1496	1489	1514	1410
1399095288239730388	1497	1489	1514	1410
1399095288254875764	1499	1489	1514	1410
1399095288259775532	1500	1488	1514	1410
1399095288269745460	1501	1488	1514	1410
1399095288274685399	1499	1488	1514	1410
1399095288289916524	1500	1488	1514	1410
1399095288299825801	1501	1489	1514	1411
1399095288309836510	1505	1483	1514	1410
1399095288314784378	1505	1486	1514	1411
1399095288324900114	1506	1484	1514	1411
1399095288339927896	1506	1485	1514	1411
1399095288359899161	1510	1482	1514	1411
1399095288364818350	1511	1480	1514	1411
1399095288374967001	1510	1482	1514	1412
1399095288384833934	1511	1480	1514	1412
1399095288389718130	1512	1482	1514	1412
1399095288404813438	1514	1477	1514	1412
1399095288409653246	1514	1479	1514	1413
1399095288414772823	1515	1478	1514	1412
1399095288424799903	1515	1478	1514	1413
1399095288434866649	1516	1478	1514	1413
1399095288439783468	1516	1477	1514	1413
1399095288454919328	1517	1476	1514	1413
1399095288459913143	1519	1475	1514	1413
1399095288469559052	1517	1476	1514	1414
1399095288474853801	1519	1475	1514	1413
1399095288489790634	1518	1475	1514	1413
1399095288499954956	1517	1477	1514	1414
1399095288509829474	1516	1475	1514	1414
1399095288519908453	1519	1477	1514	1414
1399095288524812966	1516	1475	1514	1414
1399095288539865482	1518	1475	1514	1414
1399095288555008448	1515	1478	1514	1413
1399095288559748314	1514	1477	1514	1414
1399095288569804880	1514	1476	1514	1414
1399095288574742837	1515	1476	1514	1414
1399095288589914720	1514	1477	1514	1414
1399095288604945517	1505	1477	1514	1413
1399095288609763997	1507	1478	1514	1414
1399095288614718177	1507	1476	1514	1413
1399095288624797384	1506	1477	1514	1413
1399095288634774265	1507	1476	1514	1413
1399095288639678047	1506	1475	1514	1413
1399095288649889319	1504	1478	1514	1414
1399095288659835594	1502	1477	1514	1413
1399095288664857140	1503	1477	1514	1413
1399095288674859601	1502	1476	1514	1413
1399095288684833829	1501	1478	1514	1413
1399095288689842901	1502	1478	1514	1413
1399095288699983777	1497	1480	1514	1413
1399095288709768155	1497	1481	1514	1413
1399095288714796473	1496	1479	1514	1412
1399095288724799717	1495	1482	1514	1413
1399095288739809235	1495	1480	1514	1412
1399095288755028727	1493	1484	1514	1412
1399095288759803943	1492	1484	1514	1412
1399095288774849213	1491	1484	1514	1412
1399095288790035948	1491	1484	1514	1412
1399095288804897138	1489	1487	1514	1412
1399095288809831310	1489	1487	1514	1411
1399095288825296527	1487	1487	1514	1411
1399095288839912386	1486	1488	1514	1411
1399095288854937408	1484	1488	1514	1411
1399095288859753368	1484	1490	1514	1411
1399095288864779175	1484	1490	1514	1411
1399095288874750423	1482	1491	1514	1411
1399095288889890716	1482	1490	1514	1410
1399095288919534211	1485	1492	1514	1410
1399095288924964053	1484	1495	1514	1410
1399095288934470465	1483	1495	1514	1410
1399095288939743383	1484	1494	1514	1410
1399095288949476704	1487	1495	1514	1410
1399095288959518913	1487	1495	1514	1410
1399095288964563956	1487	1495	1514	1409
1399095288979855423	1487	1495	1514	1408
1399095288989861086	1485	1496	1514	1409
1399095289004893514	1491	1495	1514	1409
1399095289009747648	1490	1495	1514	1409
1399095289014795798	1491	1495	1514	1409
1399095289024872637	1489	1496	1514	1408
1399095289039839301	1490	1497	1514	1408
1399095289054916079	1492	1495	1514	1408
1399095289059806915	1493	1496	1514	1408
1399095289074917582	1492	1497	1514	1408
1399095289090051218	1492	1499	1514	1408
1399095289104892564	1491	1496	1514	1408
1399095289109806686	1492	1498	1514	1408
1399095289119813361	1492	1498	1514	1408
1399095289124820337	1492	1498	1514	1408
1399095289139832616	1493	1498	1514	1408
1399095289149844489	1494	1499	1514	1407
1399095289159767327	1494	1499	1514	1408
1399095289164884485	1498	1498	1514	1408
1399095289174847637	1497	1497	1514	1408
1399095289184904285	1497	1498	1514	1408
1399095289189701763	1499	1500	1514	1408
1399095289199798521	1496	1496	1514	1408
1399095289209766809	1499	1498	1514	1408
1399095289214814569	1498	1495	1514	1408
1399095289224848491	1497	1499	1514	1409
1399095289239849680	1498	1498	1514	1409
1399095289249898496	1499	1496	1514	1408
1399095289259772322	1500	1497	1514	1409
1399095289274929660	1501	1497	1514	1409
1399095289289904589	1501	1497	1514	1409
1399095289305008877	1503	1494	1514	1409
1399095289309778776	1502	1494	1514	1409
1399095289324949048	1503	1495	1514	1410
1399095289339989487	1504	1495	1514	1410
1399095289354834626	1505	1493	1514	1410
1399095289359732147	1503	1494	1514	1410
1399095289369822079	1505	1494	1514	1409
1399095289374481752	1500	1495	1514	1410
1399095289389880957	1500	1495	1514	1410
1399095289405006363	1499	1495	1514	1410
1399095289409851539	1501	1496	1514	1410
1399095289424921758	1499	1496	1514	1410
1399095289439955577	1500	1495	1514	1411
1399095289449843902	1497	1495	1514	1411
1399095289459841702	1497	1494	1514	1411
1399095289469730141	1497	1496	1514	1411
1399095289474676871	1498	1493	1514	1411
1399095289479824545	1497	1495	1514	1411
1399095289489779024	1498	1493	1514	1411
1399095289505031572	1495	1493	1514	1411
1399095289509765616	1494	1492	1514	1411
1399095289514746649	1495	1492	1514	1411
1399095289524792279	1495	1492	1514	1411
1399095289539833721	1495	1491	1514	1411
1399095289554881963	1495	1492	1514	1411
1399095289559725703	1494	1493	1514	1412
1399095289574822897	1494	1493	1514	1412
1399095289584821155	1494	1492	1514	1412
1399095289589704986	1494	1492	1514	1411
1399095289599875694	1492	1491	1514	1412
1399095289609500277	1493	1493	1514	1412
1399095289614550847	1492	1491	1514	1412
1399095289624848870	1493	1493	1514	1413
1399095289634481978	1492	1494	1514	1412
1399095289639707611	1493	1493	1514	1413
1399095289649451281	1491	1496	1514	1413
1399095289654647089	1493	1494	1514	1413
1399095289664771982	1491	1495	1514	1413
1399095289679841079	1492	1495	1514	1413
1399095289684784058	1492	1495	1514	1414
1399095289689815575	1491	1495	1514	1413
1399095289699753152	1494	1496	1514	1414
1399095289709835388	1492	1496	1514	1414
1399095289714923214	1494	1496	1514	1414
1399095289725222465	1492	1497	1514	1414
1399095289740069151	1494	1496	1514	1414
1399095289754890253	1492	1495	1514	1414
1399095289759733079	1495	1496	1514	1415
1399095289769769178	1498	1496	1514	1415
1399095289774767775	1500	1497	1514	1415
1399095289789747259	1498	1497	1514	1415
1399095289799741410	1501	1497	1514	1416
1399095289804703748	1501	1496	1514	1416
1399095289824866066	1502	1495	1514	1416
1399095289839806475	1502	1495	1514	1416
1399095289849885038	1503	1496	1514	1417
1399095289854807460	1506	1494	1514	1416
1399095289869730229	1506	1494	1514	1418
1399095289874804234	1507	1494	1514	1417
1399095289889892658	1507	1495	1514	1418
1399095289899956252	1509	1492	1514	1418
1399095289909777675	1510	1494	1514	1418
1399095289914721323	1511	1491	1514	1418
1399095289924807696	1510	1492	1514	1419
1399095289934783508	1512	1492	1514	1418
1399095289939848278	1510	1493	1514	1419
1399095289950120824	1511	1493	1514	1419
1399095289964917817	1513	1492	1514	1420
1399095289969861620	1513	1493	1514	1420
1399095289974869858	1513	1490	1514	1420
1399095289989870290	1515	1491	1514	1419
1399095290004909252	1516	1491	1514	1420
1399095290009829682	1516	1490	1514	1419
1399095290019796588	1516	1489	1514	1420
1399095290024892974	1516	1492	1514	1420
1399095290039906703	1518	1489	1514	1420
1399095290054895973	1518	1487	1514	1419
1399095290059838437	1519	1489	1514	1420
1399095290069790798	1519	1488	1514	1419
1399095290074755697	1521	1488	1514	1420
1399095290089763954	1520	1489	1514	1420
1399095290104982084	1520	1486	1514	1420
1399095290109884025	1520	1484	1514	1419
1399095290119819013	1523	1489	1514	1421
1399095290124818636	1523	1486	1514	1419
1399095290129794545	1522	1485	1514	1421
1399095290140048752	1522	1485	1514	1419
1399095290149944828	1523	1485	1514	1420
1399095290159823922	1519	1487	1514	1419
1399095290164800804	1520	1486	1514	1419
1399095290174855973	1519	1487	1514	1420
1399095290184786005	1519	1485	1514	1419
1399095290189715296	1521	1487	1514	1419
1399095290204781558	1519	1486	1514	1419
1399095290209716726	1518	1487	1514	1420
1399095290224876233	1518	1486	1514	1419
1399095290239819558	1519	1485	1514	1418
1399095290254974033	1518	1486	1514	1419
1399095290259813938	1517	1485	1514	1418
1399095290264760404	1518	1485	1514	1419
1399095290274850411	1518	1485	1514	1417
1399095290289754737	1517	1485	1514	1418
1399095290304949488	1516	1480	1514	1418
1399095290309723268	1518	1482	1514	1418
1399095290319732065	1516	1481	1514	1417
1399095290324694888	1515	1481	1514	1418
1399095290339912558	1515	1480	1514	1418
1399095290359826470	1515	1482	1514	1418
1399095290369779436	1514	1481	1514	1418
1399095290374799837	1514	1480	1514	1417
1399095290384807291	1514	1481	1514	1417
1399095290389710383	1516	1480	1514	1417
1399095290399910890	1513	1479	1514	1418
1399095290404803713	1514	1479	1514	1418
1399095290414755999	1513	1478	1514	1417
1399095290424470379	1515	1478	1514	1417
1399095290434510699	1513	1478	1514	1417
1399095290439738428	1513	1477	1514	1416
1399095290454826766	1512	1477	1514	1417
1399095290459805708	1511	1477	1514	1416
1399095290464923544	1512	1477	1514	1416
1399095290474774999	1510	1478	1514	1417
1399095290489884117	1511	1477	1514	1416
1399095290499841730	1510	1479	1514	1416
1399095290509886169	1509	1480	1514	1416
1399095290519800301	1508	1478	1514	1416
1399095290524718595	1510	1478	1514	1416
1399095290539917814	1509	1477	1514	1415
1399095290554950806	1507	1480	1514	1415
1399095290559881415	1508	1476	1514	1414
1399095290569912166	1507	1478	1514	1415
1399095290574759588	1506	1476	1514	1413
1399095290584830189	1507	1478	1514	1415
1399095290589859115	1505	1478	1514	1413
1399095290599861117	1505	1475	1514	1414
1399095290604932297	1505	1476	1514	1413
1399095290619920385	1505	1473	1514	1412
1399095290624782636	1505	1476	1514	1413
1399095290634767983	1504	1476	1514	1412
1399095290639715449	1505	1476	1514	1414
1399095290649777384	1502	1475	1514	1412
1399095290664903049	1502	1475	1514	1413
1399095290674856873	1502	1476	1514	1412
1399095290684872965	1501	1476	1514	1412
1399095290689731985	1502	1474	1514	1411
1399095290699920096	1502	1475	1514	1411
1399095290709847590	1502	1477	1514	1411
1399095290719795877	1504	1476	1514	1411
1399095290724768121	1501	1475	1514	1410
1399095290740046971	1502	1477	1514	1411
1399095290754750810	1507	1475	1514	1410
1399095290759788745	1505	1476	1514	1411
1399095290774709989	1506	1475	1514	1410
1399095290789829890	1505	1474	1514	1410
1399095290804946051	1506	1476	1514	1410
1399095290809848776	1507	1477	1514	1411
1399095290825006434	1506	1476	1514	1410
1399095290839894073	1506	1475	1514	1410
1399095290854824129	1506	1477	1514	1410
1399095290859855441	1505	1478	1514	1410
1399095290869768964	1505	1478	1514	1411
1399095290874744849	1504	1476	1514	1411
1399095290884782493	1504	1477	1514	1410
1399095290889750501	1504	1476	1514	1411
1399095290899775894	1505	1478	1514	1411
1399095290909831566	1503	1482	1514	1411
1399095290914796565	1503	1482	1514	1411
1399095290925240651	1502	1483	1514	1411
1399095290939938607	1502	1482	1514	1411
1399095290954869888	1500	1484	1514	1411
1399095290959917178	1500	1487	1514	1412
1399095290964891736	1499	1484	1514	1411
1399095290974843980	1500	1485	1514	1412
1399095290989767472	1499	1486	1514	1411
1399095291004900080	1500	1488	1514	1411
1399095291009879979	1501	1486	1514	1412
1399095291024846163	1501	1488	1514	1412
1399095291039898609	1501	1488	1514	1411
1399095291054811378	1499	1488	1514	1413
1399095291059843725	1499	1488	1514	1410
1399095291069919809	1498	1486	1514	1412
1399095291074849791	1498	1488	1514	1411
1399095291089956291	1497	1487	1514	1411
1399095291114914068	1500	1486	1514	1411
1399095291124843656	1498	1487	1514	1411
1399095291139958161	1498	1488	1514	1411
1399095291149927115	1498	1484	1514	1411
1399095291159746812	1496	1482	1514	1410
1399095291164781464	1496	1484	1514	1411
1399095291174753438	1496	1482	1514	1411
1399095291189835475	1495	1484	1514	1411
1399095291199444486	1496	1484	1514	1411
1399095291209774988	1496	1484	1514	1411
1399095291219868723	1495	1481	1514	1410
1399095291224789475	1496	1484	1514	1411
1399095291239865846	1495	1483	1514	1411
1399095291255146777	1495	1483	1514	1411
1399095291259813442	1495	1482	1514	1411
1399095291264797642	1495	1485	1514	1411
1399095291274880093	1494	1482	1514	1411
1399095291284842719	1495	1485	1514	1411
1399095291304879984	1494	1483	1514	1411
1399095291309752973	1496	1481	1514	1410
1399095291325074852	1496	1482	1514	1411
1399095291334862457	1496	1481	1514	1411
1399095291354851706	1497	1480	1514	1410
1399095291359794090	1498	1482	1514	1411
1399095291369834541	1496	1479	1514	1410
1399095291374794221	1497	1481	1514	1411
1399095291384806129	1497	1481	1514	1410
1399095291389755602	1496	1481	1514	1412
1399095291399805464	1498	1481	1514	1411
1399095291409788945	1495	1480	1514	1411
1399095291424697124	1497	1481	1514	1411
1399095291434827657	1497	1483	1514	1412
1399095291444908559	1496	1481	1514	1411
1399095291454966638	1496	1481	1514	1412
1399095291459814160	1495	1480	1514	1411
1399095291469819811	1494	1480	1514	1411
1399095291474749311	1496	1480	1514	1411
1399095291489790176	1494	1481	1514	1411
1399095291505001856	1491	1481	1514	1412
1399095291509778923	1491	1482	1514	1412
1399095291519772570	1491	1481	1514	1412
1399095291524822424	1491	1481	1514	1412
1399095291539928005	1491	1481	1514	1412
1399095291554863754	1487	1484	1514	1412
1399095291564859723	1486	1485	1514	1412
1399095291574817116	1485	1484	1514	1413
1399095291584799564	1484	1484	1514	1413
1399095291589710675	1485	1485	1514	1413
1399095291600111629	1483	1484	1514	1413
1399095291609881803	1483	1484	1514	1412
1399095291614760281	1483	1483	1514	1413
1399095291624891045	1482	1484	1514	1413
1399095291629896180	1482	1483	1514	1413
1399095291639850325	1480	1483	1514	1413
1399095291654805048	1478	1484	1514	1413
1399095291659821688	1477	1484	1514	1414
1399095291664788412	1479	1486	1514	1414
1399095291674839381	1478	1484	1514	1414
1399095291689884675	1478	1485	1514	1414
1399095291704901205	1478	1482	1514	1414
1399095291709881655	1479	1484	1514	1414
1399095291714812680	1478	1484	1514	1415
1399095291724948424	1478	1486	1514	1415
1399095291739867134	1478	1485	1514	1416
1399095291754943747	1483	1482	1514	1415
1399095291759931106	1484	1481	1514	1415
1399095291769831201	1484	1483	1514	1415
1399095291774715682	1484	1482	1514	1415
1399095291789834462	1482	1483	1514	1416
1399095291804901385	1489	1481	1514	1417
1399095291809767090	1490	1479	1514	1416
1399095291824809139	1489	1479	1514	1416
1399095291839872093	1489	1479	1514	1417
1399095291849975109	1493	1477	1514	1417
1399095291859854080	1495	1478	1514	1417
1399095291864833388	1495	1476	1514	1417
1399095291874757307	1494	1477	1514	1417
1399095291879716378	1497	1477	1514	1417
1399095291889891696	1494	1478	1514	1418
1399095291899759181	1501	1476	1514	1417
1399095291914992689	1501	1476	1514	1417
1399095291924805285	1504	1476	1514	1417
1399095291939778757	1504	1475	1514	1418
1399095291954994837	1506	1474	1514	1418
1399095291959945985	1508	1476	1514	1418
1399095291964795870	1506	1475	1514	1419
1399095291974799017	1509	1474	1514	1418
1399095291989846739	1510	1475	1514	1418
1399095292004899734	1512	1476	1514	1419
1399095292009792339	1510	1475	1514	1419
1399095292019771978	1512	1474	1514	1419
1399095292024711452	1510	1475	1514	1419
1399095292039822346	1513	1475	1514	1419
1399095292054937287	1512	1478	1514	1419
1399095292059798058	1513	1479	1514	1419
1399095292069846483	1513	1478	1514	1419
1399095292074703823	1513	1479	1514	1420
1399095292099901485	1512	1481	1514	1420
1399095292109830768	1515	1481	1514	1419
1399095292124843905	1514	1481	1514	1420
1399095292144871201	1516	1482	1514	1420
1399095292154751921	1512	1486	1514	1420
1399095292159739919	1510	1488	1514	1420
1399095292174796221	1511	1487	1514	1420
1399095292189897062	1512	1488	1514	1421
1399095292199811862	1508	1489	1514	1420
1399095292209824658	1508	1489	1514	1421
1399095292219858972	1509	1492	1514	1421
1399095292224883364	1508	1491	1514	1421
1399095292239958722	1509	1491	1514	1421
1399095292254953649	1508	1493	1514	1421
1399095292259824176	1508	1495	1514	1421
1399095292264754146	1505	1493	1514	1421
1399095292274804255	1508	1495	1514	1422
1399095292279791782	1506	1495	1514	1422
1399095292289715610	1509	1496	1514	1422
1399095292304950863	1505	1498	1514	1422
1399095292309754412	1503	1497	1514	1421
1399095292314721340	1504	1497	1514	1421
1399095292324979459	1503	1499	1514	1421
1399095292334905873	1506	1497	1514	1422
1399095292339776014	1504	1501	1514	1422
1399095292349873914	1504	1498	1514	1422
1399095292360211701	1503	1499	1514	1422
1399095292364768680	1502	1499	1514	1421
1399095292374785644	1503	1499	1514	1422
1399095292384877134	1502	1502	1514	1421
1399095292389775309	1501	1499	1514	1422
1399095292404935250	1502	1504	1514	1423
1399095292409823946	1502	1501	1514	1422
1399095292424988250	1502	1503	1514	1422
1399095292439935734	1502	1503	1514	1422
1399095292454881613	1502	1503	1514	1422
1399095292459715855	1503	1505	1514	1422
1399095292469841913	1502	1505	1514	1422
1399095292474687589	1503	1505	1514	1422
1399095292489897284	1503	1505	1514	1422
1399095292504981137	1507	1504	1514	1422
1399095292509764982	1504	1504	1514	1422
1399095292519901464	1507	1505	1514	1422
1399095292524833257	1506	1504	1514	1422
1399095292534903317	1507	1504	1514	1422
1399095292539909375	1507	1504	1514	1422
1399095292549725096	1510	1500	1514	1422
1399095292559865125	1512	1501	1514	1422
1399095292564760259	1513	1501	1514	1422
1399095292574729365	1513	1502	1514	1423
1399095292584798824	1512	1500	1514	1422
1399095292589784757	1513	1503	1514	1423
1399095292599835494	1514	1500	1514	1422
1399095292614813812	1515	1501	1514	1423
1399095292619803218	1514	1500	1514	1422
1399095292624517819	1516	1501	1514	1423
1399095292639832177	1519	1501	1514	1422
1399095292649610619	1522	1500	1514	1423
1399095292659761545	1521	1499	1514	1422
1399095292664909175	1522	1500	1514	1424
1399095292674757914	1521	1500	1514	1422
1399095292689863010	1524	1498	1514	1423
1399095292699847250	1528	1498	1514	1423
1399095292709747587	1527	1499	1514	1423
1399095292719735588	1528	1498	1514	1422
1399095292724772793	1528	1498	1514	1423
1399095292739823965	1529	1497	1514	1423
1399095292754897473	1528	1495	1514	1423
1399095292759773849	1527	1498	1514	1423
1399095292774871363	1528	1497	1514	1423
1399095292789773439	1528	1495	1514	1423
1399095292799786821	1528	1492	1514	1423
1399095292804748382	1528	1493	1514	1424
1399095292824919685	1528	1493	1514	1424
1399095292849888300	1526	1490	1514	1424
1399095292859842376	1526	1490	1514	1422
1399095292874935341	1527	1489	1514	1424
1399095292884852841	1528	1487	1514	1423
1399095292889807470	1527	1487	1514	1424
1399095292899797570	1521	1488	1514	1423
1399095292909730470	1522	1487	1514	1424
1399095292924845004	1522	1486	1514	1423
1399095292939954095	1521	1486	1514	1424
1399095292959925702	1518	1484	1514	1424
1399095292969980504	1518	1482	1514	1424
1399095292974835357	1520	1484	1514	1424
1399095292989922630	1519	1483	1514	1423
1399095293005197286	1515	1485	1514	1423
1399095293009563744	1515	1481	1514	1423
1399095293019817989	1516	1483	1514	1423
1399095293024987917	1515	1482	1514	1423
1399095293039773884	1515	1482	1514	1423
1399095293054881862	1514	1483	1514	1423
1399095293059766734	1513	1485	1514	1423
1399095293069828346	1513	1482	1514	1423
1399095293074773475	1512	1483	1514	1423
1399095293084780581	1512	1482	1514	1422
1399095293104903605	1509	1485	1514	1423
1399095293109753176	1508	1483	1514	1423
1399095293119864079	1508	1485	1514	1422
1399095293124809106	1508	1484	1514	1422
1399095293129756085	1508	1485	1514	1422
1399095293139787249	1507	1483	1514	1421
1399095293154806259	1506	1484	1514	1422
1399095293159789217	1508	1488	1514	1420
1399095293174868691	1509	1488	1514	1421
1399095293184855753	1508	1487	1514	1420
1399095293189713517	1507	1488	1514	1421
1399095293204958786	1508	1486	1514	1419
1399095293209864506	1508	1488	1514	1420
1399095293224921974	1508	1488	1514	1420
1399095293234849233	1507	1488	1514	1419
1399095293239818774	1506	1487	1514	1420
1399095293249825773	1512	1489	1514	1420
1399095293254786135	1513	1486	1514	1419
1399095293269857524	1514	1488	1514	1419
1399095293274841204	1513	1486	1514	1418
1399095293279753465	1513	1487	1514	1419
1399095293289849475	1514	1487	1514	1418
1399095293299895932	1516	1486	1514	1418
1399095293309842244	1519	1488	1514	1418
1399095293314715293	1516	1487	1514	1418
1399095293324882194	1519	1488	1514	1418
1399095293334896458	1517	1488	1514	1418
1399095293339799100	1517	1488	1514	1418
1399095293349839337	1520	1488	1514	1418
1399095293359847481	1518	1488	1514	1418
1399095293364814086	1520	1487	1514	1418
1399095293379888596	1520	1487	1514	1417
1399095293389837317	1520	1487	1514	1417
1399095293404908153	1517	1488	1514	1417
1399095293409822331	1515	1489	1514	1417
1399095293424837208	1517	1488	1514	1417
1399095293440002002	1518	1487	1514	1417
1399095293455031127	1512	1488	1514	1417
1399095293459760035	1511	1487	1514	1417
1399095293469729425	1513	1489	1514	1417
1399095293474878689	1513	1487	1514	1417
1399095293489810929	1514	1487	1514	1417
1399095293504901736	1514	1484	1514	1416
1399095293509838136	1513	1486	1514	1417
1399095293514843883	1512	1486	1514	1416
1399095293524824461	1514	1485	1514	1417
1399095293534776603	1513	1487	1514	1416
1399095293539755676	1515	1484	1514	1416
1399095293549627388	1518	1486	1514	1416
1399095293564684572	1518	1485	1514	1417
1399095293574871072	1518	1485	1514	1416
1399095293584901552	1518	1485	1514	1417
1399095293589779316	1517	1484	1514	1417
1399095293599664462	1518	1485	1514	1417
1399095293614867842	1519	1484	1514	1416
1399095293624863493	1517	1484	1514	1417
1399095293629917848	1517	1484	1514	1416
1399095293639774680	1517	1486	1514	1417
1399095293649866747	1516	1486	1514	1416
1399095293659787542	1516	1485	1514	1416
1399095293674928971	1516	1486	1514	1416
1399095293690043709	1515	1486	1514	1416
1399095293704875795	1511	1487	1514	1416
1399095293709807895	1511	1489	1514	1416
1399095293719855654	1511	1487	1514	1416
1399095293724788776	1513	1489	1514	1416
1399095293729739692	1511	1489	1514	1416
1399095293739725691	1511	1488	1514	1417
1399095293754895673	1510	1493	1514	1416
1399095293759847203	1507	1491	1514	1417
1399095293764791992	1510	1491	1514	1417
1399095293774893824	1509	1491	1514	1416
1399095293784805865	1508	1491	1514	1417
1399095293789728895	1507	1491	1514	1417
1399095293805320463	1503	1490	1514	1417
1399095293809846873	1504	1490	1514	1418
1399095293814787764	1502	1491	1514	1417
1399095293824533075	1503	1491	1514	1418
1399095293834753688	1501	1493	1514	1418
1399095293844923097	1500	1491	1514	1418
1399095293854766415	1500	1487	1514	1418
1399095293859737238	1500	1487	1514	1418
1399095293864804349	1499	1487	1514	1418
1399095293879864567	1498	1488	1514	1418
1399095293889773348	1498	1489	1514	1418
1399095293905048833	1493	1489	1514	1418
1399095293909876787	1493	1491	1514	1419
1399095293924880959	1493	1490	1514	1419
1399095293939542519	1492	1492	1514	1419
1399095293954823808	1493	1497	1514	1420
1399095293959803168	1492	1496	1514	1419
1399095293974881017	1492	1497	1514	1420
1399095293989620154	1491	1496	1514	1420
1399095294004909105	1498	1499	1514	1420
1399095294009801916	1497	1498	1514	1420
1399095294025035603	1496	1499	1514	1420
1399095294034849293	1496	1499	1514	1421
1399095294039786719	1496	1498	1514	1420
1399095294049895796	1501	1501	1514	1421
1399095294059833229	1502	1502	1514	1420
1399095294064751346	1501	1500	1514	1420
1399095294074971651	1502	1501	1514	1420
1399095294089809731	1502	1500	1514	1420
1399095294099820665	1503	1500	1514	1420
1399095294109738283	1504	1501	1514	1420
1399095294119685217	1508	1495	1514	1419
1399095294124787839	1507	1495	1514	1420
1399095294139863285	1508	1496	1514	1419
1399095294154931713	1512	1493	1514	1419
1399095294159764734	1510	1491	1514	1419
1399095294175046109	1511	1493	1514	1419
1399095294189909454	1512	1494	1514	1419
1399095294205052502	1511	1494	1514	1419
1399095294209795318	1513	1494	1514	1419
1399095294214812208	1512	1497	1514	1419
1399095294225060902	1514	1497	1514	1419
1399095294229759781	1514	1495	1514	1418
1399095294239779434	1515	1497	1514	1419
1399095294249817952	1513	1496	1514	1418
1399095294259825289	1512	1497	1514	1419
1399095294269833919	1514	1495	1514	1419
1399095294274765487	1513	1496	1514	1419
1399095294284975690	1516	1496	1514	1419
1399095294289781320	1514	1496	1514	1419
1399095294304866580	1517	1496	1514	1418
1399095294309882369	1516	1496	1514	1419
1399095294314780678	1520	1493	1514	1418
1399095294324842046	1518	1493	1514	1419
1399095294334794636	1518	1493	1514	1419
1399095294339755165	1520	1494	1514	1419
1399095294354826364	1517	1492	1514	1419
1399095294359816044	1519	1493	1514	1420
1399095294374990871	1518	1492	1514	1419
1399095294389947360	1518	1493	1514	1420
1399095294404818116	1514	1492	1514	1420
1399095294409783967	1513	1494	1514	1420
1399095294424897487	1514	1493	1514	1420
1399095294439893813	1513	1493	1514	1421
1399095294454877442	1507	1496	1514	1420
1399095294459818097	1507	1496	1514	1421
1399095294474844164	1507	1495	1514	1420
1399095294479742031	1507	1494	1514	1420
1399095294499803325	1508	1493	1514	1420
1399095294509595895	1507	1496	1514	1420
1399095294514711787	1506	1496	1514	1420
1399095294524910803	1506	1495	1514	1420
1399095294534977837	1505	1494	1514	1421
1399095294549972931	1508	1492	1514	1420
1399095294559848569	1507	1493	1514	1421
1399095294564812388	1507	1492	1514	1420
1399095294579833445	1504	1492	1514	1421
1399095294589818962	1505	1492	1514	1421
1399095294604902857	1508	1488	1514	1420
1399095294609854138	1508	1489	1514	1421
1399095294619743453	1506	1489	1514	1420
1399095294624966768	1508	1489	1514	1421
1399095294639786670	1507	1490	1514	1421
1399095294655079154	1503	1490	1514	1421
1399095294659949120	1503	1488	1514	1420
1399095294674986982	1503	1489	1514	1421
1399095294689975129	1503	1489	1514	1421
1399095294704924634	1503	1488	1514	1420
1399095294709836252	1503	1489	1514	1421
1399095294719776079	1499	1492	1514	1420
1399095294724786130	1500	1492	1514	1421
1399095294739915225	1499	1491	1514	1420
1399095294754938719	1496	1492	1514	1420
1399095294759768256	1497	1491	1514	1420
1399095294764664937	1496	1492	1514	1420
1399095294774784809	1495	1491	1514	1421
1399095294784764344	1495	1492	1514	1420
1399095294789686285	1495	1491	1514	1420
1399095294799778914	1496	1490	1514	1421
1399095294809805493	1494	1489	1514	1420
1399095294819753085	1494	1489	1514	1421
1399095294824779816	1493	1491	1514	1420
1399095294839883608	1493	1490	1514	1421
1399095294854959892	1489	1491	1514	1421
1399095294859782062	1489	1492	1514	1422
1399095294869865630	1489	1493	1514	1420
1399095294874710192	1487	1492	1514	1422
1399095294889816997	1487	1493	1514	1421
1399095294905020462	1487	1494	1514	1421
1399095294909830909	1488	1492	1514	1421
1399095294914780442	1489	1492	1514	1421
1399095294939864718	1488	1493	1514	1421
1399095294954937578	1486	1491	1514	1421
1399095294959861990	1487	1491	1514	1421
1399095294969828376	1487	1492	1514	1421
1399095294974665471	1485	1491	1514	1422
1399095294994903063	1487	1491	1514	1421
1399095295004867338	1492	1488	1514	1420
1399095295009873567	1491	1488	1514	1420
1399095295019786762	1491	1490	1514	1422
1399095295024863148	1491	1489	1514	1421
1399095295049902176	1493	1487	1514	1421
1399095295054775322	1493	1486	1514	1420
1399095295059880122	1494	1488	1514	1421
1399095295064782811	1494	1488	1514	1421
1399095295074774260	1494	1488	1514	1421
1399095295089874077	1494	1487	1514	1421
1399095295099810187	1494	1489	1514	1421
1399095295109886971	1502	1488	1514	1420
1399095295119781362	1503	1489	1514	1420
1399095295124815368	1502	1488	1514	1420
1399095295139844316	1503	1489	1514	1420
1399095295154972476	1506	1490	1514	1420
1399095295159751892	1505	1491	1514	1421
1399095295174910154	1506	1489	1514	1420
1399095295189964024	1506	1489	1514	1420
1399095295199840792	1505	1490	1514	1420
1399095295209835352	1503	1491	1514	1420
1399095295214754070	1503	1492	1514	1420
1399095295224765694	1501	1490	1514	1420
1399095295234836781	1503	1490	1514	1420
1399095295239833456	1502	1490	1514	1419
1399095295249702794	1503	1491	1514	1420
1399095295259699077	1503	1492	1514	1419
1399095295264720394	1502	1490	1514	1420
1399095295290099050	1504	1491	1514	1419
1399095295299841106	1503	1491	1514	1418
1399095295309834337	1505	1485	1514	1419
1399095295314804340	1506	1486	1514	1418
1399095295324811046	1504	1485	1514	1418
1399095295334800504	1506	1487	1514	1419
1399095295339772201	1505	1485	1514	1418
1399095295355059909	1501	1486	1514	1419
1399095295359854547	1502	1485	1514	1418
1399095295369842147	1501	1486	1514	1419
1399095295374859444	1502	1484	1514	1418
1399095295389867718	1502	1484	1514	1418
1399095295404942566	1498	1486	1514	1418
1399095295409809546	1499	1487	1514	1418
1399095295419864806	1500	1486	1514	1419
1399095295424893632	1499	1485	1514	1419
1399095295439952526	1501	1486	1514	1418
1399095295454935641	1500	1487	1514	1418
1399095295459750301	1499	1487	1514	1418
1399095295484548936	1500	1486	1514	1418
1399095295489741074	1501	1486	1514	1419
1399095295499793395	1499	1486	1514	1419
1399095295514946257	1500	1486	1514	1419
1399095295524905485	1500	1484	1514	1418
1399095295539829924	1500	1485	1514	1419
1399095295549723476	1503	1486	1514	1420
1399095295564888788	1504	1486	1514	1419
1399095295569846161	1502	1485	1514	1420
1399095295574713492	1505	1486	1514	1419
1399095295589830819	1503	1485	1514	1419
1399095295604949035	1506	1486	1514	1419
1399095295609830422	1506	1486	1514	1420
1399095295625062237	1506	1485	1514	1419
1399095295639932478	1507	1485	1514	1419
1399095295655024694	1509	1485	1514	1419
1399095295659804876	1509	1482	1514	1419
1399095295674785699	1509	1483	1514	1420
1399095295690001550	1510	1483	1514	1419
1399095295704972271	1508	1482	1514	1420
1399095295709837407	1510	1482	1514	1420
1399095295719829177	1508	1482	1514	1420
1399095295724760687	1511	1482	1514	1420
1399095295749903740	1510	1482	1514	1420
1399095295759806810	1507	1483	1514	1420
1399095295774829270	1507	1485	1514	1421
1399095295784949338	1509	1483	1514	1421
1399095295789854705	1508	1485	1514	1420
1399095295799846361	1507	1484	1514	1421
1399095295819873781	1507	1486	1514	1421
1399095295824804312	1508	1486	1514	1422
1399095295840084839	1508	1486	1514	1421
1399095295854842772	1508	1490	1514	1421
1399095295859778670	1508	1487	1514	1421
1399095295869786734	1509	1490	1514	1421
1399095295874794573	1509	1487	1514	1421
1399095295889844403	1509	1489	1514	1421
1399095295904897904	1505	1492	1514	1422
1399095295909840274	1508	1492	1514	1421
1399095295924915606	1507	1492	1514	1422
1399095295939920066	1507	1491	1514	1421
1399095295955066019	1506	1494	1514	1421
1399095295959728009	1505	1494	1514	1421
1399095295964784810	1507	1492	1514	1421
1399095295974789622	1506	1495	1514	1422
1399095295989834151	1506	1495	1514	1422
1399095296005012454	1508	1490	1514	1421
1399095296009875371	1507	1492	1514	1422
1399095296014800292	1508	1491	1514	1422
1399095296024946895	1507	1492	1514	1422
1399095296034809594	1508	1492	1514	1422
1399095296039796772	1506	1492	1514	1422
1399095296055025594	1507	1492	1514	1422
1399095296059779850	1507	1488	1514	1422
1399095296069737759	1509	1490	1514	1422
1399095296074783260	1507	1489	1514	1422
1399095296084852649	1508	1490	1514	1422
1399095296089792849	1508	1489	1514	1422
1399095296104887360	1506	1488	1514	1423
1399095296109917390	1509	1487	1514	1422
1399095296119782605	1507	1488	1514	1422
1399095296124865010	1507	1488	1514	1423
1399095296139814586	1506	1488	1514	1422
1399095296155083037	1507	1489	1514	1423
1399095296159555280	1503	1487	1514	1422
1399095296174595825	1504	1488	1514	1423
1399095296179789649	1504	1487	1514	1423
1399095296189664150	1506	1489	1514	1423
1399095296199864051	1503	1487	1514	1422
1399095296209856783	1505	1489	1514	1423
1399095296225070901	1505	1489	1514	1423
1399095296239974626	1504	1489	1514	1423
1399095296254915529	1508	1488	1514	1423
1399095296259843183	1506	1487	1514	1424
1399095296264832924	1506	1488	1514	1423
1399095296274844719	1506	1487	1514	1423
1399095296289794988	1507	1489	1514	1424
1399095296299877653	1506	1488	1514	1424
1399095296304700029	1506	1488	1514	1424
1399095296319905307	1506	1489	1514	1424
1399095296324755443	1508	1489	1514	1424
1399095296340001954	1506	1488	1514	1424
1399095296354976199	1505	1492	1514	1425
1399095296359836481	1505	1493	1514	1424
1399095296375294508	1507	1492	1514	1424
1399095296390050422	1506	1493	1514	1424
1399095296404858882	1507	1493	1514	1424
1399095296409908237	1507	1495	1514	1425
1399095296425219283	1506	1494	1514	1424
1399095296429841337	1506	1496	1514	1424
1399095296449946328	1506	1496	1514	1425
1399095296459743796	1503	1498	1514	1424
1399095296464879785	1504	1498	1514	1425
1399095296474777566	1505	1499	1514	1424
1399095296479813973	1504	1499	1514	1426
1399095296489792623	1506	1500	1514	1425
1399095296499880043	1502	1499	1514	1425
1399095296509828638	1504	1499	1514	1426
1399095296514766050	1502	1500	1514	1425
1399095296524793148	1503	1500	1514	1426
1399095296530925988	1503	1501	1514	1426
1399095296545241877	1501	1502	1514	1426
1399095296554874190	1502	1500	1514	1426
1399095296559803932	1501	1501	1514	1426
1399095296569811240	1502	1501	1514	1426
1399095296574755200	1500	1505	1514	1427
1399095296589871897	1500	1502	1514	1427
1399095296604842775	1499	1505	1514	1427
1399095296609839939	1501	1504	1514	1428
1399095296619786556	1500	1507	1514	1427
1399095296624775578	1499	1505	1514	1428
1399095296639862224	1500	1505	1514	1427
1399095296654956993	1497	1506	1514	1429
1399095296659793366	1498	1506	1514	1427
1399095296674880482	1497	1507	1514	1428
1399095296679758687	1496	1505	1514	1428
1399095296689873914	1497	1507	1514	1428
1399095296704819909	1495	1507	1514	1427
1399095296709790999	1495	1508	1514	1429
1399095296719773606	1497	1509	1514	1427
1399095296724818395	1494	1507	1514	1428
1399095296734703626	1495	1509	1514	1428
1399095296739713898	1493	1508	1514	1428
1399095296749768327	1497	1509	1514	1429
1399095296759712198	1496	1508	1514	1427
1399095296764683768	1496	1508	1514	1429
1399095296774776575	1497	1508	1514	1427
1399095296789836963	1494	1509	1514	1428
1399095296804889773	1497	1507	1514	1427
1399095296809804306	1498	1508	1514	1428
1399095296824851253	1498	1508	1514	1427
1399095296834819764	1498	1509	1514	1427
1399095296839794377	1497	1509	1514	1427
1399095296854843214	1497	1509	1514	1428
1399095296859800179	1497	1509	1514	1428
1399095296875087352	1497	1509	1514	1427
1399095296880060749	1496	1509	1514	1427
1399095296889792633	1499	1508	1514	1426
1399095296899840342	1500	1508	1514	1427
1399095296904888757	1501	1509	1514	1427
1399095296924775345	1499	1509	1514	1427
1399095296940011690	1500	1509	1514	1426
1399095296949706752	1501	1509	1514	1426
1399095296959731026	1499	1511	1514	1427
1399095296964735124	1499	1510	1514	1426
1399095296974819466	1500	1509	1514	1426
1399095296984829478	1498	1508	1514	1426
1399095296989822332	1501	1509	1514	1426
1399095296999772413	1503	1508	1514	1425
1399095297009811752	1504	1509	1514	1426
1399095297014775010	1503	1508	1514	1425
1399095297024851630	1502	1509	1514	1426
1399095297034789443	1503	1508	1514	1425
1399095297039696795	1501	1510	1514	1425
1399095297059795616	1502	1505	1514	1425
1399095297064789466	1503	1506	1514	1425
1399095297074819528	1501	1506	1514	1426
1399095297090144033	1502	1508	1514	1425
1399095297109958153	1501	1506	1514	1425
1399095297124907736	1501	1506	1514	1424
1399095297134940316	1500	1504	1514	1424
1399095297154581599	1500	1506	1514	1424
1399095297159808985	1500	1506	1514	1424
1399095297169713846	1501	1507	1514	1424
1399095297174754425	1499	1506	1514	1424
1399095297184808943	1500	1508	1514	1423
1399095297189724118	1500	1507	1514	1423
1399095297199884923	1500	1512	1514	1424
1399095297209835210	1500	1510	1514	1424
1399095297214769027	1499	1509	1514	1424
1399095297224824997	1501	1510	1514	1423
1399095297234830242	1500	1510	1514	1423
1399095297239719776	1501	1511	1514	1423
1399095297249886550	1501	1513	1514	1423
1399095297259776697	1500	1513	1514	1423
1399095297275003302	1501	1511	1514	1422
1399095297284717219	1501	1512	1514	1422
1399095297289565749	1500	1513	1514	1422
1399095297304838986	1506	1511	1514	1422
1399095297309858211	1504	1511	1514	1423
1399095297325081299	1505	1511	1514	1422
1399095297340019812	1504	1511	1514	1422
1399095297354835575	1504	1510	1514	1423
1399095297359755969	1506	1510	1514	1422
1399095297374827520	1504	1511	1514	1422
1399095297384734030	1506	1511	1514	1422
1399095297389692947	1505	1511	1514	1421
1399095297399917467	1507	1511	1514	1422
1399095297409892844	1504	1514	1514	1422
1399095297414794417	1507	1513	1514	1422
1399095297424799427	1505	1513	1514	1421
1399095297434816644	1506	1513	1514	1421
1399095297439772053	1507	1515	1514	1421
1399095297449870751	1507	1513	1514	1421
1399095297459765207	1508	1514	1514	1422
1399095297464821823	1508	1514	1514	1421
1399095297474887883	1510	1513	1514	1421
1399095297479735583	1508	1514	1514	1421
1399095297494875369	1509	1514	1514	1421
1399095297504877848	1512	1515	1514	1421
1399095297509782479	1509	1513	1514	1420
1399095297519830298	1512	1514	1514	1421
1399095297524898579	1511	1514	1514	1420
1399095297534846139	1513	1513	1514	1421
1399095297544951767	1511	1515	1514	1421
1399095297554779357	1510	1511	1514	1420
1399095297559794066	1510	1514	1514	1421
1399095297564883148	1509	1513	1514	1420
1399095297574731725	1510	1512	1514	1421
1399095297589834871	1511	1512	1514	1420
1399095297604872910	1512	1514	1514	1420
1399095297609769894	1509	1512	1514	1420
1399095297619508482	1508	1513	1514	1420
1399095297624686977	1508	1512	1514	1420
1399095297639685012	1509	1511	1514	1420
1399095297654735544	1506	1510	1514	1420
1399095297664529111	1507	1512	1514	1420
1399095297674717373	1506	1511	1514	1420
1399095297679898188	1505	1511	1514	1420
1399095297689819326	1505	1511	1514	1420
1399095297699799013	1502	1511	1514	1420
1399095297709725991	1503	1510	1514	1420
1399095297714681173	1500	1511	1514	1420
1399095297724833887	1502	1511	1514	1419
1399095297734856982	1501	1510	1514	1420
1399095297739789895	1503	1511	1514	1420
1399095297759828673	1500	1510	1514	1420
1399095297764810634	1501	1509	1514	1420
1399095297779997361	1499	1510	1514	1420
1399095297789778167	1499	1510	1514	1420
1399095297804900918	1498	1510	1514	1420
1399095297809771973	1497	1508	1514	1420
1399095297819960634	1499	1508	1514	1420
1399095297824735665	1499	1507	1514	1420
1399095297839828181	1497	1508	1514	1420
1399095297849827359	1496	1506	1514	1420
1399095297859836337	1497	1508	1514	1420
1399095297864802878	1496	1507	1514	1421
1399095297889801277	1497	1506	1514	1420
1399095297904896629	1497	1508	1514	1420
1399095297909778379	1496	1507	1514	1421
1399095297914834456	1495	1509	1514	1421
1399095297924835044	1495	1507	1514	1421
1399095297929804344	1495	1509	1514	1421
1399095297939835212	1495	1508	1514	1420
1399095297949766213	1495	1510	1514	1422
1399095297961198001	1494	1510	1514	1420
1399095297965008509	1495	1508	1514	1422
1399095297974872257	1494	1510	1514	1421
1399095297989830511	1493	1509	1514	1422
1399095297999913298	1493	1510	1514	1422
1399095298009752517	1493	1512	1514	1422
1399095298024874980	1492	1511	1514	1422
1399095298029784111	1492	1511	1514	1422
1399095298045016640	1491	1512	1514	1422
1399095298054828174	1492	1511	1514	1423
1399095298059857290	1491	1511	1514	1422
1399095298069873610	1494	1511	1514	1423
1399095298074521362	1492	1511	1514	1423
1399095298089671396	1495	1511	1514	1422
1399095298104801575	1496	1510	1514	1423
1399095298109755313	1497	1510	1514	1423
1399095298119437666	1497	1509	1514	1423
1399095298124796614	1498	1509	1514	1423
1399095298134758553	1496	1510	1514	1423
1399095298139628025	1497	1512	1514	1423
1399095298149839399	1501	1512	1514	1424
1399095298159784653	1500	1513	1514	1423
1399095298164762577	1502	1511	1514	1424
1399095298174802497	1501	1513	1514	1424
1399095298179812001	1501	1514	1514	1424
1399095298199960914	1503	1515	1514	1425
1399095298209777075	1504	1514	1514	1425
1399095298214758143	1503	1515	1514	1426
1399095298224768054	1504	1513	1514	1425
1399095298229782908	1504	1514	1514	1426
1399095298239741148	1504	1514	1514	1426
1399095298254855985	1504	1513	1514	1426
1399095298259809870	1503	1514	1514	1426
1399095298264847693	1506	1512	1514	1426
1399095298274858835	1505	1513	1514	1426
1399095298279761237	1505	1512	1514	1425
1399095298289874741	1506	1512	1514	1427
1399095298304907660	1507	1506	1514	1426
1399095298309770935	1509	1506	1514	1427
1399095298319819621	1508	1505	1514	1426
1399095298324807344	1509	1507	1514	1426
1399095298339869404	1509	1506	1514	1426
1399095298355012608	1516	1501	1514	1427
1399095298359785123	1516	1502	1514	1427
1399095298374794782	1516	1502	1514	1427
1399095298389912854	1517	1501	1514	1428
1399095298404888473	1521	1500	1514	1428
1399095298409801164	1522	1499	1514	1427
1399095298419721489	1522	1499	1514	1428
1399095298424716623	1523	1498	1514	1428
1399095298429723208	1524	1498	1514	1428
1399095298439731416	1524	1497	1514	1428
1399095298449758577	1523	1499	1514	1428
1399095298459791134	1523	1498	1514	1428
1399095298464706696	1524	1498	1514	1428
1399095298480181446	1526	1495	1514	1428
1399095298489811322	1527	1494	1514	1429
1399095298499542586	1527	1493	1514	1429
1399095298509512279	1525	1490	1514	1428
1399095298524859417	1528	1488	1514	1429
1399095298539564793	1530	1487	1514	1429
1399095298549556090	1529	1486	1514	1428
1399095298559759939	1530	1486	1514	1429
1399095298574715864	1531	1485	1514	1429
1399095298589852371	1530	1484	1514	1429
1399095298604829731	1527	1482	1514	1429
1399095298609799274	1527	1483	1514	1428
1399095298624965311	1527	1483	1514	1429
1399095298639850923	1527	1479	1514	1428
1399095298659870850	1521	1479	1514	1428
1399095298674879820	1521	1478	1514	1428
1399095298684851286	1520	1478	1514	1428
1399095298689812321	1520	1476	1514	1426
1399095298699811886	1523	1475	1514	1427
1399095298709824298	1510	1474	1514	1427
1399095298724864909	1511	1473	1514	1427
1399095298729752101	1511	1472	1514	1427
1399095298744877399	1510	1471	1514	1427
1399095298755100342	1507	1472	1514	1427
1399095298759717211	1508	1474	1514	1427
1399095298774988296	1506	1471	1514	1426
1399095298779859904	1504	1471	1514	1426
1399095298789838654	1505	1470	1514	1426
1399095298804992058	1501	1472	1514	1425
1399095298809863482	1502	1471	1514	1426
1399095298819905222	1502	1473	1514	1426
1399095298824840467	1498	1472	1514	1426
1399095298839885607	1501	1473	1514	1426
1399095298854942963	1498	1474	1514	1425
1399095298859763040	1497	1474	1514	1425
1399095298869875759	1496	1473	1514	1425
1399095298874854827	1498	1471	1514	1424
1399095298889848033	1496	1473	1514	1425
1399095298904906136	1498	1476	1514	1424
1399095298909776567	1497	1475	1514	1425
1399095298924868518	1498	1475	1514	1424
1399095298939918795	1497	1474	1514	1424
1399095298949783320	1497	1473	1514	1424
1399095298959880972	1501	1476	1514	1423
1399095298964783205	1501	1477	1514	1424
1399095298979894874	1502	1478	1514	1425
1399095298989868191	1500	1477	1514	1424
1399095299005126688	1503	1481	1514	1424
1399095299009801714	1503	1478	1514	1424
1399095299014794267	1503	1481	1514	1424
1399095299024845754	1502	1480	1514	1424
1399095299039890844	1503	1479	1514	1424
1399095299055002170	1501	1478	1514	1424
1399095299059778381	1502	1480	1514	1423
1399095299074783224	1505	1484	1514	1424
1399095299089897448	1504	1482	1514	1424
1399095299104944469	1505	1484	1514	1424
1399095299109798268	1505	1486	1514	1425
1399095299134866547	1505	1486	1514	1424
1399095299139753801	1504	1484	1514	1423
1399095299149872582	1506	1486	1514	1424
1399095299159844465	1504	1487	1514	1424
1399095299164819357	1506	1489	1514	1424
1399095299179941723	1505	1487	1514	1424
1399095299189884488	1506	1489	1514	1424
1399095299199809750	1506	1489	1514	1425
1399095299209766876	1508	1488	1514	1424
1399095299214741808	1507	1489	1514	1424
1399095299224850713	1507	1487	1514	1424
1399095299239943623	1507	1489	1514	1424
1399095299249895182	1508	1491	1514	1425
1399095299259867815	1507	1491	1514	1424
1399095299264736742	1508	1487	1514	1424
1399095299274780720	1509	1488	1514	1424
1399095299289765965	1510	1489	1514	1425
1399095299304865379	1510	1486	1514	1424
1399095299309652909	1510	1488	1514	1425
1399095299319787352	1509	1489	1514	1424
1399095299324554491	1509	1489	1514	1425
1399095299339868572	1509	1489	1514	1424
1399095299354965350	1507	1489	1514	1424
1399095299359870889	1505	1489	1514	1424
1399095299369811446	1507	1490	1514	1424
1399095299374750482	1506	1490	1514	1424
1399095299389934778	1506	1490	1514	1424
1399095299399747305	1504	1490	1514	1424
1399095299409748159	1506	1491	1514	1424
1399095299414755508	1504	1493	1514	1424
1399095299424940781	1505	1490	1514	1423
1399095299429807276	1504	1492	1514	1424
1399095299439802954	1503	1492	1514	1423
1399095299449840535	1505	1492	1514	1424
1399095299464898619	1502	1496	1514	1423
1399095299469820377	1503	1494	1514	1423
1399095299474723574	1503	1497	1514	1423
1399095299479805077	1502	1494	1514	1423
1399095299494811817	1504	1496	1514	1423
1399095299504872437	1505	1497	1514	1423
1399095299509688454	1506	1497	1514	1424
1399095299519791550	1506	1498	1514	1422
1399095299524839101	1504	1497	1514	1423
1399095299539842846	1506	1497	1514	1423
1399095299555019470	1509	1494	1514	1423
1399095299559749068	1508	1496	1514	1423
1399095299574808583	1508	1495	1514	1423
1399095299589814587	1508	1495	1514	1423
1399095299604762284	1511	1496	1514	1423
1399095299609671049	1511	1494	1514	1423
1399095299619819907	1511	1497	1514	1423
1399095299624671730	1510	1496	1514	1423
1399095299634719971	1512	1498	1514	1424
1399095299639723905	1511	1497	1514	1423
1399095299654866659	1510	1497	1514	1423
1399095299659783981	1511	1499	1514	1422
1399095299679853845	1510	1500	1514	1423
1399095299689800603	1510	1500	1514	1423
1399095299704773639	1508	1503	1514	1422
1399095299709809168	1509	1503	1514	1423
1399095299714769284	1509	1503	1514	1423
1399095299729770623	1509	1503	1514	1422
1399095299739691902	1509	1502	1514	1422
1399095299754867420	1506	1502	1514	1423
1399095299759768399	1509	1503	1514	1423
1399095299775238521	1508	1503	1514	1423
1399095299789999487	1507	1503	1514	1422
1399095299804849721	1507	1499	1514	1422
1399095299809809907	1505	1500	1514	1422
1399095299819794803	1507	1498	1514	1423
