#Time	 Roll 	 Pitch 	 Yaw 	 Thrust
1399586042602528949	1520	1516	1926	1105
1399586042702705483	1520	1516	1926	1105
1399586042802852558	1520	1516	1926	1105
1399586042902996529	1520	1516	1926	1105
1399586043003130837	1520	1516	1926	1105
1399586043103420522	1520	1516	1926	1105
1399586043203729490	1520	1516	1926	1105
1399586043303985112	1520	1516	1926	1105
1399586043428140855	1520	1516	1926	1105
1399586043528293485	1520	1516	1926	1105
1399586043628479459	1520	1516	1926	1105
1399586043728707373	1520	1516	1926	1105
1399586043828938991	1520	1516	1926	1105
1399586043929174244	1520	1516	1926	1105
1399586044029414514	1520	1516	1926	1105
1399586044129657390	1520	1516	1926	1105
1399586044229939462	1520	1516	1926	1105
1399586044330246851	1520	1516	1926	1105
1399586044430514563	1520	1516	1926	1105
1399586044530773388	1520	1516	1926	1105
1399586044631012380	1520	1516	1926	1105
1399586044731227722	1520	1516	1926	1105
1399586044831436812	1520	1516	1926	1105
1399586044931722709	1520	1516	1926	1105
1399586045031988355	1520	1516	1926	1105
1399586045132226389	1520	1516	1926	1105
1399586045232464902	1520	1516	1926	1105
1399586045332749973	1520	1516	1926	1105
1399586045433011800	1520	1516	1926	1105
1399586045533265054	1520	1516	1926	1105
1399586045633536190	1520	1516	1513	1105
1399586051667783791	1519	1533	1501	1378
1399586051687764438	1522	1532	1502	1378
1399586051707742562	1517	1535	1502	1378
1399586051722719246	1519	1532	1501	1378
1399586051737742438	1518	1539	1502	1378
1399586051757734361	1518	1535	1502	1378
1399586051772701329	1519	1538	1502	1380
1399586051787703297	1517	1537	1501	1380
1399586051812723961	1520	1536	1501	1380
1399586051837759967	1518	1534	1501	1380
1399586051857705198	1514	1538	1502	1381
1399586051872751467	1516	1535	1501	1382
1399586051887705802	1520	1538	1501	1382
1399586051902786040	1519	1531	1502	1383
1399586051922684212	1516	1534	1502	1382
1399586051937721815	1518	1532	1501	1382
1399586051957751969	1525	1532	1502	1382
1399586051967717946	1518	1538	1502	1384
1399586051987723505	1518	1537	1502	1384
1399586052012826248	1520	1534	1502	1384
1399586052027739454	1519	1538	1502	1383
1399586052042700417	1523	1530	1502	1384
1399586052072746732	1519	1535	1502	1434
1399586052087808158	1512	1538	1502	1386
1399586052107774975	1517	1535	1502	1385
1399586052122767304	1526	1531	1502	1386
1399586052137762463	1516	1537	1502	1386
1399586052152742181	1519	1537	1502	1386
1399586052172759757	1520	1540	1502	1388
1399586052187771403	1518	1539	1502	1387
1399586052202733225	1517	1540	1502	1387
1399586052222739034	1518	1534	1502	1388
1399586052237756070	1519	1538	1502	1388
1399586052257753798	1512	1534	1502	1389
1399586052272715611	1518	1525	1502	1391
1399586052287727388	1513	1520	1502	1392
1399586052307761406	1521	1528	1502	1391
1399586052337751940	1510	1528	1502	1390
1399586052352761100	1509	1529	1502	1390
1399586052367754464	1502	1525	1502	1392
1399586052387731782	1509	1524	1502	1392
1399586052407731046	1518	1527	1502	1391
1399586052422736117	1507	1536	1502	1391
1399586052437779695	1508	1535	1502	1392
1399586052457744989	1502	1527	1503	1392
1399586052472781112	1503	1524	1503	1394
1399586052487735742	1513	1528	1504	1393
1399586052507760261	1508	1536	1504	1393
1399586052522757035	1517	1541	1505	1393
1399586052537773570	1528	1533	1505	1394
1399586052572786389	1523	1541	1506	1436
1399586052587740638	1522	1536	1506	1396
1399586052602755000	1522	1531	1507	1395
1399586052617760854	1520	1531	1507	1395
1399586052637866395	1519	1534	1508	1394
1399586052657724049	1527	1536	1508	1393
1399586052667685638	1521	1535	1509	1395
1399586052687728497	1513	1533	1509	1396
1399586052712793780	1518	1527	1510	1396
1399586052727723086	1515	1527	1511	1395
1399586052742733177	1514	1516	1512	1395
1399586052772722132	1510	1519	1513	1436
1399586052787748772	1503	1504	1514	1397
1399586052807722077	1512	1510	1514	1398
1399586052822717250	1502	1511	1515	1397
1399586052837797758	1511	1516	1516	1396
1399586052862741019	1505	1527	1517	1437
1399586052877754190	1495	1516	1518	1398
1399586052892719148	1512	1530	1518	1398
1399586052917701531	1494	1516	1519	1398
1399586052927673811	1502	1521	1520	1398
1399586052942749382	1509	1521	1520	1398
1399586052962770679	1514	1526	1521	1437
1399586052977773607	1499	1527	1521	1398
1399586053007763304	1518	1518	1522	1401
1399586053023043157	1514	1520	1522	1400
1399586053043000556	1505	1508	1523	1401
1399586053073045598	1516	1527	1523	1438
1399586053088101740	1503	1521	1524	1402
1399586053108157553	1514	1513	1524	1402
1399586053118025780	1500	1511	1524	1402
1399586053138095060	1509	1514	1524	1403
1399586053158097844	1516	1507	1524	1403
1399586053168118373	1508	1514	1524	1404
1399586053188132342	1504	1512	1524	1406
1399586053208051498	1503	1498	1524	1406
1399586053228086561	1512	1504	1523	1406
1399586053243117254	1506	1518	1523	1405
1399586053273044677	1509	1526	1522	1439
1399586053288020625	1514	1534	1522	1407
1399586053308081556	1507	1529	1522	1407
1399586053328051473	1508	1523	1521	1406
1399586053343047692	1516	1529	1521	1407
1399586053363183282	1512	1529	1520	1440
1399586053383030966	1515	1517	1520	1409
1399586053393062219	1508	1516	1520	1409
1399586053413074127	1511	1518	1519	1409
1399586053428131057	1508	1527	1519	1409
1399586053443015140	1502	1522	1518	1408
1399586053473006971	1500	1537	1517	1410
1399586053488024547	1497	1536	1517	1410
1399586053508048175	1489	1539	1517	1410
1399586053523100976	1507	1534	1516	1409
1399586053538036759	1500	1534	1516	1409
1399586053572990285	1502	1533	1515	1441
1399586053588026153	1509	1525	1515	1410
1399586053608093882	1504	1522	1515	1410
1399586053628005228	1513	1528	1514	1409
1399586053657877746	1517	1522	1514	1407
1399586053672832168	1514	1529	1514	1409
1399586053697789842	1509	1529	1514	1408
1399586053712821598	1513	1535	1514	1409
1399586053727826827	1507	1518	1513	1409
1399586053757842788	1507	1538	1514	1406
1399586053772824710	1501	1541	1514	1408
1399586053787824377	1495	1545	1514	1408
1399586053802847177	1501	1534	1514	1408
1399586053818132565	1490	1540	1514	1409
1399586053842914457	1498	1551	1514	1406
1399586053863004270	1505	1540	1514	1443
1399586053877828355	1484	1550	1515	1408
1399586053893050235	1497	1539	1515	1410
1399586053912964162	1501	1538	1515	1407
1399586053928042114	1498	1540	1515	1410
1399586053943028394	1499	1525	1516	1409
1399586053962980968	1503	1528	1516	1444
1399586053977932244	1489	1523	1516	1412
1399586054007772905	1499	1529	1516	1411
1399586054027859857	1500	1536	1517	1410
1399586054042861869	1499	1530	1517	1410
1399586054072782971	1505	1525	1517	1445
1399586054087816858	1497	1540	1518	1412
1399586054107754744	1488	1526	1518	1412
1399586054122800552	1499	1527	1518	1414
1399586054137956246	1494	1508	1518	1413
1399586054152735544	1512	1512	1518	1414
1399586054168110706	1493	1510	1519	1414
1399586054193001464	1499	1519	1519	1416
1399586054212989418	1498	1506	1519	1416
1399586054243073499	1500	1524	1519	1415
1399586054263022393	1498	1515	1519	1415
1399586054287971214	1513	1509	1519	1417
1399586054312921870	1491	1521	1519	1415
1399586054328057276	1504	1510	1519	1415
1399586054348061089	1503	1510	1519	1416
1399586054362982249	1511	1513	1519	1414
1399586054377984550	1502	1520	1519	1415
1399586054398042614	1500	1521	1519	1415
1399586054413002329	1495	1523	1519	1415
1399586054428113585	1496	1510	1519	1415
1399586054442989809	1502	1523	1519	1416
1399586054473109813	1501	1525	1519	1414
1399586054487980517	1513	1510	1519	1415
1399586054508007024	1504	1509	1519	1415
1399586054538083655	1516	1517	1519	1415
1399586054558107406	1520	1507	1519	1414
1399586054573130039	1512	1521	1519	1413
1399586054593046121	1513	1515	1519	1414
1399586054612923109	1519	1515	1519	1414
1399586054637802973	1514	1496	1519	1415
1399586054658090367	1507	1509	1519	1415
1399586054673036174	1505	1515	1519	1413
1399586054693075640	1513	1523	1518	1414
1399586054713032700	1521	1512	1518	1413
1399586054728086647	1509	1529	1518	1413
1399586054758125964	1522	1514	1518	1413
1399586054773000708	1510	1513	1518	1414
1399586054787866473	1516	1523	1518	1413
1399586054803073844	1514	1531	1518	1412
1399586054828107798	1520	1512	1518	1414
1399586054848066251	1516	1520	1518	1413
1399586054863023804	1513	1522	1518	1413
1399586054878081715	1520	1525	1518	1413
1399586054892956883	1513	1523	1518	1413
1399586054913045346	1513	1520	1517	1414
1399586054928003487	1513	1527	1517	1414
1399586054943012314	1526	1516	1517	1415
1399586054963044348	1524	1517	1517	1415
1399586054988182614	1514	1526	1517	1414
1399586055013004735	1518	1524	1517	1415
1399586055038037174	1515	1527	1517	1415
1399586055052959558	1517	1518	1517	1416
1399586055067979245	1518	1523	1517	1416
1399586055087817366	1509	1525	1517	1416
1399586055103035328	1509	1537	1517	1415
1399586055123066183	1516	1542	1517	1415
1399586055138088082	1528	1541	1517	1415
1399586055158001642	1520	1537	1517	1416
1399586055173117405	1519	1523	1517	1416
1399586055192936326	1515	1526	1516	1416
1399586055212917750	1515	1529	1516	1416
1399586055237782561	1515	1536	1516	1415
1399586055258078718	1509	1548	1516	1415
1399586055272993733	1513	1543	1516	1415
1399586055287780542	1516	1539	1516	1416
1399586055303056028	1519	1527	1516	1417
1399586055323052293	1512	1526	1516	1416
1399586055338136176	1514	1528	1516	1415
1399586055358049837	1514	1536	1516	1414
1399586055373083883	1511	1542	1516	1414
1399586055388060451	1515	1529	1516	1415
1399586055408084931	1509	1526	1516	1416
1399586055423119472	1515	1523	1516	1416
1399586055438069524	1503	1522	1516	1417
1399586055458150408	1507	1523	1515	1417
1399586055472888326	1509	1521	1516	1416
1399586055488028538	1511	1533	1516	1416
1399586055508058360	1509	1523	1516	1417
1399586055523036683	1505	1519	1516	1417
1399586055543057821	1512	1527	1516	1415
1399586055563020633	1505	1516	1516	1417
1399586055577869761	1502	1510	1516	1418
1399586055593014030	1497	1522	1516	1417
1399586055613075113	1498	1528	1516	1416
1399586055628092307	1495	1540	1516	1415
1399586055642806008	1498	1549	1516	1415
1399586055663069668	1502	1531	1516	1416
1399586055688000397	1503	1536	1516	1416
1399586055708066169	1496	1543	1516	1415
1399586055723066309	1509	1539	1516	1415
1399586055743120984	1494	1547	1516	1415
1399586055772964021	1503	1532	1516	1416
1399586055793130386	1488	1515	1516	1417
1399586055813108923	1498	1514	1516	1417
1399586055828079249	1493	1512	1516	1418
1399586055842952767	1490	1512	1517	1416
1399586055862947288	1501	1525	1516	1415
1399586055877889843	1496	1532	1516	1415
1399586055892982229	1489	1517	1516	1415
1399586055912949529	1489	1515	1516	1416
1399586055927937176	1496	1507	1516	1417
1399586055942975238	1492	1508	1516	1417
1399586055972769103	1491	1512	1516	1416
1399586055987985777	1491	1515	1516	1416
1399586056012963327	1490	1520	1516	1416
1399586056028060332	1493	1519	1516	1416
1399586056048087881	1487	1521	1516	1416
1399586056063010858	1490	1516	1516	1416
1399586056077987033	1488	1518	1516	1416
1399586056098034291	1500	1519	1515	1414
1399586056112992775	1482	1521	1515	1414
1399586056128025668	1485	1513	1516	1414
1399586056142832770	1491	1511	1516	1415
1399586056162987966	1494	1514	1516	1415
1399586056177826805	1491	1513	1515	1415
1399586056192969875	1499	1512	1515	1415
1399586056213052999	1500	1523	1515	1414
1399586056228130161	1486	1517	1516	1415
1399586056253106210	1503	1525	1516	1415
1399586056268131762	1501	1517	1515	1416
1399586056288100709	1490	1521	1515	1416
1399586056308052359	1481	1516	1516	1416
1399586056317976814	1489	1510	1515	1417
1399586056337981432	1493	1519	1515	1417
1399586056357982710	1490	1517	1515	1417
1399586056378076198	1491	1518	1515	1417
1399586056393020606	1492	1513	1515	1418
1399586056412980371	1490	1516	1515	1417
1399586056427994309	1493	1512	1515	1418
1399586056458155563	1496	1519	1515	1419
1399586056473049438	1498	1519	1515	1419
1399586056488060001	1501	1517	1515	1419
1399586056512997399	1502	1517	1515	1419
1399586056528091595	1503	1518	1514	1420
1399586056543068334	1505	1517	1514	1420
1399586056563068746	1506	1520	1514	1420
1399586056578090410	1506	1523	1514	1420
1399586056598029011	1510	1525	1514	1420
1399586056613033752	1511	1530	1514	1420
1399586056628104929	1515	1532	1513	1420
1399586056643061167	1507	1528	1513	1420
1399586056663016489	1511	1521	1513	1421
1399586056678034685	1507	1516	1513	1421
1399586056707799648	1506	1527	1513	1421
1399586056723037412	1508	1527	1513	1421
1399586056737901399	1507	1519	1512	1421
1399586056758007724	1503	1521	1512	1421
1399586056767967915	1499	1525	1512	1421
1399586056792900742	1508	1523	1512	1421
1399586056813095698	1509	1525	1512	1421
1399586056828042206	1508	1531	1512	1421
1399586056848103840	1503	1534	1512	1421
1399586056863072985	1508	1534	1512	1421
1399586056878056232	1506	1534	1512	1422
1399586056893091994	1510	1523	1512	1422
1399586056913157492	1510	1523	1511	1422
1399586056938205639	1509	1530	1511	1422
1399586056958001427	1512	1534	1511	1422
1399586056978116792	1516	1534	1511	1421
1399586056998112114	1513	1528	1511	1422
1399586057012988256	1515	1531	1511	1421
1399586057038080629	1512	1530	1511	1422
1399586057058053485	1511	1534	1511	1422
1399586057068101323	1517	1530	1511	1422
1399586057088017113	1505	1529	1511	1422
1399586057108071249	1506	1533	1511	1422
1399586057123029069	1507	1529	1511	1423
1399586057138061404	1506	1541	1511	1423
1399586057158066528	1511	1539	1511	1422
1399586057173053977	1509	1539	1511	1422
1399586057188093727	1510	1538	1512	1422
1399586057223113075	1510	1537	1512	1423
1399586057238038054	1512	1528	1512	1423
1399586057252933335	1511	1526	1512	1424
1399586057268160676	1513	1526	1513	1423
1399586057288081407	1516	1530	1513	1423
1399586057303046951	1511	1535	1513	1422
1399586057323047844	1510	1534	1513	1423
1399586057338022339	1508	1531	1513	1423
1399586057358087390	1510	1532	1514	1423
1399586057373034083	1504	1529	1514	1423
1399586057392929144	1504	1526	1514	1423
1399586057413053086	1498	1536	1515	1423
1399586057428124097	1499	1531	1515	1423
1399586057443087637	1502	1532	1515	1422
1399586057472971788	1503	1533	1515	1422
1399586057503123673	1499	1536	1515	1422
1399586057523104361	1500	1538	1515	1422
1399586057538212057	1510	1517	1515	1423
1399586057558052843	1501	1514	1515	1423
1399586057572989048	1507	1524	1514	1423
1399586057587956652	1508	1537	1514	1421
1399586057608058684	1511	1543	1514	1421
1399586057628082927	1509	1532	1514	1422
1399586057642996851	1518	1533	1513	1422
1399586057673123317	1512	1534	1513	1422
1399586057688156327	1504	1540	1513	1421
1399586057713112226	1503	1529	1513	1422
1399586057728115499	1504	1536	1512	1421
1399586057743114033	1513	1549	1512	1420
1399586057773086838	1511	1542	1512	1421
1399586057788185306	1511	1546	1512	1420
1399586057808077896	1515	1548	1512	1420
1399586057823026017	1519	1541	1512	1421
1399586057838134696	1512	1525	1512	1422
1399586057863059193	1509	1521	1512	1422
1399586057878085876	1520	1536	1512	1420
1399586057898030624	1510	1518	1512	1421
1399586057912946143	1513	1517	1511	1420
1399586057938058194	1518	1530	1511	1420
1399586057958100400	1519	1516	1511	1421
1399586057967821556	1514	1525	1511	1420
1399586057988066236	1520	1530	1510	1418
1399586058002894433	1507	1527	1510	1418
1399586058023040190	1510	1517	1510	1419
1399586058037763918	1523	1521	1510	1419
1399586058057735691	1510	1515	1510	1420
1399586058072669761	1516	1516	1509	1419
1399586058087739904	1513	1519	1509	1418
1399586058107713034	1517	1525	1509	1419
1399586058122753408	1514	1524	1509	1418
1399586058142781056	1521	1519	1509	1419
1399586058172817283	1520	1517	1508	1420
1399586058187750785	1513	1502	1508	1421
1399586058212753333	1518	1512	1508	1421
1399586058227709136	1516	1505	1508	1421
1399586058257763816	1522	1525	1507	1420
1399586058272751281	1526	1517	1507	1421
1399586058287733123	1522	1509	1507	1422
1399586058307743431	1524	1500	1507	1423
1399586058317722519	1523	1513	1507	1423
1399586058337698005	1517	1518	1506	1422
1399586058357767817	1522	1519	1506	1422
1399586058372724548	1525	1526	1506	1423
1399586058392736455	1521	1514	1506	1422
1399586058412744741	1517	1510	1506	1424
1399586058427744575	1521	1517	1506	1423
1399586058442815795	1512	1508	1506	1424
1399586058462773109	1512	1504	1506	1424
1399586058477697754	1511	1507	1506	1425
1399586058497721442	1505	1508	1506	1425
1399586058512700633	1506	1510	1506	1425
1399586058527745726	1504	1502	1506	1426
1399586058542782358	1513	1501	1506	1426
1399586058562743804	1507	1512	1506	1425
1399586058577676777	1506	1512	1506	1425
1399586058592723243	1509	1510	1506	1426
1399586058612756454	1508	1501	1507	1427
1399586058637768926	1511	1510	1507	1427
1399586058657749171	1506	1514	1507	1427
1399586058672748998	1513	1508	1508	1426
1399586058687704096	1511	1510	1508	1426
1399586058712745500	1506	1503	1508	1428
1399586058727733288	1505	1513	1508	1428
1399586058757757064	1507	1513	1509	1427
1399586058772752344	1506	1512	1509	1427
1399586058787777842	1504	1509	1509	1428
1399586058807728160	1501	1514	1509	1428
1399586058822715941	1501	1508	1509	1428
1399586058837764077	1502	1512	1509	1428
1399586058857777016	1500	1519	1509	1428
1399586058872757595	1498	1521	1510	1427
1399586058887708317	1501	1517	1510	1428
1399586058907697375	1497	1514	1510	1429
1399586058917741832	1500	1511	1510	1429
1399586058947754641	1501	1510	1510	1428
1399586058962721492	1500	1510	1510	1428
1399586058977722199	1498	1515	1511	1428
1399586058997726860	1496	1518	1511	1428
1399586059012728210	1496	1521	1511	1428
1399586059027711920	1491	1516	1511	1428
1399586059042696208	1501	1515	1511	1428
1399586059062706835	1507	1518	1511	1428
1399586059077704130	1505	1527	1511	1427
1399586059092725341	1508	1522	1511	1427
1399586059112710374	1510	1522	1511	1427
1399586059137786673	1502	1521	1512	1428
1399586059162754544	1506	1516	1512	1428
1399586059192773909	1505	1519	1512	1428
1399586059212717555	1510	1522	1512	1428
1399586059227740669	1508	1525	1512	1428
1399586059257780239	1508	1528	1512	1428
1399586059267789033	1514	1529	1512	1427
1399586059287698114	1506	1529	1512	1428
1399586059307733991	1514	1522	1512	1429
1399586059327764543	1508	1519	1513	1429
1399586059342706921	1511	1527	1513	1429
1399586059372734619	1514	1529	1513	1429
1399586059387681460	1509	1530	1513	1430
1399586059412736437	1512	1525	1513	1430
1399586059427700982	1517	1534	1513	1430
1399586059457723525	1514	1522	1513	1431
1399586059472761946	1520	1530	1513	1430
1399586059487715490	1522	1535	1513	1431
1399586059502739663	1525	1524	1513	1431
1399586059522699544	1517	1520	1513	1433
1399586059537732273	1520	1516	1514	1433
1399586059557714797	1523	1522	1513	1432
1399586059572707291	1527	1532	1513	1431
1399586059592789471	1524	1539	1513	1431
1399586059612761696	1525	1530	1513	1432
1399586059627728171	1521	1543	1513	1432
1399586059642712913	1523	1529	1513	1432
1399586059662721944	1520	1512	1513	1434
1399586059687713921	1513	1518	1513	1433
1399586059707754234	1514	1515	1513	1433
1399586059717729392	1511	1504	1513	1435
1399586059742758589	1516	1518	1513	1434
1399586059762762895	1519	1509	1513	1434
1399586059777702327	1516	1512	1512	1434
1399586059797723196	1524	1530	1512	1433
1399586059812768847	1527	1535	1512	1432
1399586059837779444	1530	1526	1512	1432
1399586059857769205	1523	1534	1511	1432
1399586059872734419	1524	1536	1511	1431
1399586059907761639	1523	1517	1511	1432
1399586059917712049	1528	1512	1510	1433
1399586059937726866	1526	1523	1510	1432
1399586059957789650	1523	1531	1510	1431
1399586059967717181	1523	1531	1509	1430
1399586059987685884	1530	1520	1509	1430
1399586060007754503	1528	1519	1509	1430
1399586060017686363	1524	1518	1508	1431
1399586060042736573	1523	1528	1508	1430
1399586060062703286	1523	1516	1507	1431
1399586060077649807	1524	1512	1507	1431
1399586060107761939	1530	1511	1506	1430
1399586060122770908	1523	1513	1506	1430
1399586060137725945	1524	1518	1506	1430
1399586060152744447	1530	1521	1506	1429
1399586060172782875	1527	1522	1506	1429
1399586060187638231	1526	1518	1506	1430
1399586060202748422	1524	1511	1506	1430
1399586060222716217	1528	1506	1506	1430
1399586060237739742	1520	1509	1506	1430
1399586060252723689	1518	1515	1506	1430
1399586060272734060	1527	1517	1506	1429
1399586060292744559	1524	1528	1506	1429
1399586060312726806	1526	1521	1506	1430
1399586060337755851	1528	1526	1506	1429
1399586060357759094	1534	1525	1506	1429
1399586060372717911	1528	1521	1506	1430
1399586060392763630	1535	1522	1507	1427
1399586060412768703	1529	1509	1507	1430
1399586060427760060	1525	1505	1507	1431
1399586060447705014	1536	1490	1507	1430
1399586060462795054	1531	1494	1507	1430
1399586060477721852	1520	1511	1508	1429
1399586060492718697	1524	1507	1508	1429
1399586060512672581	1522	1509	1508	1429
1399586060527785489	1527	1505	1509	1428
1399586060542778884	1532	1505	1509	1428
1399586060562729808	1529	1511	1509	1429
1399586060587707108	1530	1505	1509	1429
1399586060607822443	1524	1509	1509	1429
1399586060622772648	1525	1515	1509	1429
1399586060637753479	1525	1525	1510	1429
1399586060652776988	1519	1528	1510	1428
1399586060667773359	1522	1533	1510	1428
1399586060687719007	1530	1528	1510	1429
1399586060702754658	1525	1529	1511	1429
1399586060727744747	1529	1535	1511	1428
1399586060742731087	1531	1526	1511	1428
1399586060772804849	1528	1520	1511	1429
1399586060787792153	1530	1526	1511	1428
1399586060807739971	1536	1525	1511	1429
1399586060827766067	1534	1521	1511	1429
1399586060842744463	1530	1519	1511	1429
1399586060872745675	1531	1519	1512	1429
1399586060892711708	1530	1513	1512	1430
1399586060927813361	1528	1517	1512	1430
1399586060942735222	1524	1516	1512	1429
1399586060962807926	1520	1512	1511	1430
1399586060977778656	1518	1510	1511	1429
1399586061007726881	1526	1520	1511	1428
1399586061022768983	1526	1515	1510	1429
1399586061037741429	1522	1503	1510	1429
1399586061057742343	1520	1506	1510	1429
1399586061077719676	1524	1517	1509	1428
1399586061107726860	1511	1523	1509	1427
1399586061122738894	1511	1531	1509	1426
1399586061142759407	1522	1525	1509	1427
1399586061162715661	1514	1527	1508	1426
1399586061177689028	1514	1527	1508	1426
1399586061192704948	1522	1526	1508	1425
1399586061212703545	1511	1536	1508	1425
1399586061227703410	1520	1534	1507	1425
1399586061247734630	1511	1523	1507	1426
1399586061262740797	1511	1519	1506	1426
1399586061277701055	1514	1515	1506	1427
1399586061292741043	1507	1512	1506	1426
1399586061322738848	1511	1519	1505	1426
1399586061342778492	1502	1517	1505	1426
1399586061362712778	1510	1513	1505	1426
1399586061387742493	1508	1518	1504	1426
1399586061402710393	1508	1506	1504	1427
1399586061417696008	1502	1508	1504	1427
1399586061437726674	1505	1523	1504	1427
1399586061452745929	1499	1518	1504	1427
1399586061472718781	1503	1516	1503	1427
1399586061487737517	1505	1519	1503	1427
1399586061507740029	1498	1527	1503	1427
1399586061522742993	1503	1526	1503	1427
1399586061537731510	1504	1529	1504	1426
1399586061557774132	1510	1521	1504	1426
1399586061587769698	1500	1519	1504	1426
1399586061607780940	1503	1524	1505	1425
1399586061617658939	1500	1520	1505	1425
1399586061637715779	1505	1523	1506	1425
1399586061652739000	1487	1524	1506	1424
1399586061672712073	1497	1533	1507	1424
1399586061687751898	1495	1525	1508	1424
1399586061702751209	1494	1521	1508	1423
1399586061722702742	1488	1537	1509	1423
1399586061742716803	1494	1527	1510	1424
1399586061762733482	1496	1528	1511	1424
1399586061777793197	1489	1531	1512	1422
1399586061807727043	1499	1529	1513	1423
1399586061822754838	1494	1520	1513	1424
1399586061842753509	1505	1534	1514	1421
1399586061862790485	1498	1532	1515	1422
1399586061877805990	1506	1514	1515	1423
1399586061902758711	1501	1514	1516	1424
1399586061912709058	1508	1501	1516	1424
1399586061932722469	1501	1520	1517	1423
1399586061942708826	1504	1531	1517	1422
1399586061962721889	1501	1530	1518	1422
1399586061987748512	1502	1519	1518	1423
1399586062007754115	1507	1523	1518	1423
1399586062022702214	1518	1529	1519	1423
1399586062037756954	1507	1533	1519	1423
1399586062057702712	1512	1531	1519	1423
1399586062072776935	1515	1528	1519	1424
1399586062107853625	1514	1527	1520	1424
1399586062122686571	1514	1521	1520	1425
1399586062147744363	1522	1523	1520	1425
1399586062172749287	1523	1540	1520	1423
1399586062187751855	1522	1533	1520	1424
1399586062212752889	1520	1530	1520	1424
1399586062227708615	1523	1545	1519	1423
1399586062242728345	1524	1543	1519	1424
1399586062262718351	1519	1529	1519	1425
1399586062277689793	1517	1524	1519	1426
1399586062307802391	1521	1530	1518	1425
1399586062322750409	1522	1534	1518	1425
1399586062347727083	1520	1531	1518	1425
1399586062372760605	1518	1529	1517	1425
1399586062387745766	1531	1521	1517	1426
1399586062402783927	1531	1529	1516	1426
1399586062422719727	1527	1527	1516	1427
1399586062437762843	1527	1532	1516	1426
1399586062457724709	1533	1530	1515	1426
1399586062472756972	1531	1523	1515	1427
1399586062487706539	1528	1515	1515	1429
1399586062507787708	1529	1516	1515	1429
1399586062522731477	1524	1520	1515	1428
1399586062537731513	1527	1526	1515	1428
1399586062557733996	1529	1527	1515	1428
1399586062567741354	1532	1527	1514	1429
1399586062592762535	1524	1520	1514	1429
1399586062612739519	1522	1520	1514	1429
1399586062627726210	1520	1521	1514	1430
1399586062647736451	1523	1520	1514	1429
1399586062662729585	1518	1525	1514	1430
1399586062677748188	1514	1519	1514	1431
1399586062697761138	1519	1510	1514	1433
1399586062712701834	1520	1510	1514	1434
1399586062727724198	1520	1514	1513	1432
1399586062742777325	1516	1524	1513	1432
1399586062762760549	1517	1526	1513	1432
1399586062777722757	1517	1522	1513	1433
1399586062792684705	1521	1509	1513	1433
1399586062812742659	1517	1503	1513	1434
1399586062827709092	1516	1507	1513	1434
1399586062857804716	1515	1510	1513	1434
1399586062867695813	1512	1512	1513	1434
1399586062887719547	1516	1512	1513	1434
1399586062902732583	1515	1513	1513	1435
1399586062922790963	1517	1506	1513	1434
1399586062937703568	1512	1515	1513	1434
1399586062957752197	1511	1512	1513	1434
1399586062977730651	1512	1515	1513	1434
1399586062992737261	1510	1506	1513	1434
1399586063012731939	1501	1507	1513	1434
1399586063027749485	1504	1502	1513	1435
1399586063047771042	1512	1497	1513	1435
1399586063062706956	1515	1502	1512	1434
1399586063077676021	1510	1510	1512	1433
1399586063102752912	1506	1504	1512	1434
1399586063127738240	1512	1494	1512	1435
1399586063157719398	1511	1513	1512	1433
1399586063172828579	1508	1506	1512	1434
1399586063187734752	1509	1503	1512	1435
1399586063212743654	1506	1501	1512	1435
1399586063227720730	1511	1511	1512	1434
1399586063247766242	1509	1505	1512	1435
1399586063272808064	1508	1508	1512	1435
1399586063292723949	1510	1500	1512	1436
1399586063322741022	1508	1507	1512	1435
1399586063337769587	1508	1505	1512	1436
1399586063352669042	1506	1508	1512	1436
1399586063367655110	1505	1515	1512	1435
1399586063387732364	1507	1513	1512	1435
1399586063407712957	1509	1510	1512	1436
1399586063422694003	1509	1503	1512	1436
1399586063437651541	1510	1511	1512	1436
1399586063457726797	1509	1517	1512	1435
1399586063472753925	1512	1518	1512	1435
1399586063492671031	1510	1511	1512	1436
1399586063512699172	1512	1532	1512	1435
1399586063537724532	1510	1520	1512	1436
1399586063557748408	1509	1533	1511	1435
1399586063567705169	1510	1527	1511	1436
1399586063587710552	1518	1513	1511	1436
1399586063602722402	1518	1509	1511	1437
1399586063622733423	1513	1514	1511	1437
1399586063637688691	1513	1519	1511	1436
1399586063657683218	1515	1522	1511	1436
1399586063672761399	1518	1525	1511	1435
1399586063687711306	1521	1517	1511	1436
1399586063707692633	1521	1515	1511	1436
1399586063727733841	1518	1510	1511	1437
1399586063742718903	1513	1527	1511	1435
1399586063762730377	1519	1524	1511	1436
1399586063777659298	1511	1514	1511	1438
1399586063792778634	1510	1516	1511	1437
1399586063812746075	1511	1520	1511	1437
1399586063827722381	1509	1529	1511	1436
1399586063852731849	1504	1544	1510	1435
1399586063862686877	1510	1550	1511	1435
1399586063877723986	1508	1540	1511	1437
1399586063892715902	1517	1526	1511	1437
1399586063912690607	1514	1529	1511	1437
1399586063927830615	1509	1544	1511	1437
1399586063942731420	1515	1534	1511	1436
1399586063972725146	1516	1530	1511	1437
1399586063987734864	1516	1531	1511	1436
1399586064007819082	1512	1526	1511	1437
1399586064037766736	1514	1516	1512	1437
1399586064057767816	1515	1511	1512	1437
1399586064082746914	1511	1513	1513	1437
1399586064107731138	1518	1520	1513	1437
1399586064122703576	1518	1521	1513	1437
1399586064137684938	1521	1518	1514	1438
1399586064157764997	1520	1526	1514	1436
1399586064172801459	1519	1530	1514	1436
1399586064192765075	1522	1532	1515	1436
1399586064212737670	1523	1530	1515	1436
1399586064227726796	1521	1527	1515	1436
1399586064257833598	1521	1528	1516	1436
1399586064272750013	1522	1524	1516	1435
1399586064287794099	1519	1526	1516	1435
1399586064312670775	1521	1525	1516	1434
1399586064327752410	1522	1530	1516	1433
1399586064342709771	1521	1516	1516	1433
1399586064362727017	1522	1518	1516	1432
1399586064382705190	1526	1514	1516	1432
1399586064392697739	1523	1510	1516	1433
1399586064412749794	1519	1498	1516	1434
1399586064427766066	1518	1493	1516	1434
1399586064442731529	1523	1505	1516	1432
1399586064472801144	1519	1506	1516	1431
1399586064487709373	1528	1505	1516	1431
1399586064507722827	1528	1513	1515	1430
1399586064527712932	1534	1492	1515	1432
1399586064542713620	1534	1513	1515	1431
1399586064562751584	1532	1523	1515	1430
1399586064577754661	1537	1514	1514	1431
1399586064597777168	1535	1508	1514	1432
1399586064612706189	1534	1512	1514	1432
1399586064627726743	1531	1511	1513	1432
1399586064642704358	1520	1512	1513	1432
1399586064662714141	1531	1511	1512	1432
1399586064677707369	1520	1516	1512	1433
1399586064692717208	1531	1504	1512	1432
1399586064722761393	1522	1501	1511	1433
1399586064737781301	1516	1504	1511	1433
1399586064757806153	1523	1500	1510	1431
1399586064772773422	1516	1502	1510	1432
1399586064787752981	1528	1506	1509	1432
1399586064807745357	1526	1501	1509	1432
1399586064817888110	1525	1501	1509	1433
1399586064837750035	1527	1499	1508	1431
1399586064857725796	1525	1501	1508	1430
1399586064872708991	1522	1505	1508	1431
1399586064887694187	1523	1511	1508	1431
1399586064907688908	1529	1504	1507	1431
1399586064922760876	1525	1504	1507	1431
1399586064942776515	1533	1515	1507	1431
1399586064962807820	1535	1506	1507	1431
1399586064977770959	1531	1513	1507	1429
1399586065007765269	1527	1507	1506	1431
1399586065022737993	1524	1500	1506	1431
1399586065042769743	1525	1507	1506	1430
1399586065052781219	1522	1518	1506	1429
1399586065067764958	1530	1524	1506	1427
1399586065097753413	1527	1497	1506	1431
1399586065112719709	1525	1512	1506	1427
1399586065127752445	1519	1517	1506	1429
1399586065142800566	1510	1508	1507	1428
1399586065162746401	1515	1504	1507	1429
1399586065187824954	1518	1509	1507	1431
1399586065207790176	1513	1509	1507	1432
1399586065222760127	1511	1515	1508	1431
1399586065242826558	1515	1501	1508	1435
1399586065272857961	1511	1508	1509	1434
1399586065287811879	1511	1501	1510	1436
1399586065312835120	1512	1517	1510	1434
1399586065327856347	1512	1511	1511	1435
1399586065347792812	1510	1505	1511	1436
1399586065362874581	1508	1503	1512	1436
1399586065377901384	1506	1500	1512	1438
1399586065397864415	1513	1508	1513	1436
1399586065412804069	1516	1511	1514	1435
1399586065427860291	1515	1522	1514	1434
1399586065457819771	1507	1511	1515	1436
1399586065472810370	1509	1516	1515	1436
1399586065487779430	1514	1520	1516	1436
1399586065502763780	1513	1511	1516	1437
1399586065517781976	1505	1505	1517	1438
1399586065538008493	1509	1512	1517	1437
1399586065553133752	1514	1518	1518	1436
1399586065568014086	1510	1518	1518	1437
1399586065588004620	1507	1512	1518	1437
1399586065608112047	1508	1501	1518	1438
1399586065618062968	1506	1503	1518	1438
1399586065638095240	1509	1512	1518	1435
1399586065658034391	1508	1524	1519	1435
1399586065672920727	1507	1521	1519	1435
1399586065688131174	1506	1514	1519	1436
1399586065707809646	1506	1512	1519	1436
1399586065722763697	1505	1520	1518	1435
1399586065742788535	1506	1510	1518	1437
1399586065762725882	1514	1519	1518	1436
1399586065777856899	1515	1531	1518	1434
1399586065797805639	1515	1532	1517	1434
1399586065812776768	1515	1523	1517	1436
1399586065832778334	1516	1514	1517	1437
1399586065842754895	1515	1517	1516	1435
1399586065862778147	1511	1522	1516	1434
1399586065877831513	1520	1524	1516	1433
1399586065892787660	1517	1508	1515	1436
1399586065912785659	1516	1502	1515	1436
1399586065937752303	1513	1518	1514	1434
1399586065957804089	1512	1514	1513	1435
1399586065972777073	1514	1508	1513	1435
1399586066007807354	1523	1528	1512	1432
1399586066022808971	1528	1532	1512	1430
1399586066042806091	1525	1527	1511	1431
1399586066072816728	1525	1523	1511	1430
1399586066097833607	1526	1522	1511	1430
1399586066112776682	1526	1518	1511	1429
1399586066127807840	1525	1519	1511	1429
1399586066157834785	1530	1523	1510	1427
1399586066172824541	1527	1522	1510	1427
1399586066192822715	1528	1522	1510	1428
1399586066222788685	1533	1529	1510	1424
1399586066237774042	1532	1527	1510	1424
1399586066252757199	1535	1531	1510	1423
1399586066267827693	1529	1524	1510	1423
1399586066292810372	1527	1518	1510	1422
1399586066312810016	1523	1522	1510	1422
1399586066327796622	1519	1521	1511	1424
1399586066347905973	1535	1517	1511	1424
1399586066362767519	1529	1510	1511	1425
1399586066377858751	1529	1513	1511	1425
1399586066392762271	1529	1513	1511	1424
1399586066412830410	1531	1512	1511	1425
1399586066437788743	1525	1517	1512	1425
1399586066457810755	1526	1515	1512	1426
1399586066477772568	1523	1511	1512	1426
1399586066497824100	1525	1511	1512	1427
1399586066512792526	1523	1513	1512	1427
1399586066537909597	1525	1516	1513	1427
1399586066557913234	1519	1515	1513	1428
1399586066567750750	1521	1514	1513	1427
1399586066587744914	1524	1517	1513	1427
1399586066602816506	1524	1521	1513	1428
1399586066622817951	1523	1511	1513	1430
1399586066637738676	1521	1504	1513	1430
1399586066657783310	1526	1507	1513	1429
1399586066672816869	1521	1511	1513	1428
1399586066687796774	1525	1519	1513	1427
1399586066707838970	1527	1515	1513	1427
1399586066722817792	1524	1507	1512	1429
1399586066737729641	1536	1507	1512	1430
1399586066767847504	1533	1512	1512	1430
1399586066777834703	1532	1516	1512	1430
1399586066792746309	1526	1516	1511	1429
1399586066812784446	1531	1516	1511	1430
1399586066827786388	1530	1517	1511	1431
1399586066842781280	1527	1504	1510	1433
1399586066862771606	1526	1496	1510	1434
1399586066877780893	1524	1501	1509	1434
1399586066892771495	1518	1508	1509	1434
1399586066922792829	1521	1510	1508	1433
1399586066937825872	1519	1495	1507	1435
1399586066962810523	1522	1511	1506	1433
1399586066978023819	1522	1501	1506	1435
1399586066992990312	1521	1497	1505	1436
1399586067012961136	1517	1491	1505	1436
1399586067038021914	1516	1500	1504	1434
1399586067057963159	1513	1498	1503	1435
1399586067067978550	1510	1496	1503	1435
1399586067088030148	1522	1508	1502	1435
1399586067108113476	1522	1510	1501	1434
1399586067123111021	1524	1505	1501	1435
1399586067142811615	1526	1513	1500	1434
1399586067162789808	1529	1521	1500	1434
1399586067177762872	1529	1515	1499	1434
1399586067197825302	1526	1511	1499	1434
1399586067222813967	1527	1519	1499	1433
1399586067237776390	1521	1520	1498	1432
1399586067252814515	1523	1523	1498	1432
1399586067267803792	1523	1520	1498	1432
1399586067292792704	1520	1509	1498	1434
1399586067307966693	1521	1507	1499	1434
1399586067322815653	1522	1509	1499	1435
1399586067342835216	1518	1511	1499	1435
1399586067362787926	1516	1518	1499	1434
1399586067377751969	1520	1516	1500	1435
1399586067407783398	1514	1505	1500	1439
1399586067422810081	1515	1500	1501	1440
1399586067437822467	1517	1504	1502	1441
1399586067462752178	1517	1516	1503	1439
1399586067477756905	1512	1518	1504	1439
1399586067497768809	1516	1514	1504	1440
1399586067512728710	1515	1505	1505	1442
1399586067527835293	1514	1499	1506	1444
1399586067547932535	1512	1502	1507	1445
1399586067562772311	1507	1505	1508	1444
1399586067577760426	1510	1508	1509	1444
1399586067592787487	1514	1508	1510	1442
1399586067612766978	1512	1520	1511	1442
1399586067627818503	1515	1524	1512	1443
1399586067642786435	1514	1521	1513	1443
1399586067672809057	1507	1518	1514	1444
1399586067687809221	1507	1527	1515	1442
1399586067707803719	1506	1525	1516	1444
1399586067732824065	1508	1520	1517	1445
1399586067742896571	1504	1524	1518	1444
1399586067762816826	1498	1518	1519	1444
1399586067782810156	1491	1517	1520	1444
1399586067792782724	1495	1523	1521	1445
1399586067812742820	1492	1532	1521	1443
1399586067827789358	1493	1529	1522	1446
1399586067852805515	1492	1519	1523	1445
1399586067872837786	1495	1516	1523	1447
1399586067892891220	1486	1522	1523	1445
1399586067912790790	1490	1518	1524	1448
1399586067927775292	1490	1514	1524	1446
1399586067942788409	1495	1523	1524	1448
1399586067962780090	1491	1526	1524	1446
1399586067977839135	1492	1515	1524	1447
1399586067992789171	1495	1527	1524	1446
1399586068017843522	1501	1527	1524	1444
1399586068037756797	1489	1532	1524	1446
1399586068057745844	1496	1537	1523	1445
1399586068077667179	1490	1533	1523	1445
1399586068092722423	1510	1529	1523	1445
1399586068112738130	1503	1526	1522	1447
1399586068137685557	1497	1518	1521	1446
1399586068157716023	1503	1517	1521	1448
1399586068177717210	1499	1518	1520	1447
1399586068197741442	1504	1518	1520	1449
1399586068212721667	1502	1521	1520	1448
1399586068227751056	1506	1520	1519	1448
1399586068257762944	1508	1524	1518	1448
1399586068272702070	1511	1520	1518	1450
1399586068287685965	1508	1514	1517	1449
1399586068302756170	1511	1520	1517	1448
1399586068322779216	1518	1523	1516	1448
1399586068337745754	1515	1526	1516	1447
1399586068357787311	1513	1522	1515	1449
1399586068372757772	1509	1514	1515	1449
1399586068387760778	1518	1512	1515	1448
1399586068407750247	1523	1518	1514	1447
1399586068427717814	1519	1510	1514	1448
1399586068442744478	1529	1521	1513	1446
1399586068462743770	1524	1523	1513	1444
1399586068482695741	1528	1518	1513	1444
1399586068492718835	1534	1505	1512	1446
1399586068512731641	1524	1505	1512	1446
1399586068527669303	1535	1510	1512	1444
1399586068542714438	1535	1520	1511	1444
1399586068562730654	1536	1518	1511	1440
1399586068577761670	1536	1507	1510	1444
1399586068592745647	1533	1508	1510	1443
1399586068612711172	1538	1506	1510	1444
1399586068627711356	1541	1506	1510	1443
1399586068657741361	1535	1511	1509	1441
1399586068672730938	1535	1507	1509	1442
1399586068687772159	1541	1511	1509	1441
1399586068717805265	1542	1508	1508	1440
1399586068737703651	1535	1510	1508	1438
1399586068757902425	1547	1511	1508	1438
1399586068767758090	1534	1503	1508	1438
1399586068787755106	1550	1508	1508	1437
1399586068807737039	1539	1503	1508	1437
1399586068827825462	1540	1498	1508	1438
1399586068842710951	1544	1513	1507	1436
1399586068862709056	1539	1497	1508	1436
1399586068887791848	1554	1506	1507	1435
1399586068907787321	1550	1503	1507	1433
1399586068922786748	1555	1499	1507	1436
1399586068942732846	1540	1516	1507	1432
1399586068962714193	1548	1510	1507	1433
1399586068977709008	1548	1494	1507	1433
1399586068992653181	1545	1497	1507	1434
1399586069012668571	1542	1497	1507	1434
1399586069027699187	1537	1497	1507	1434
1399586069042678112	1536	1497	1507	1433
1399586069072827309	1532	1498	1507	1432
1399586069087677157	1539	1497	1507	1434
1399586069107749655	1540	1488	1507	1435
1399586069137720125	1534	1503	1508	1433
1399586069157767287	1525	1509	1508	1432
1399586069172709556	1532	1497	1508	1434
1399586069187751703	1528	1500	1508	1435
1399586069207742930	1531	1508	1509	1433
1399586069217708027	1527	1503	1509	1434
1399586069257771253	1523	1502	1509	1435
1399586069272731589	1526	1499	1509	1436
1399586069287762187	1529	1504	1509	1436
1399586069307724046	1527	1514	1510	1435
1399586069322734567	1527	1513	1510	1436
1399586069337731967	1527	1510	1510	1436
1399586069357771753	1526	1506	1510	1437
1399586069372751986	1530	1508	1510	1438
1399586069392695108	1520	1509	1510	1438
1399586069412735080	1524	1507	1510	1440
1399586069427721540	1522	1510	1510	1439
1399586069447742135	1516	1507	1510	1439
1399586069462738676	1514	1509	1510	1440
1399586069477723381	1515	1513	1510	1440
1399586069492681915	1511	1506	1509	1441
1399586069512726096	1516	1504	1509	1441
1399586069527742514	1512	1502	1509	1442
1399586069547743966	1514	1505	1509	1442
1399586069562721506	1508	1516	1509	1442
1399586069577699322	1515	1516	1509	1442
1399586069592717895	1508	1507	1509	1442
1399586069622736222	1508	1507	1509	1443
1399586069642693876	1510	1511	1509	1444
1399586069672778276	1507	1512	1509	1443
1399586069687731632	1512	1515	1509	1443
1399586069702851872	1510	1517	1509	1444
1399586069722721875	1516	1517	1509	1443
1399586069737702092	1511	1519	1509	1444
1399586069752774987	1513	1512	1509	1444
1399586069772785153	1511	1515	1508	1444
1399586069787758071	1509	1523	1508	1444
1399586069807740692	1515	1521	1508	1443
1399586069827690429	1517	1519	1508	1442
1399586069842679041	1508	1517	1508	1443
1399586069862711802	1512	1511	1508	1443
1399586069877712825	1513	1514	1508	1442
1399586069892718989	1519	1512	1507	1443
1399586069912725393	1519	1510	1507	1443
1399586069927716625	1517	1509	1507	1443
1399586069952787072	1512	1516	1507	1442
1399586069972808077	1512	1522	1507	1442
1399586069987684992	1517	1515	1507	1444
1399586070007798454	1516	1511	1507	1444
1399586070022770555	1514	1513	1507	1444
1399586070037735314	1516	1520	1506	1442
1399586070057737793	1519	1518	1506	1442
1399586070077759770	1521	1515	1506	1442
1399586070097796141	1513	1512	1506	1443
1399586070112758286	1516	1508	1506	1443
1399586070127791996	1514	1511	1506	1441
1399586070147759164	1521	1519	1506	1441
1399586070162723498	1521	1517	1506	1440
1399586070182796800	1526	1518	1506	1441
1399586070192753969	1531	1516	1507	1440
1399586070212710858	1533	1524	1506	1439
1399586070227752559	1531	1529	1507	1439
1399586070257771018	1535	1515	1507	1439
1399586070277775902	1537	1515	1507	1440
1399586070297801809	1533	1514	1507	1440
1399586070322798056	1537	1521	1507	1439
1399586070342723113	1530	1504	1507	1441
1399586070372722480	1538	1512	1507	1439
1399586070387753443	1539	1516	1508	1439
1399586070417715416	1539	1521	1508	1438
1399586070437708599	1540	1510	1508	1440
1399586070457732457	1541	1502	1508	1441
1399586070472683504	1545	1504	1508	1441
1399586070487674909	1545	1506	1508	1440
1399586070502750342	1535	1514	1508	1438
1399586070522773837	1530	1512	1508	1438
1399586070537740070	1537	1505	1508	1439
1399586070552727251	1532	1513	1508	1437
1399586070587761920	1538	1511	1508	1438
1399586070607784451	1539	1519	1508	1437
1399586070622793620	1537	1517	1508	1436
1399586070642737065	1534	1503	1509	1440
1399586070662795083	1537	1503	1509	1440
1399586070677763330	1531	1510	1509	1438
1399586070697826960	1533	1520	1510	1437
1399586070712760742	1533	1518	1510	1437
1399586070727719358	1531	1519	1510	1437
1399586070747790334	1527	1523	1511	1436
1399586070762732973	1527	1527	1511	1436
1399586070777718018	1528	1522	1511	1437
1399586070792739608	1532	1516	1512	1438
1399586070812735176	1526	1515	1512	1438
1399586070837721102	1525	1519	1513	1439
1399586070857719287	1523	1522	1513	1438
1399586070872700606	1523	1526	1513	1438
1399586070892759265	1524	1516	1514	1439
1399586070922732864	1521	1513	1514	1439
1399586070937709937	1522	1508	1515	1439
1399586070952788310	1516	1517	1515	1439
1399586070972761919	1522	1508	1515	1440
1399586070987698293	1515	1506	1516	1440
1399586071012718360	1509	1505	1516	1441
1399586071037732689	1512	1499	1517	1442
1399586071057739036	1513	1494	1517	1442
1399586071072748402	1513	1496	1518	1441
1399586071107751996	1507	1510	1518	1442
1399586071122723016	1508	1504	1519	1442
1399586071137735166	1512	1517	1519	1443
1399586071152703760	1512	1514	1520	1443
1399586071172674111	1517	1520	1520	1442
1399586071187686313	1512	1524	1520	1441
1399586071207724361	1517	1519	1520	1442
1399586071222720944	1514	1513	1520	1443
1399586071242700129	1518	1513	1521	1443
1399586071262662035	1516	1518	1521	1442
1399586071277670007	1516	1515	1521	1443
1399586071307726143	1519	1506	1521	1442
1399586071322689260	1513	1502	1521	1444
1399586071352757082	1516	1505	1521	1444
1399586071377716469	1516	1502	1521	1444
1399586071412733697	1513	1498	1520	1444
1399586071427773218	1517	1506	1520	1444
1399586071442741810	1516	1508	1520	1444
1399586071462732901	1515	1505	1520	1445
1399586071477791539	1515	1501	1519	1446
1399586071497755700	1517	1505	1519	1446
1399586071512731596	1521	1500	1519	1447
1399586071527761402	1524	1498	1518	1448
1399586071542821708	1523	1507	1518	1446
1399586071572788309	1521	1512	1518	1447
1399586071587732328	1517	1508	1517	1448
1399586071612737365	1518	1512	1517	1447
1399586071637787240	1521	1507	1517	1448
1399586071652732720	1523	1508	1517	1449
1399586071672723301	1523	1504	1517	1448
1399586071687719036	1523	1505	1516	1447
1399586071702710731	1519	1509	1516	1447
1399586071722731267	1518	1510	1516	1448
1399586071737749208	1516	1508	1516	1448
1399586071757754127	1520	1505	1516	1448
1399586071777766390	1518	1510	1516	1448
1399586071792708740	1519	1503	1516	1448
1399586071812740380	1518	1508	1515	1448
1399586071827721508	1518	1508	1515	1447
1399586071857789650	1521	1511	1515	1447
1399586071872751943	1518	1509	1515	1448
1399586071887755327	1525	1509	1515	1447
1399586071907785621	1525	1506	1515	1447
1399586071922729825	1523	1507	1515	1446
1399586071937737301	1524	1517	1515	1445
1399586071957674647	1526	1517	1515	1444
1399586071972760804	1526	1513	1515	1444
1399586071987719183	1527	1514	1515	1445
1399586072007750890	1527	1512	1516	1445
1399586072027735151	1531	1515	1516	1444
1399586072042739403	1529	1516	1516	1443
1399586072072751796	1531	1514	1516	1443
1399586072087709239	1531	1519	1516	1443
1399586072102718743	1533	1519	1516	1442
1399586072117726542	1533	1522	1516	1441
1399586072137725147	1529	1517	1516	1441
1399586072157722445	1524	1516	1516	1441
1399586072167647023	1523	1520	1516	1441
1399586072187696737	1519	1513	1516	1440
1399586072207737566	1526	1514	1516	1439
1399586072222712202	1529	1513	1516	1439
1399586072242733704	1527	1513	1516	1438
1399586072262739716	1527	1519	1516	1437
1399586072277719672	1529	1516	1515	1437
1399586072292705068	1519	1514	1515	1438
1399586072312746691	1517	1517	1515	1437
1399586072327701985	1516	1510	1515	1437
1399586072347722214	1526	1511	1515	1436
1399586072362688038	1529	1516	1516	1436
1399586072377729938	1534	1523	1516	1434
1399586072402773647	1536	1510	1516	1437
1399586072422720222	1537	1519	1516	1434
1399586072437762108	1538	1520	1516	1434
1399586072452751026	1538	1521	1516	1435
1399586072472746380	1533	1512	1516	1436
1399586072487727640	1533	1506	1516	1437
1399586072507724761	1532	1507	1516	1437
1399586072522754956	1533	1504	1516	1437
1399586072542760459	1533	1508	1517	1437
1399586072572733368	1533	1510	1517	1437
1399586072587723784	1529	1514	1517	1437
1399586072607778287	1526	1510	1517	1437
1399586072622736316	1525	1512	1517	1438
1399586072647696556	1531	1512	1518	1438
1399586072662849921	1531	1514	1518	1438
1399586072677746048	1532	1512	1518	1439
1399586072692652319	1529	1509	1518	1440
1399586072712722758	1529	1506	1518	1441
1399586072727695213	1529	1511	1517	1441
1399586072742690162	1531	1513	1517	1440
1399586072772722206	1528	1511	1517	1440
1399586072792737879	1522	1503	1517	1441
1399586072822754715	1522	1506	1517	1440
1399586072837759600	1525	1503	1517	1441
1399586072862714056	1522	1511	1516	1439
1399586072877791838	1518	1507	1516	1439
1399586072892786938	1522	1503	1516	1440
1399586072912731099	1522	1501	1516	1440
1399586072927750893	1518	1506	1516	1439
1399586072947745604	1522	1513	1516	1437
1399586072962735336	1521	1516	1516	1436
1399586072977762402	1526	1509	1516	1437
1399586073007775632	1522	1503	1516	1437
1399586073022817176	1522	1511	1516	1436
1399586073042750079	1524	1504	1516	1436
1399586073072862875	1519	1497	1516	1436
1399586073087858495	1515	1500	1516	1437
1399586073102751201	1523	1507	1516	1434
1399586073122793224	1519	1508	1516	1434
1399586073137794188	1519	1504	1516	1437
1399586073152772963	1512	1499	1516	1435
1399586073167766492	1520	1499	1516	1436
1399586073192835544	1518	1494	1516	1435
1399586073212776265	1512	1503	1516	1435
1399586073237794193	1519	1494	1516	1435
1399586073257753306	1519	1499	1516	1434
1399586073272823490	1522	1506	1516	1433
1399586073287816296	1520	1503	1516	1433
1399586073307791692	1528	1500	1516	1434
1399586073327824099	1521	1507	1516	1431
1399586073362805064	1522	1491	1516	1434
1399586073377751768	1526	1498	1516	1433
1399586073392789164	1526	1495	1515	1433
1399586073412811766	1528	1498	1515	1431
1399586073427851409	1522	1495	1516	1431
1399586073442838084	1531	1491	1516	1431
1399586073472807154	1531	1494	1515	1431
1399586073487794751	1522	1486	1515	1432
1399586073507759975	1522	1476	1515	1430
1399586073537827783	1527	1490	1515	1429
1399586073557820806	1527	1499	1514	1429
1399586073572766380	1526	1488	1514	1429
1399586073592803723	1522	1487	1514	1430
1399586073612736168	1520	1491	1513	1429
1399586073627713062	1519	1495	1513	1429
1399586073647725058	1527	1492	1513	1430
1399586073662895862	1528	1496	1512	1430
1399586073677816981	1527	1494	1512	1430
1399586073692770710	1531	1501	1512	1429
1399586073712807004	1533	1504	1511	1430
1399586073727810146	1526	1502	1511	1431
1399586073757884881	1530	1506	1510	1432
1399586073772818743	1532	1510	1510	1431
1399586073792823736	1530	1498	1509	1433
1399586073812803976	1529	1504	1509	1432
1399586073837834751	1525	1497	1508	1433
1399586073857820896	1526	1492	1508	1436
1399586073867840986	1529	1497	1507	1435
1399586073887805843	1524	1505	1507	1434
1399586073907800649	1522	1509	1507	1433
1399586073922758669	1522	1511	1507	1434
1399586073937822350	1522	1503	1506	1436
1399586073957790206	1524	1497	1506	1436
1399586073977787352	1522	1498	1506	1437
1399586073992773956	1517	1500	1506	1436
1399586074022791266	1514	1498	1506	1437
1399586074037795290	1518	1494	1506	1439
1399586074052801393	1516	1499	1506	1438
1399586074072778421	1515	1507	1506	1436
1399586074087796825	1521	1509	1506	1435
1399586074102799676	1518	1507	1506	1436
1399586074122777636	1520	1510	1506	1435
1399586074137748943	1512	1506	1506	1436
1399586074162779259	1507	1505	1507	1437
1399586074177757708	1511	1500	1507	1435
1399586074202994275	1508	1496	1507	1438
1399586074227986473	1513	1508	1508	1436
1399586074258074515	1514	1509	1508	1436
1399586074273066401	1516	1513	1509	1435
1399586074288116928	1515	1511	1509	1436
1399586074308049036	1515	1512	1509	1437
1399586074318007744	1517	1507	1509	1438
1399586074338041805	1511	1497	1510	1438
1399586074353045701	1509	1500	1510	1439
1399586074372826684	1508	1499	1510	1440
1399586074387804672	1508	1507	1510	1439
1399586074407748242	1513	1506	1510	1439
1399586074422794321	1512	1508	1510	1439
1399586074442779277	1514	1514	1510	1438
1399586074462817204	1508	1504	1510	1439
1399586074477823088	1512	1513	1510	1438
1399586074507818405	1514	1500	1510	1440
1399586074527778860	1517	1508	1509	1438
1399586074542771117	1515	1497	1509	1439
1399586074562810868	1515	1490	1509	1440
1399586074577801153	1515	1491	1509	1441
1399586074597808428	1513	1493	1508	1439
1399586074612794569	1514	1498	1508	1438
1399586074632829608	1515	1504	1508	1436
1399586074642804548	1510	1496	1507	1436
1399586074662776216	1512	1488	1507	1437
1399586074687837046	1512	1499	1506	1437
1399586074707904519	1512	1500	1506	1435
1399586074722799962	1513	1500	1506	1434
1399586074737789234	1515	1505	1505	1435
1399586074757810943	1513	1497	1505	1435
1399586074767803179	1514	1492	1505	1435
1399586074787870722	1516	1494	1504	1435
1399586074822823073	1522	1503	1504	1433
1399586074847879317	1520	1501	1504	1431
1399586074862788733	1520	1498	1503	1431
1399586074877769625	1520	1499	1503	1431
1399586074907807945	1531	1495	1503	1429
1399586074922789081	1527	1502	1503	1428
1399586074937873131	1532	1501	1504	1429
1399586074962804747	1535	1492	1504	1429
1399586074977740399	1531	1502	1504	1427
1399586074992819890	1535	1505	1504	1427
1399586075012775993	1538	1493	1505	1427
1399586075027815652	1549	1489	1505	1429
1399586075042760465	1540	1492	1506	1428
1399586075062779677	1541	1496	1506	1428
1399586075087842956	1535	1499	1507	1429
1399586075102820425	1536	1508	1508	1427
1399586075122846349	1539	1507	1509	1428
1399586075137848903	1533	1506	1509	1430
1399586075152799935	1533	1500	1510	1430
1399586075177835629	1542	1502	1510	1429
1399586075192816346	1543	1495	1511	1433
1399586075222853379	1540	1493	1512	1432
1399586075237785315	1537	1495	1513	1435
1399586075257873946	1548	1493	1513	1434
1399586075272777320	1538	1501	1514	1434
1399586075287766303	1552	1498	1514	1434
1399586075302804582	1553	1503	1514	1434
1399586075322831641	1542	1507	1515	1435
1399586075337800919	1552	1495	1515	1436
1399586075362813269	1546	1505	1515	1437
1399586075377789351	1544	1510	1515	1437
1399586075392832265	1542	1499	1515	1438
1399586075422856738	1541	1507	1516	1438
1399586075437843203	1540	1511	1516	1438
1399586075453059280	1538	1505	1515	1439
1399586075472812770	1535	1502	1515	1439
1399586075507823554	1531	1512	1516	1439
1399586075522899530	1527	1508	1516	1440
1399586075552874858	1530	1506	1516	1441
1399586075567751842	1524	1509	1516	1441
1399586075587816198	1530	1517	1516	1440
1399586075602777387	1531	1520	1516	1441
1399586075622793418	1524	1521	1516	1442
1399586075642813300	1524	1516	1516	1443
1399586075662882094	1512	1520	1516	1442
1399586075687796407	1511	1511	1516	1444
1399586075707774764	1515	1519	1516	1445
1399586075727803696	1507	1514	1516	1444
1399586075742761774	1506	1517	1516	1445
1399586075762781483	1512	1510	1516	1446
1399586075787858049	1507	1513	1516	1447
1399586075807848620	1508	1509	1516	1447
1399586075822749311	1506	1508	1516	1448
1399586075837775437	1503	1510	1516	1449
1399586075852783058	1510	1516	1516	1448
1399586075877808662	1515	1508	1517	1448
1399586075892784775	1507	1517	1517	1447
1399586075912830288	1513	1521	1517	1447
1399586075927769025	1506	1513	1517	1449
1399586075957796200	1510	1510	1517	1448
1399586075972793362	1504	1521	1517	1447
1399586075987789903	1508	1510	1517	1450
1399586076002781114	1501	1503	1517	1451
1399586076027867411	1500	1510	1517	1449
1399586076042834921	1501	1506	1517	1450
1399586076072835466	1500	1517	1517	1448
1399586076087841482	1497	1503	1517	1448
1399586076102821367	1499	1506	1517	1449
1399586076122833117	1496	1505	1516	1447
1399586076137829448	1498	1508	1516	1446
1399586076152762207	1497	1505	1516	1446
1399586076172825811	1499	1493	1516	1447
1399586076202888522	1505	1501	1515	1444
1399586076222815186	1504	1506	1515	1442
1399586076237793335	1501	1511	1515	1442
1399586076257829569	1501	1497	1515	1444
1399586076272786602	1508	1485	1515	1444
1399586076288073512	1503	1486	1515	1444
1399586076303028936	1505	1498	1515	1442
1399586076323081818	1505	1502	1515	1441
1399586076347904469	1506	1498	1515	1440
1399586076363002705	1508	1500	1515	1440
1399586076378049118	1508	1500	1515	1440
1399586076392884264	1510	1509	1515	1440
1399586076423050070	1509	1503	1516	1440
1399586076438013665	1514	1502	1516	1440
1399586076458075573	1510	1486	1516	1440
1399586076473042234	1507	1493	1516	1439
1399586076487983628	1513	1492	1516	1439
1399586076507983288	1513	1489	1517	1440
1399586076517970911	1514	1485	1517	1441
1399586076537982041	1519	1484	1517	1442
1399586076558111370	1517	1490	1517	1440
1399586076573078863	1523	1487	1517	1441
1399586076588148696	1521	1489	1518	1441
1399586076608141261	1519	1497	1518	1441
1399586076623057823	1525	1497	1518	1441
1399586076643038000	1524	1492	1518	1442
1399586076663079316	1524	1498	1518	1440
1399586076678037544	1526	1492	1518	1441
1399586076702849392	1525	1493	1519	1442
1399586076723073001	1521	1504	1519	1440
1399586076737903870	1525	1498	1519	1441
1399586076753008523	1525	1484	1519	1444
1399586076778079536	1526	1504	1519	1440
1399586076793117356	1524	1500	1519	1442
1399586076813036178	1522	1492	1519	1443
1399586076828108798	1522	1495	1519	1443
1399586076843031479	1530	1498	1519	1441
1399586076863012710	1528	1506	1519	1441
1399586076877717801	1526	1499	1519	1441
1399586076892720475	1529	1487	1519	1442
1399586076912756596	1528	1492	1519	1441
1399586076927739151	1532	1488	1519	1443
1399586076942740074	1532	1483	1519	1444
1399586076962729136	1531	1485	1519	1442
1399586076977730483	1531	1481	1519	1441
1399586077002749564	1532	1502	1519	1440
1399586077012710595	1542	1508	1519	1439
1399586077027753608	1535	1499	1519	1440
1399586077047804721	1530	1494	1519	1441
1399586077062716286	1529	1490	1519	1441
1399586077077751612	1530	1496	1519	1440
1399586077092721715	1534	1504	1519	1440
1399586077112759823	1536	1500	1518	1440
1399586077127810064	1535	1497	1518	1440
1399586077142716992	1535	1508	1518	1440
1399586077172784168	1535	1511	1518	1439
1399586077187767011	1546	1515	1518	1440
1399586077212756268	1535	1518	1517	1440
1399586077227795438	1539	1520	1517	1440
1399586077242757637	1542	1516	1517	1441
1399586077262878995	1541	1511	1517	1441
1399586077282704156	1534	1503	1517	1443
1399586077292709412	1535	1502	1516	1442
1399586077312759791	1538	1514	1516	1441
1399586077327743499	1541	1525	1515	1440
1399586077357730591	1524	1502	1515	1442
1399586077372707502	1527	1503	1514	1442
1399586077392759375	1522	1510	1514	1442
1399586077412807531	1523	1503	1513	1442
1399586077427980608	1514	1504	1513	1443
1399586077443087160	1528	1520	1513	1441
1399586077463020833	1521	1511	1512	1443
1399586077478029920	1526	1515	1512	1442
1399586077493097609	1525	1526	1512	1443
1399586077518080098	1531	1519	1512	1444
1399586077538110719	1532	1527	1512	1443
1399586077553074592	1526	1525	1511	1443
1399586077578110929	1528	1528	1511	1443
1399586077597857607	1515	1517	1511	1444
1399586077613044861	1520	1516	1511	1444
1399586077638003593	1519	1522	1510	1443
1399586077658062968	1510	1515	1510	1443
1399586077678095327	1513	1521	1510	1442
1399586077693094101	1514	1515	1509	1443
1399586077713012882	1513	1515	1509	1443
1399586077728033832	1509	1516	1508	1442
1399586077748118104	1518	1531	1508	1440
1399586077763086309	1505	1530	1508	1438
1399586077778123258	1516	1529	1507	1440
1399586077798047296	1504	1525	1507	1442
1399586077813038966	1505	1518	1507	1441
1399586077827889067	1502	1517	1506	1442
1399586077842754037	1511	1524	1506	1441
1399586077862798491	1502	1528	1505	1440
1399586077877852050	1509	1524	1505	1439
1399586077907798338	1502	1529	1505	1441
1399586077922794853	1500	1518	1505	1442
1399586077937770225	1502	1521	1504	1441
1399586077957787543	1497	1536	1504	1440
1399586077967812404	1493	1528	1504	1439
1399586077987792565	1501	1537	1504	1439
1399586078007776027	1504	1540	1503	1439
1399586078022801954	1510	1515	1503	1441
1399586078037746948	1501	1535	1503	1440
1399586078052781016	1507	1541	1503	1439
1399586078072783152	1507	1525	1503	1442
1399586078087770107	1505	1528	1503	1440
1399586078107740000	1512	1530	1503	1442
1399586078122727562	1515	1526	1503	1441
1399586078142719805	1508	1532	1503	1440
1399586078162761184	1508	1531	1503	1439
1399586078177718602	1504	1535	1503	1440
1399586078192737795	1505	1536	1503	1440
1399586078212768219	1516	1521	1503	1441
1399586078227753962	1507	1524	1504	1441
1399586078247765064	1514	1531	1504	1439
1399586078262724842	1513	1535	1504	1438
1399586078282850849	1511	1532	1504	1438
1399586078292736174	1517	1537	1505	1437
1399586078312715536	1519	1534	1505	1437
1399586078337676232	1511	1529	1506	1437
1399586078357748262	1519	1517	1506	1440
1399586078377765684	1517	1529	1507	1437
1399586078402754999	1519	1524	1507	1437
1399586078422733956	1515	1522	1507	1438
1399586078437715796	1520	1530	1508	1437
1399586078457725286	1517	1538	1508	1436
1399586078472738666	1520	1539	1508	1436
1399586078487737716	1516	1530	1508	1437
1399586078502737856	1517	1527	1509	1438
1399586078522721990	1518	1519	1509	1440
1399586078542765892	1521	1530	1509	1438
1399586078562707848	1522	1527	1510	1437
1399586078577721633	1522	1533	1510	1436
1399586078602745324	1523	1526	1510	1438
1399586078637774262	1519	1523	1511	1438
1399586078657726361	1519	1531	1511	1436
1399586078672749161	1521	1524	1512	1438
1399586078687737951	1528	1517	1512	1439
1399586078707740174	1527	1521	1512	1439
1399586078717692537	1527	1517	1512	1439
1399586078737762933	1522	1516	1513	1440
1399586078757762177	1522	1511	1513	1441
1399586078767711300	1525	1506	1514	1442
1399586078787714267	1522	1503	1514	1440
1399586078802742627	1525	1512	1514	1439
1399586078827714686	1524	1516	1514	1438
1399586078842756516	1523	1502	1515	1441
