#Time	 Roll 	 Pitch 	 Yaw 	 Thrust
1399422547106691788	1520	1516	1926	1105
1399422547207031259	1520	1516	1926	1105
1399422547307365113	1520	1516	1513	1105
1399422556042955223	1504	1511	1501	1379
1399422556062946002	1504	1510	1501	1378
1399422556077971117	1504	1510	1501	1378
1399422556097903679	1503	1510	1501	1378
1399422556112952125	1504	1510	1501	1378
1399422556137937793	1504	1510	1501	1378
1399422556158011783	1504	1509	1501	1378
1399422556178007594	1504	1510	1501	1378
1399422556208063700	1504	1509	1501	1378
1399422556237999537	1504	1510	1501	1378
1399422556262888035	1504	1510	1501	1378
1399422556277965929	1504	1509	1501	1378
1399422556293005620	1504	1510	1501	1378
1399422556312884791	1504	1510	1501	1378
1399422556328043831	1504	1510	1501	1378
1399422556343015145	1505	1510	1501	1378
1399422556373008634	1503	1510	1501	1378
1399422556387973119	1504	1510	1501	1378
1399422556413000826	1504	1510	1501	1378
1399422556427985772	1504	1509	1501	1378
1399422556443238637	1504	1510	1501	1377
1399422556463317715	1505	1510	1501	1377
1399422556478229573	1504	1511	1501	1378
1399422556503193391	1504	1510	1501	1378
1399422556523236493	1503	1511	1501	1378
1399422556538257209	1504	1510	1501	1434
1399422556553137036	1504	1510	1501	1426
1399422556573159768	1504	1510	1501	1427
1399422556587873714	1505	1510	1501	1427
1399422556608245354	1504	1510	1501	1427
1399422556623207672	1504	1510	1501	1427
1399422556658238950	1503	1511	1501	1427
1399422556688160315	1503	1512	1501	1427
1399422556713140596	1503	1511	1501	1428
1399422556738139724	1504	1509	1501	1427
1399422556753167244	1504	1509	1501	1427
1399422556773025542	1505	1511	1501	1428
1399422556787998888	1505	1511	1501	1428
1399422556807947486	1505	1512	1501	1429
1399422556818025114	1505	1512	1501	1429
1399422556837985566	1506	1512	1501	1430
1399422556853002841	1505	1512	1501	1430
1399422556867953078	1505	1511	1501	1429
1399422556892959900	1504	1511	1501	1429
1399422556913094610	1503	1509	1501	1430
1399422556928055153	1503	1508	1501	1430
1399422556943331355	1502	1507	1501	1430
1399422556968287986	1503	1504	1501	1429
1399422556978319136	1502	1504	1501	1429
1399422556993210343	1503	1503	1501	1429
1399422557018297921	1503	1498	1501	1429
1399422557038218139	1502	1497	1501	1429
1399422557058242263	1502	1496	1501	1429
1399422557073342698	1501	1495	1501	1429
1399422557088309700	1500	1494	1500	1428
1399422557108224292	1501	1495	1500	1428
1399422557127977777	1499	1491	1500	1427
1399422557148233537	1498	1491	1500	1426
1399422557163247432	1503	1489	1500	1426
1399422557177981273	1503	1490	1499	1426
1399422557203231997	1501	1489	1499	1425
1399422557223176414	1502	1492	1499	1424
1399422557238298439	1502	1491	1499	1424
1399422557258017032	1507	1494	1498	1424
1399422557273218851	1505	1495	1498	1424
1399422557288166028	1503	1495	1498	1423
1399422557303142375	1504	1493	1498	1423
1399422557323189423	1498	1493	1498	1423
1399422557338134658	1496	1492	1498	1422
1399422557358230152	1497	1489	1498	1420
1399422557373248114	1498	1488	1498	1420
1399422557408059744	1498	1489	1497	1421
1399422557428226051	1495	1486	1497	1418
1399422557443170780	1495	1485	1497	1418
1399422557463200724	1493	1489	1497	1419
1399422557483166611	1494	1489	1497	1420
1399422557493120900	1491	1487	1496	1419
1399422557513174698	1493	1486	1496	1418
1399422557533233637	1494	1485	1496	1418
1399422557543253885	1495	1485	1496	1418
1399422557563275476	1490	1487	1496	1417
1399422557578189492	1490	1486	1496	1417
1399422557593166998	1489	1486	1496	1418
1399422557623255677	1492	1481	1495	1417
1399422557643230441	1491	1480	1495	1418
1399422557663249978	1489	1477	1495	1416
1399422557678111258	1491	1480	1495	1417
1399422557693205379	1488	1478	1495	1416
1399422557713107602	1489	1480	1495	1418
1399422557728239972	1487	1478	1495	1417
1399422557743162921	1488	1477	1495	1418
1399422557763109289	1486	1474	1494	1417
1399422557778176583	1486	1473	1495	1417
1399422557793232215	1486	1475	1494	1418
1399422557813130805	1487	1474	1494	1417
1399422557838162677	1487	1473	1494	1418
1399422557858144885	1488	1474	1494	1419
1399422557873145564	1490	1471	1494	1418
1399422557888206907	1487	1473	1494	1419
1399422557903167959	1488	1469	1494	1418
1399422557918176032	1490	1469	1494	1419
1399422557938221353	1490	1469	1494	1419
1399422557953301819	1492	1468	1494	1419
1399422557973202382	1494	1470	1494	1421
1399422557988173000	1495	1467	1494	1420
1399422558003189855	1495	1470	1494	1422
1399422558023262687	1497	1466	1493	1421
1399422558038265099	1496	1467	1494	1424
1399422558058263027	1497	1464	1494	1422
1399422558073263946	1497	1465	1493	1424
1399422558088176401	1497	1466	1494	1424
1399422558108208141	1490	1461	1493	1424
1399422558118200658	1490	1462	1493	1424
1399422558138243069	1492	1462	1494	1423
1399422558153242091	1490	1462	1494	1425
1399422558177975470	1493	1463	1494	1426
1399422558193182657	1493	1461	1494	1425
1399422558212904405	1490	1459	1494	1426
1399422558227962668	1490	1461	1494	1426
1399422558242967074	1493	1461	1494	1426
1399422558262971568	1493	1465	1494	1428
1399422558277960564	1495	1465	1494	1428
1399422558292922535	1494	1466	1494	1428
1399422558312901606	1497	1469	1494	1428
1399422558327952832	1496	1470	1494	1429
1399422558358237642	1497	1473	1494	1428
1399422558373314086	1498	1474	1494	1429
1399422558388250495	1499	1475	1494	1429
1399422558403170231	1500	1475	1494	1429
1399422558418218926	1504	1474	1494	1428
1399422558438241530	1503	1475	1494	1428
1399422558453292148	1504	1477	1494	1429
1399422558473266428	1504	1477	1494	1429
1399422558488258193	1504	1479	1494	1430
1399422558503223605	1505	1480	1494	1431
1399422558518144497	1504	1477	1494	1431
1399422558538188599	1504	1479	1494	1431
1399422558553283875	1505	1480	1494	1432
1399422558568275569	1500	1477	1494	1432
1399422558588213060	1499	1477	1494	1431
1399422558608191530	1498	1471	1493	1430
1399422558618200734	1497	1473	1493	1432
1399422558643161074	1498	1475	1493	1433
1399422558663161565	1497	1473	1492	1433
1399422558688264827	1499	1473	1492	1433
1399422558708009406	1499	1474	1492	1434
1399422558718161121	1500	1474	1491	1433
1399422558738185334	1499	1475	1491	1434
1399422558753246588	1499	1474	1491	1434
1399422558768254161	1508	1473	1490	1433
1399422558793249365	1507	1475	1490	1433
1399422558813208128	1507	1477	1490	1434
1399422558828161074	1507	1477	1490	1434
1399422558853243136	1507	1476	1490	1434
1399422558867994612	1515	1480	1490	1432
1399422558888157785	1514	1483	1490	1434
1399422558902984010	1512	1482	1489	1433
1399422558918195900	1514	1480	1489	1433
1399422558938009322	1515	1481	1489	1433
1399422558963292224	1515	1482	1489	1432
1399422558978227877	1512	1484	1489	1434
1399422558993015820	1513	1484	1489	1433
1399422559013247789	1512	1483	1489	1433
1399422559038100295	1513	1485	1489	1433
1399422559053238632	1514	1483	1489	1433
1399422559078237623	1511	1484	1489	1433
1399422559108260928	1509	1486	1489	1434
1399422559123300367	1510	1485	1489	1433
1399422559138234131	1509	1484	1489	1434
1399422559153094393	1510	1486	1489	1434
1399422559167968591	1507	1486	1489	1434
1399422559188150806	1505	1487	1489	1434
1399422559203065466	1506	1488	1489	1434
1399422559218186322	1507	1487	1489	1435
1399422559238315492	1508	1487	1489	1435
1399422559253173514	1507	1486	1489	1435
1399422559268181120	1502	1491	1489	1436
1399422559288331028	1504	1491	1489	1435
1399422559308168969	1507	1490	1489	1434
1399422559323126614	1504	1490	1489	1435
1399422559358205491	1504	1488	1489	1435
1399422559388197833	1503	1489	1489	1435
1399422559418273040	1507	1488	1489	1435
1399422559428225058	1506	1487	1489	1435
1399422559443155321	1506	1487	1489	1435
1399422559468016612	1510	1489	1489	1435
1399422559488034980	1510	1490	1489	1436
1399422559503055859	1511	1490	1489	1436
1399422559518219213	1511	1488	1488	1435
1399422559538196426	1510	1489	1488	1435
1399422559553254384	1508	1489	1488	1436
1399422559568182894	1508	1491	1488	1435
1399422559588196509	1507	1490	1488	1435
1399422559603168486	1507	1490	1488	1434
1399422559618233347	1508	1492	1488	1436
1399422559638210871	1507	1492	1488	1437
1399422559653017270	1507	1491	1488	1437
1399422559668176679	1506	1491	1488	1437
1399422559688152169	1505	1491	1488	1437
1399422559708214692	1505	1489	1488	1437
1399422559718269720	1506	1489	1488	1436
1399422559737961519	1504	1489	1488	1436
1399422559758195794	1506	1486	1488	1437
1399422559768281372	1506	1486	1488	1437
1399422559788202302	1506	1486	1488	1438
1399422559803224923	1505	1486	1488	1437
1399422559823255856	1505	1485	1488	1437
1399422559838208590	1503	1485	1488	1437
1399422559853198181	1502	1485	1488	1437
1399422559868054602	1502	1486	1488	1438
1399422559888235245	1503	1486	1488	1438
1399422559903138116	1503	1486	1488	1439
1399422559918179571	1503	1487	1488	1439
1399422559938176951	1502	1487	1488	1439
1399422559953244002	1502	1486	1488	1438
1399422559968249571	1503	1487	1488	1438
1399422559987964447	1503	1486	1488	1438
1399422560013336252	1508	1486	1489	1439
1399422560028161608	1508	1486	1489	1439
1399422560043221547	1508	1485	1489	1439
1399422560063217988	1510	1483	1489	1439
1399422560088316231	1509	1482	1489	1439
1399422560113247975	1509	1482	1489	1438
1399422560138267970	1509	1483	1489	1439
1399422560178258540	1505	1488	1489	1439
1399422560192996962	1506	1487	1489	1439
1399422560213325362	1503	1489	1490	1439
1399422560228095471	1503	1488	1490	1439
1399422560248325851	1503	1487	1490	1438
1399422560263333984	1507	1488	1490	1437
1399422560278176969	1507	1489	1490	1437
1399422560293201856	1506	1489	1490	1437
1399422560323316827	1508	1488	1490	1438
1399422560358316369	1506	1487	1490	1437
1399422560378166902	1506	1487	1490	1437
1399422560413180737	1507	1481	1490	1435
1399422560428243305	1506	1481	1490	1436
1399422560443258804	1506	1481	1490	1435
1399422560463230298	1503	1484	1490	1436
1399422560478105713	1503	1483	1490	1436
1399422560498235393	1503	1484	1490	1436
1399422560513114962	1501	1484	1490	1437
1399422560528232764	1500	1483	1490	1437
1399422560543221817	1500	1482	1490	1436
1399422560573279406	1496	1479	1490	1436
1399422560588224014	1496	1479	1490	1437
1399422560622994696	1494	1481	1490	1437
1399422560642965420	1494	1481	1490	1438
1399422560672946643	1495	1479	1490	1437
1399422560687966215	1495	1479	1490	1438
1399422560708036857	1496	1479	1490	1439
1399422560717943794	1501	1477	1490	1438
1399422560738080004	1500	1476	1490	1438
1399422560758014317	1499	1480	1490	1438
1399422560773256911	1500	1479	1490	1438
1399422560788190142	1500	1479	1490	1439
1399422560813177444	1496	1479	1490	1439
1399422560838219848	1496	1478	1490	1440
1399422560873261413	1499	1481	1490	1440
1399422560888190746	1500	1481	1490	1440
1399422560903192707	1501	1482	1490	1440
1399422560928233895	1504	1481	1490	1440
1399422560948169603	1506	1481	1489	1441
1399422560963219495	1510	1480	1489	1441
1399422560978120110	1510	1481	1489	1442
1399422560993179829	1510	1481	1489	1442
1399422561013331031	1518	1478	1489	1441
1399422561038200530	1518	1477	1489	1441
1399422561058268262	1519	1479	1489	1441
1399422561088192249	1520	1477	1489	1441
1399422561103233136	1521	1477	1489	1442
1399422561118165419	1513	1471	1489	1441
1399422561138331551	1514	1470	1489	1441
1399422561163150995	1512	1471	1488	1441
1399422561178152416	1512	1470	1488	1441
1399422561193124988	1513	1470	1488	1440
1399422561213216991	1508	1473	1488	1440
1399422561228135217	1508	1473	1488	1440
1399422561243279732	1508	1472	1488	1440
1399422561273258204	1505	1469	1488	1440
1399422561288110252	1506	1470	1488	1439
1399422561323224273	1499	1471	1488	1440
1399422561358372849	1497	1470	1488	1439
1399422561383285356	1496	1470	1488	1440
1399422561393224060	1496	1472	1488	1440
1399422561418223767	1494	1477	1488	1440
1399422561437951021	1494	1478	1488	1440
1399422561458182244	1492	1481	1489	1440
1399422561473195604	1492	1480	1489	1440
1399422561488176265	1492	1480	1489	1440
1399422561508163312	1491	1480	1489	1441
1399422561523273399	1498	1489	1489	1439
1399422561558303493	1500	1490	1489	1440
1399422561573213577	1501	1491	1489	1440
1399422561593115080	1499	1490	1489	1439
1399422561613143926	1508	1492	1489	1439
1399422561628113972	1508	1491	1490	1439
1399422561648164145	1508	1492	1490	1440
1399422561663155736	1509	1485	1490	1440
1399422561678062867	1509	1485	1490	1440
1399422561703306743	1508	1486	1490	1439
1399422561723156864	1513	1481	1490	1440
1399422561738117589	1513	1482	1490	1439
1399422561758284674	1512	1480	1490	1439
1399422561773220545	1511	1480	1490	1439
1399422561793340328	1512	1480	1490	1439
1399422561813208779	1510	1479	1490	1439
1399422561828203694	1510	1479	1489	1439
1399422561843154271	1509	1479	1489	1438
1399422561863239181	1504	1473	1489	1438
1399422561883162964	1504	1473	1489	1438
1399422561893173020	1504	1474	1489	1439
1399422561913317981	1498	1466	1489	1439
1399422561933281774	1498	1465	1489	1440
1399422561942995559	1498	1465	1489	1440
1399422561963292579	1492	1465	1489	1439
1399422561978058860	1491	1465	1489	1439
1399422561993247224	1490	1466	1489	1440
1399422562023266963	1489	1468	1489	1441
1399422562038165562	1488	1467	1489	1440
1399422562073172841	1486	1484	1489	1442
1399422562088245458	1486	1484	1489	1442
1399422562103279567	1486	1484	1489	1442
1399422562123131744	1486	1491	1489	1443
1399422562138216542	1486	1492	1489	1443
1399422562153202366	1485	1492	1489	1443
1399422562173015384	1490	1488	1489	1443
1399422562188340902	1490	1490	1489	1444
1399422562203372100	1490	1492	1489	1443
1399422562228243248	1495	1496	1489	1443
1399422562258179258	1496	1498	1489	1444
1399422562272931832	1504	1504	1489	1444
1399422562308444449	1508	1503	1489	1443
1399422562328241410	1509	1502	1489	1443
1399422562363401186	1512	1493	1490	1443
1399422562378174689	1511	1493	1490	1442
1399422562398232502	1512	1494	1490	1442
1399422562413209013	1510	1486	1490	1443
1399422562428130295	1510	1488	1490	1442
1399422562443215401	1511	1488	1490	1442
1399422562468159115	1497	1484	1490	1441
1399422562488160255	1497	1483	1491	1441
1399422562503176784	1496	1483	1491	1442
1399422562518151868	1491	1483	1491	1441
1399422562538211709	1491	1482	1491	1441
1399422562558211851	1486	1492	1491	1440
1399422562568195513	1487	1492	1491	1439
1399422562593254678	1485	1493	1491	1440
1399422562613215755	1492	1496	1491	1439
1399422562628209180	1493	1495	1491	1440
1399422562643198342	1493	1495	1492	1440
1399422562663133410	1498	1489	1492	1440
1399422562678162268	1499	1489	1492	1439
1399422562693378278	1500	1490	1492	1438
1399422562713283138	1507	1491	1492	1440
1399422562738328303	1506	1491	1492	1440
1399422562758255193	1514	1488	1492	1439
1399422562788182869	1516	1488	1493	1439
1399422562813265344	1511	1492	1492	1439
1399422562828210801	1512	1492	1493	1440
1399422562843220918	1513	1491	1493	1440
1399422562863196120	1502	1494	1493	1440
1399422562883224557	1503	1493	1492	1441
1399422562893154423	1504	1492	1493	1440
1399422562913292401	1498	1493	1492	1440
1399422562928235293	1498	1492	1492	1440
1399422562943224546	1499	1493	1492	1441
1399422562963210813	1495	1491	1492	1441
1399422562988165233	1496	1490	1492	1441
1399422563007934250	1507	1487	1492	1441
1399422563018115589	1508	1488	1492	1442
1399422563038213319	1510	1487	1492	1442
1399422563063222953	1514	1485	1491	1441
1399422563078185674	1515	1485	1491	1442
1399422563093156848	1514	1484	1491	1442
1399422563118253732	1523	1485	1491	1442
1399422563138243328	1524	1485	1490	1442
1399422563158099769	1522	1486	1490	1443
1399422563173021696	1522	1484	1490	1443
1399422563187962196	1522	1483	1489	1442
1399422563207981890	1522	1483	1489	1442
1399422563217967168	1509	1483	1489	1442
1399422563237968604	1509	1483	1489	1443
1399422563253004676	1511	1483	1488	1443
1399422563268008504	1506	1481	1488	1443
1399422563287986015	1505	1482	1488	1444
1399422563308017390	1502	1479	1488	1442
1399422563317941209	1503	1479	1488	1442
1399422563338158020	1503	1480	1487	1442
1399422563358301551	1506	1480	1487	1443
1399422563373241459	1507	1479	1487	1443
1399422563388299721	1507	1478	1487	1442
1399422563408125565	1509	1480	1487	1442
1399422563423235930	1508	1480	1487	1441
1399422563443241655	1507	1480	1487	1441
1399422563458193209	1520	1478	1487	1441
1399422563473204141	1520	1478	1486	1442
1399422563508261974	1518	1480	1486	1442
1399422563523206543	1518	1481	1486	1442
1399422563538075479	1516	1480	1486	1442
1399422563553203765	1516	1480	1486	1441
1399422563568192860	1508	1481	1486	1442
1399422563588280369	1509	1482	1485	1442
1399422563608213512	1509	1482	1485	1443
1399422563618143290	1507	1485	1485	1443
1399422563638274871	1507	1485	1485	1443
1399422563653136012	1504	1485	1485	1443
1399422563678257192	1509	1481	1485	1444
1399422563692923151	1507	1481	1485	1444
1399422563713182011	1504	1483	1485	1443
1399422563728190130	1504	1485	1485	1444
1399422563743173766	1504	1486	1485	1445
1399422563763198993	1500	1483	1485	1445
1399422563778022130	1499	1482	1485	1446
1399422563792946567	1496	1482	1485	1446
1399422563813212233	1495	1485	1485	1446
1399422563828161606	1496	1486	1485	1446
1399422563843019430	1495	1485	1485	1446
1399422563863097850	1497	1483	1485	1446
1399422563878174959	1496	1484	1485	1447
1399422563892890351	1494	1484	1485	1447
1399422563913231750	1501	1483	1485	1446
1399422563928111876	1501	1484	1485	1447
1399422563942916763	1500	1483	1485	1447
1399422563963155165	1501	1478	1485	1447
1399422563978112298	1499	1480	1485	1448
1399422563993298686	1499	1481	1485	1447
1399422564023327238	1499	1480	1484	1447
1399422564053178743	1498	1481	1484	1448
1399422564073192512	1496	1483	1484	1448
1399422564088206499	1494	1483	1484	1448
1399422564103226638	1493	1484	1484	1448
1399422564118230497	1489	1485	1483	1449
1399422564138318697	1489	1485	1483	1448
1399422564153221375	1491	1486	1483	1449
1399422564173197743	1487	1488	1483	1449
1399422564188198044	1487	1487	1482	1449
1399422564213256510	1484	1488	1482	1450
1399422564228054806	1483	1486	1482	1449
1399422564243211669	1481	1486	1482	1449
1399422564263080810	1483	1485	1481	1448
1399422564288148690	1483	1485	1481	1449
1399422564303225763	1482	1486	1481	1449
1399422564318270628	1487	1482	1480	1449
1399422564338214371	1487	1481	1480	1448
1399422564353065938	1487	1482	1480	1448
1399422564368172740	1490	1481	1480	1448
1399422564387945413	1489	1481	1479	1448
1399422564403192161	1491	1481	1479	1449
1399422564418196856	1492	1479	1479	1448
1399422564437975151	1491	1481	1479	1450
1399422564453227227	1490	1478	1479	1447
1399422564468240344	1494	1477	1478	1448
1399422564488231689	1495	1478	1478	1449
1399422564503129382	1494	1476	1478	1449
1399422564518247497	1487	1481	1478	1450
1399422564538245444	1487	1479	1478	1450
1399422564553225025	1487	1479	1477	1450
1399422564568293118	1485	1479	1477	1449
1399422564588172379	1485	1478	1477	1449
1399422564603147570	1486	1478	1477	1451
1399422564617911805	1478	1481	1476	1451
1399422564638232248	1478	1481	1476	1452
1399422564653183929	1479	1479	1476	1452
1399422564668278089	1478	1482	1475	1451
1399422564693262190	1478	1482	1475	1452
1399422564723232601	1473	1487	1474	1452
1399422564758303688	1471	1488	1474	1453
1399422564788224513	1472	1486	1473	1452
1399422564808245065	1473	1486	1473	1451
1399422564823204587	1482	1486	1472	1453
1399422564838323631	1482	1483	1472	1452
1399422564853262059	1482	1483	1472	1454
1399422564878252047	1490	1484	1472	1452
1399422564893094513	1491	1484	1472	1454
1399422564913259352	1492	1478	1472	1453
1399422564938146923	1492	1478	1472	1453
1399422564953315694	1492	1479	1472	1454
1399422564968296574	1493	1467	1472	1454
1399422564988206284	1494	1469	1472	1454
1399422565013200880	1489	1466	1472	1454
1399422565043160004	1489	1466	1472	1454
1399422565063243471	1481	1465	1472	1453
1399422565083223437	1481	1464	1472	1452
1399422565093063232	1481	1464	1472	1453
1399422565113141602	1474	1467	1472	1453
1399422565128135255	1474	1467	1472	1454
1399422565143239259	1474	1467	1472	1455
1399422565163236984	1460	1470	1472	1455
1399422565188069014	1459	1469	1472	1454
1399422565223050127	1456	1473	1472	1454
1399422565253255264	1455	1474	1472	1455
1399422565268272243	1460	1475	1472	1454
1399422565278097198	1459	1477	1472	1457
1399422565293138917	1460	1476	1472	1455
1399422565318260455	1466	1477	1472	1456
1399422565338288633	1466	1476	1472	1456
1399422565353247298	1466	1476	1472	1455
1399422565368249194	1480	1473	1472	1456
1399422565393307895	1480	1473	1472	1456
1399422565403236683	1481	1475	1472	1457
1399422565417884910	1488	1473	1472	1456
1399422565438215530	1488	1473	1472	1457
1399422565453186737	1490	1474	1472	1458
1399422565468109913	1496	1469	1472	1458
1399422565488251541	1495	1470	1472	1459
1399422565503292488	1495	1469	1472	1459
1399422565518171318	1498	1464	1472	1459
1399422565538213522	1497	1465	1472	1459
1399422565558120339	1498	1465	1472	1459
1399422565568195779	1497	1461	1472	1460
1399422565588184655	1499	1462	1472	1460
1399422565603255017	1500	1463	1472	1460
1399422565628384025	1494	1467	1472	1461
1399422565648075297	1494	1466	1472	1460
1399422565662864123	1494	1467	1472	1460
1399422565678213713	1478	1473	1472	1462
1399422565708258991	1478	1473	1472	1461
1399422565738258594	1468	1477	1472	1461
1399422565758255751	1468	1478	1472	1461
1399422565768209966	1464	1479	1472	1461
1399422565788213628	1464	1479	1472	1460
1399422565803188415	1464	1481	1472	1460
1399422565818170736	1464	1484	1472	1460
1399422565838290499	1464	1483	1472	1461
1399422565863277270	1463	1483	1472	1460
1399422565878110238	1469	1489	1472	1460
1399422565893047850	1470	1489	1472	1460
1399422565912942371	1477	1487	1472	1460
1399422565927988921	1477	1489	1472	1460
1399422565942994857	1476	1489	1472	1460
1399422565962965395	1486	1478	1472	1460
1399422565977930730	1488	1480	1472	1460
1399422565992910285	1489	1480	1472	1459
1399422566017949327	1502	1475	1472	1459
1399422566037939942	1503	1476	1472	1459
1399422566052927666	1504	1475	1472	1458
1399422566068120260	1512	1474	1472	1458
1399422566087982060	1512	1473	1472	1457
1399422566108224429	1512	1474	1472	1456
1399422566123219654	1514	1468	1472	1456
1399422566143089815	1514	1468	1472	1457
1399422566163214302	1512	1467	1472	1456
1399422566178099940	1512	1469	1472	1456
1399422566193133036	1514	1469	1472	1456
1399422566213238283	1493	1470	1472	1457
1399422566228155768	1493	1470	1472	1458
1399422566243142208	1494	1467	1472	1456
1399422566263353892	1493	1469	1472	1456
1399422566278237347	1484	1474	1472	1456
1399422566293231297	1484	1474	1472	1457
1399422566313259061	1473	1478	1472	1457
1399422566328038938	1473	1480	1472	1459
1399422566343146386	1472	1479	1472	1457
1399422566363188554	1470	1479	1472	1457
1399422566378237325	1472	1479	1472	1456
1399422566398204619	1471	1479	1472	1457
1399422566413201164	1469	1485	1472	1458
1399422566428259462	1468	1486	1472	1457
1399422566443219076	1467	1485	1472	1458
1399422566463219205	1468	1487	1472	1458
1399422566488275101	1476	1490	1472	1458
1399422566508041510	1475	1490	1472	1458
1399422566523193893	1484	1490	1472	1457
1399422566538142572	1485	1491	1472	1458
1399422566558250764	1500	1495	1472	1459
1399422566573267045	1501	1493	1472	1458
1399422566588244393	1503	1492	1472	1457
1399422566608237460	1519	1490	1472	1458
1399422566628150739	1521	1490	1472	1457
1399422566643189401	1524	1489	1472	1458
1399422566663173995	1525	1489	1472	1457
1399422566678218820	1545	1481	1472	1457
1399422566693209517	1547	1480	1472	1456
1399422566713331401	1557	1476	1472	1457
1399422566728196410	1557	1476	1472	1458
1399422566743188129	1560	1475	1472	1458
1399422566763205079	1553	1471	1472	1457
1399422566778158855	1555	1470	1472	1456
1399422566793238268	1556	1470	1472	1456
1399422566813228362	1547	1467	1472	1457
1399422566828223591	1548	1467	1472	1457
1399422566843102774	1549	1467	1472	1456
1399422566863259297	1518	1464	1472	1456
1399422566878171008	1518	1464	1472	1455
1399422566893086298	1520	1464	1472	1455
1399422566913243168	1510	1466	1472	1456
1399422566928165425	1508	1466	1472	1456
1399422566943143453	1509	1464	1472	1455
1399422566963240713	1492	1470	1472	1456
1399422566988206675	1494	1469	1472	1456
1399422567003228873	1494	1467	1472	1454
1399422567018239544	1496	1474	1472	1455
1399422567038207037	1496	1476	1472	1455
1399422567058124939	1497	1475	1472	1454
1399422567073019994	1489	1493	1472	1454
1399422567093213332	1488	1491	1472	1453
1399422567108150741	1497	1497	1472	1455
1399422567123098498	1495	1493	1472	1453
1399422567143246187	1498	1495	1472	1453
1399422567163126538	1511	1504	1472	1453
1399422567178154662	1513	1504	1473	1453
1399422567193196284	1513	1505	1473	1454
1399422567218241045	1526	1503	1473	1453
1399422567227885210	1528	1504	1473	1453
1399422567243159537	1528	1504	1473	1453
1399422567263112868	1541	1501	1473	1452
1399422567283113409	1544	1503	1473	1452
1399422567293231967	1541	1504	1473	1452
1399422567313231866	1544	1506	1473	1453
1399422567338287387	1547	1505	1473	1452
1399422567353232014	1547	1505	1473	1453
1399422567378285203	1553	1502	1473	1452
1399422567393342929	1552	1501	1473	1451
1399422567413284471	1560	1493	1473	1452
1399422567428223598	1560	1493	1473	1451
1399422567453300867	1560	1493	1473	1451
1399422567473214925	1551	1491	1472	1451
1399422567488247676	1549	1493	1472	1450
1399422567508297589	1540	1492	1472	1450
1399422567523256230	1540	1492	1472	1452
1399422567538236700	1540	1493	1472	1452
1399422567558237705	1537	1492	1472	1453
1399422567573211269	1523	1486	1472	1453
1399422567588176179	1521	1486	1472	1452
1399422567608308260	1497	1479	1472	1451
1399422567623206787	1495	1481	1472	1452
1399422567658303778	1486	1481	1472	1452
1399422567678158363	1483	1480	1472	1452
1399422567693233471	1482	1482	1472	1453
1399422567713348333	1470	1486	1472	1453
1399422567728182764	1469	1487	1472	1453
1399422567743175813	1467	1487	1472	1452
1399422567763227932	1474	1488	1472	1453
1399422567778202267	1473	1489	1472	1453
1399422567797970411	1472	1488	1472	1453
1399422567813237502	1492	1493	1472	1453
1399422567828218930	1489	1493	1472	1453
1399422567843300185	1488	1491	1472	1454
1399422567873253370	1502	1490	1472	1454
1399422567908177420	1528	1485	1472	1454
1399422567923074405	1527	1484	1472	1455
1399422567938226791	1528	1483	1472	1455
1399422567953094569	1526	1484	1472	1454
1399422567968294374	1532	1479	1472	1455
1399422567988224060	1532	1479	1472	1456
1399422568003123069	1533	1478	1472	1457
1399422568018148311	1538	1478	1472	1457
1399422568038247280	1538	1478	1472	1457
1399422568053068814	1536	1478	1472	1457
1399422568068220446	1540	1481	1472	1457
1399422568088196459	1539	1480	1472	1457
1399422568103195666	1538	1481	1472	1458
1399422568118178223	1530	1481	1472	1457
1399422568138273496	1529	1482	1472	1458
1399422568158071449	1522	1482	1472	1459
1399422568173159109	1520	1481	1472	1459
1399422568188162652	1519	1480	1472	1458
1399422568203221466	1517	1483	1472	1459
1399422568228173283	1504	1484	1472	1458
1399422568243021182	1500	1485	1472	1459
1399422568263193028	1461	1488	1472	1458
1399422568277956106	1460	1490	1472	1459
1399422568293194419	1457	1488	1472	1458
1399422568313014325	1443	1495	1472	1458
1399422568338354546	1440	1495	1472	1457
1399422568373255942	1438	1499	1472	1457
1399422568408227132	1438	1499	1472	1456
1399422568453201132	1434	1499	1472	1455
1399422568473024227	1480	1490	1472	1455
1399422568488111762	1480	1489	1472	1454
1399422568503178454	1480	1493	1472	1454
1399422568518224694	1492	1487	1472	1452
1399422568548268615	1493	1489	1472	1452
1399422568563218291	1520	1487	1472	1452
1399422568578180665	1522	1485	1472	1451
1399422568593211550	1522	1486	1472	1451
1399422568613292634	1538	1482	1472	1450
1399422568628119176	1539	1485	1472	1450
1399422568658177511	1546	1480	1472	1449
1399422568688223787	1549	1480	1472	1449
1399422568703155071	1551	1478	1472	1449
1399422568718167590	1556	1473	1472	1450
1399422568738102642	1557	1470	1472	1449
1399422568758190019	1561	1471	1472	1450
1399422568768107454	1527	1473	1472	1448
1399422568788195575	1530	1473	1472	1449
1399422568808048973	1494	1472	1472	1449
1399422568823152518	1495	1472	1472	1450
1399422568858182875	1498	1470	1472	1449
1399422568888236542	1464	1476	1472	1449
1399422568918299679	1449	1482	1472	1448
1399422568937980725	1449	1482	1472	1450
1399422568953253157	1449	1481	1472	1450
1399422568978164333	1444	1485	1472	1449
1399422568993259445	1445	1485	1472	1449
1399422569013246250	1485	1482	1472	1450
1399422569027996694	1485	1482	1472	1451
1399422569043179572	1485	1481	1472	1452
1399422569063182463	1494	1480	1472	1452
1399422569078210055	1496	1478	1472	1452
1399422569093230781	1497	1478	1472	1452
1399422569113288897	1523	1472	1472	1453
1399422569128280813	1523	1471	1472	1454
1399422569143229337	1524	1471	1472	1454
1399422569163262273	1541	1467	1472	1454
1399422569178194026	1542	1466	1472	1454
1399422569203204967	1540	1465	1472	1455
1399422569218230991	1530	1465	1472	1455
1399422569237962991	1530	1464	1472	1455
1399422569258251655	1530	1463	1472	1455
1399422569278200110	1517	1460	1472	1455
1399422569293149860	1516	1462	1472	1456
1399422569313261385	1479	1465	1472	1457
1399422569338110692	1480	1465	1472	1456
1399422569353227709	1481	1465	1472	1457
1399422569368170897	1463	1468	1472	1457
1399422569388132648	1465	1468	1472	1456
1399422569403098015	1465	1467	1472	1456
1399422569418182527	1493	1466	1472	1455
1399422569438235860	1495	1465	1472	1456
1399422569458300535	1506	1466	1472	1455
1399422569468257508	1507	1464	1472	1455
1399422569488310041	1507	1464	1472	1454
1399422569508163645	1540	1460	1472	1454
1399422569523224093	1539	1458	1472	1454
1399422569538217406	1539	1458	1472	1455
1399422569558246707	1539	1458	1472	1454
1399422569568181888	1546	1461	1472	1454
1399422569588158581	1548	1461	1472	1454
1399422569603113676	1549	1461	1472	1454
1399422569618142633	1520	1460	1472	1454
1399422569638306866	1522	1459	1472	1454
1399422569653233988	1523	1460	1472	1454
1399422569673032857	1505	1459	1472	1454
1399422569688199190	1506	1459	1472	1453
1399422569703128157	1506	1461	1472	1452
1399422569723031199	1498	1464	1472	1453
1399422569738202215	1499	1464	1472	1454
1399422569753192766	1500	1465	1473	1455
1399422569773243728	1499	1467	1473	1454
1399422569788242615	1499	1468	1473	1454
1399422569807939586	1521	1462	1473	1452
1399422569838077291	1521	1465	1474	1454
1399422569873134263	1527	1466	1475	1454
1399422569903278565	1528	1468	1475	1454
1399422569918161736	1539	1465	1475	1453
1399422569937906323	1539	1465	1475	1453
1399422569952997865	1539	1467	1476	1454
1399422569967949671	1534	1466	1476	1453
1399422569987997064	1533	1467	1476	1453
1399422570002949227	1533	1469	1476	1453
1399422570017969499	1527	1469	1476	1453
1399422570037955268	1528	1471	1475	1453
1399422570053028597	1528	1470	1475	1453
1399422570067996323	1521	1473	1475	1454
1399422570088182650	1520	1474	1475	1454
1399422570103183632	1521	1474	1474	1451
1399422570118150909	1516	1475	1474	1452
1399422570138118681	1516	1474	1474	1452
1399422570158208159	1520	1473	1473	1452
1399422570168135688	1519	1475	1473	1453
1399422570188210963	1517	1475	1473	1452
1399422570203129289	1518	1477	1472	1452
1399422570218179193	1516	1475	1472	1453
1399422570238242689	1517	1474	1472	1452
1399422570258116096	1530	1475	1472	1453
1399422570273274525	1527	1475	1472	1453
1399422570308207082	1525	1477	1472	1452
1399422570323189111	1525	1479	1472	1452
1399422570338105278	1524	1480	1472	1453
1399422570353220376	1525	1480	1472	1452
1399422570367951807	1526	1485	1472	1452
1399422570387881067	1525	1486	1472	1453
1399422570413236621	1525	1486	1472	1452
1399422570428288594	1525	1486	1472	1453
1399422570443300598	1524	1487	1472	1453
1399422570463215801	1522	1485	1472	1451
1399422570478192315	1520	1485	1472	1453
1399422570503170175	1521	1487	1472	1453
1399422570518204817	1515	1480	1472	1452
1399422570538180646	1514	1482	1472	1452
1399422570558055036	1508	1480	1472	1453
1399422570568164369	1508	1478	1472	1452
1399422570588217207	1507	1480	1472	1452
1399422570603221668	1507	1480	1472	1452
1399422570618261837	1507	1480	1472	1452
1399422570638139083	1512	1482	1472	1451
1399422570658164650	1513	1480	1472	1452
1399422570667893773	1513	1479	1472	1452
1399422570688182996	1512	1478	1472	1452
1399422570708252352	1511	1478	1472	1452
1399422570723181231	1518	1486	1472	1451
1399422570743230785	1517	1485	1472	1451
1399422570757972347	1516	1485	1472	1452
1399422570773154056	1514	1482	1472	1452
1399422570788156948	1514	1482	1472	1452
1399422570813333195	1515	1481	1472	1451
1399422570828174761	1506	1484	1472	1451
1399422570843228956	1505	1483	1472	1451
1399422570868262219	1505	1483	1472	1451
1399422570878086159	1505	1482	1472	1449
1399422570893120930	1506	1484	1472	1451
1399422570918034372	1506	1490	1472	1451
1399422570938224254	1506	1489	1472	1449
1399422570958291912	1511	1489	1472	1450
1399422570978276259	1508	1488	1472	1450
1399422570993080225	1509	1488	1472	1450
1399422571013171200	1510	1487	1472	1450
1399422571027936758	1509	1483	1472	1451
1399422571043211823	1509	1481	1472	1450
1399422571063186223	1511	1481	1472	1450
1399422571088250633	1511	1480	1473	1450
1399422571103294918	1512	1480	1473	1451
1399422571128264836	1513	1477	1473	1451
1399422571142997584	1512	1476	1473	1450
1399422571163253517	1509	1470	1473	1450
1399422571178250678	1509	1470	1473	1451
1399422571193171973	1508	1469	1473	1451
1399422571218300160	1504	1472	1473	1451
1399422571238304956	1502	1472	1473	1451
1399422571258346111	1502	1475	1473	1451
1399422571268258656	1501	1476	1473	1452
1399422571293234629	1501	1474	1473	1452
1399422571323226357	1499	1482	1473	1453
1399422571358291320	1493	1487	1473	1453
1399422571383279620	1493	1487	1473	1453
1399422571393191454	1490	1488	1473	1454
1399422571413266358	1490	1487	1472	1453
1399422571428192483	1492	1490	1472	1454
1399422571443216062	1492	1491	1472	1454
1399422571463236146	1490	1486	1472	1453
1399422571478227798	1488	1486	1472	1452
1399422571503272403	1489	1488	1472	1454
1399422571523259582	1492	1481	1472	1453
1399422571538167214	1492	1481	1472	1452
1399422571563152888	1498	1475	1472	1454
1399422571578272370	1499	1478	1472	1454
1399422571593254694	1498	1477	1472	1453
1399422571617934775	1507	1475	1472	1454
1399422571628083738	1506	1477	1472	1454
1399422571643100844	1505	1476	1472	1453
1399422571663215356	1500	1481	1472	1455
1399422571678205925	1500	1481	1472	1455
1399422571693229045	1500	1482	1472	1456
1399422571713263064	1495	1479	1472	1457
1399422571738247689	1496	1480	1472	1456
1399422571758229610	1482	1478	1472	1457
1399422571773302951	1482	1478	1472	1457
1399422571808350678	1480	1479	1472	1457
1399422571853349580	1478	1480	1472	1458
1399422571868164058	1482	1487	1472	1458
1399422571888213812	1482	1488	1472	1458
1399422571908233282	1492	1495	1472	1458
1399422571923161239	1491	1497	1472	1459
1399422571938209751	1491	1497	1472	1459
1399422571958170494	1492	1498	1472	1459
1399422571972955342	1500	1496	1472	1460
1399422571988167855	1498	1495	1472	1460
1399422572008254314	1498	1495	1472	1461
1399422572038217301	1497	1497	1472	1460
1399422572073179689	1486	1490	1472	1461
1399422572108302243	1479	1491	1472	1461
1399422572123173847	1480	1491	1472	1462
1399422572138126218	1481	1491	1472	1461
1399422572153160960	1479	1493	1472	1463
1399422572168139857	1483	1486	1472	1463
1399422572188111255	1484	1485	1472	1462
1399422572203234835	1482	1487	1472	1464
1399422572218121780	1481	1484	1472	1464
1399422572238295228	1481	1484	1472	1464
1399422572253215383	1481	1482	1472	1464
1399422572273173052	1481	1481	1472	1463
1399422572288168757	1482	1479	1472	1463
1399422572323239135	1487	1483	1472	1464
1399422572342970584	1486	1482	1472	1464
1399422572362955636	1489	1477	1472	1464
1399422572382977320	1488	1477	1472	1464
1399422572392925097	1489	1476	1472	1464
1399422572412934600	1488	1486	1472	1465
1399422572427970784	1487	1484	1472	1465
1399422572442998256	1487	1484	1472	1465
1399422572462936102	1487	1486	1472	1464
1399422572477998456	1488	1486	1472	1464
1399422572493171681	1488	1485	1472	1464
1399422572513237803	1488	1492	1472	1465
1399422572528343086	1490	1492	1472	1465
1399422572543236788	1491	1490	1472	1465
1399422572562955435	1494	1492	1472	1465
1399422572578161781	1494	1491	1472	1465
1399422572593165872	1495	1490	1472	1464
1399422572613076859	1497	1491	1472	1464
1399422572628182846	1498	1491	1472	1464
1399422572643223108	1498	1492	1472	1464
1399422572663006383	1497	1491	1472	1465
1399422572678251996	1498	1489	1472	1465
1399422572703238314	1499	1489	1472	1465
1399422572723131196	1494	1483	1472	1465
1399422572738201190	1494	1483	1472	1466
1399422572773282624	1486	1479	1472	1466
1399422572808119789	1480	1473	1472	1466
1399422572827974146	1481	1472	1472	1465
1399422572853208584	1481	1472	1472	1466
1399422572868144237	1482	1478	1472	1465
1399422572888159903	1482	1476	1472	1465
1399422572903198304	1482	1476	1472	1465
1399422572928154809	1492	1480	1472	1465
1399422572948216067	1492	1480	1472	1465
1399422572963215255	1497	1477	1472	1465
1399422572978209336	1497	1475	1472	1464
1399422572993155461	1497	1476	1472	1465
1399422573013278235	1504	1472	1472	1465
1399422573028172392	1505	1473	1472	1464
1399422573043154245	1506	1472	1472	1464
1399422573063278184	1508	1467	1472	1464
1399422573077948385	1509	1467	1472	1464
1399422573093194951	1510	1467	1472	1464
1399422573112997870	1511	1468	1472	1463
1399422573128138238	1513	1468	1472	1463
1399422573143049748	1516	1468	1472	1464
1399422573168190798	1507	1463	1472	1463
1399422573188196532	1510	1463	1472	1462
1399422573208234651	1510	1462	1472	1463
1399422573218228450	1509	1462	1472	1463
1399422573258282139	1506	1464	1472	1463
1399422573288285628	1506	1464	1472	1463
1399422573323134769	1500	1467	1472	1462
1399422573343230259	1499	1466	1472	1462
1399422573368270738	1494	1466	1472	1462
1399422573398255713	1493	1466	1472	1461
1399422573413083076	1490	1467	1472	1461
1399422573428178486	1491	1467	1472	1462
1399422573458248976	1487	1465	1472	1461
1399422573488230500	1487	1465	1472	1461
1399422573523224682	1491	1465	1472	1460
1399422573553247349	1491	1466	1472	1459
1399422573573333937	1504	1469	1472	1459
1399422573588210370	1504	1469	1472	1460
1399422573603170013	1504	1467	1472	1459
1399422573618227393	1514	1467	1472	1458
1399422573638198755	1516	1467	1472	1457
1399422573658216319	1529	1468	1472	1458
1399422573673177936	1529	1469	1472	1457
1399422573688245797	1530	1469	1472	1458
1399422573713316678	1533	1471	1472	1456
1399422573738326156	1536	1471	1472	1457
1399422573773252444	1539	1470	1472	1457
1399422573788010854	1539	1469	1472	1456
1399422573803230099	1541	1471	1472	1458
1399422573818207469	1534	1469	1472	1457
1399422573838133834	1535	1471	1472	1459
1399422573853249773	1535	1470	1472	1459
1399422573868200764	1525	1467	1472	1459
1399422573888158614	1526	1467	1472	1458
1399422573913246449	1516	1466	1472	1458
1399422573927955376	1517	1465	1472	1458
1399422573943153179	1517	1465	1472	1458
1399422573963026096	1508	1463	1472	1457
1399422573977927808	1508	1465	1472	1458
1399422573993080007	1509	1465	1472	1459
1399422574023264255	1493	1456	1472	1458
1399422574038139211	1492	1457	1472	1458
1399422574053144426	1493	1456	1472	1458
1399422574073069307	1493	1457	1472	1459
1399422574088244160	1491	1456	1472	1457
1399422574103040945	1490	1458	1472	1458
1399422574118157756	1501	1463	1472	1457
1399422574148310032	1501	1463	1472	1457
1399422574163219116	1504	1466	1472	1457
1399422574178205108	1503	1467	1472	1457
1399422574202974542	1504	1468	1472	1457
1399422574228163277	1517	1477	1472	1455
1399422574243288850	1516	1478	1472	1456
1399422574273250288	1529	1481	1472	1456
1399422574308200373	1542	1487	1472	1455
1399422574333218542	1542	1488	1472	1455
1399422574343246219	1542	1488	1472	1455
1399422574363237857	1546	1489	1472	1455
1399422574388222084	1546	1490	1472	1455
1399422574408135085	1549	1491	1472	1455
1399422574423207519	1541	1481	1472	1456
1399422574458289769	1537	1475	1472	1455
1399422574488163139	1538	1477	1472	1456
1399422574518244327	1528	1470	1472	1456
1399422574538167193	1528	1471	1472	1457
1399422574553192504	1527	1468	1472	1455
1399422574578183688	1513	1460	1472	1456
1399422574593222489	1512	1458	1472	1457
1399422574613205062	1502	1458	1472	1456
1399422574628246157	1502	1457	1472	1455
1399422574643167612	1501	1457	1472	1455
1399422574663207063	1507	1471	1472	1455
1399422574688213862	1507	1471	1472	1456
1399422574713206141	1508	1470	1472	1456
1399422574737976704	1507	1473	1472	1456
1399422574752879949	1508	1472	1472	1455
1399422574773155583	1514	1479	1472	1455
1399422574787885333	1513	1480	1472	1455
1399422574812998128	1518	1486	1472	1455
1399422574827912260	1516	1486	1472	1454
1399422574847970246	1515	1486	1472	1454
1399422574862909084	1532	1493	1472	1454
1399422574877983881	1533	1494	1472	1454
1399422574893206079	1532	1495	1472	1454
1399422574913302271	1534	1489	1472	1453
1399422574928098865	1534	1491	1472	1454
1399422574948167905	1534	1491	1472	1454
1399422574963060484	1535	1487	1472	1454
1399422574978217911	1534	1486	1472	1453
1399422575003256886	1533	1487	1472	1454
1399422575018217129	1531	1487	1472	1453
1399422575038165494	1530	1486	1472	1454
1399422575057981233	1523	1482	1472	1453
1399422575072948286	1522	1481	1472	1452
1399422575087925219	1522	1482	1472	1452
1399422575107979752	1513	1474	1472	1453
1399422575122983655	1512	1475	1472	1453
1399422575143012346	1511	1473	1472	1453
1399422575162912690	1501	1463	1472	1452
1399422575177975560	1501	1463	1472	1453
1399422575202946635	1500	1462	1472	1453
1399422575218170959	1500	1462	1472	1453
1399422575238323467	1500	1460	1472	1453
1399422575253192637	1499	1461	1472	1454
1399422575268164109	1502	1461	1472	1453
1399422575288141841	1501	1461	1472	1454
1399422575308093319	1505	1463	1472	1455
1399422575323173539	1504	1461	1472	1455
1399422575338259962	1504	1461	1472	1455
1399422575358217201	1511	1463	1472	1455
1399422575373241559	1510	1462	1472	1455
1399422575388217853	1510	1462	1472	1455
1399422575408267022	1521	1472	1472	1456
1399422575438239596	1520	1472	1472	1456
1399422575463165030	1520	1470	1472	1457
1399422575478068016	1529	1486	1472	1457
1399422575493222549	1529	1487	1472	1458
1399422575513272808	1527	1491	1472	1458
1399422575528087457	1527	1492	1472	1459
1399422575548376747	1527	1492	1472	1460
1399422575563136837	1529	1491	1472	1460
1399422575578188801	1527	1494	1472	1460
1399422575593154491	1525	1494	1472	1460
1399422575613135072	1516	1495	1472	1459
1399422575638234223	1517	1496	1472	1460
1399422575673286004	1512	1494	1472	1460
1399422575708214591	1506	1489	1472	1460
1399422575728225905	1506	1489	1472	1460
1399422575743171292	1506	1490	1472	1460
1399422575763227224	1506	1490	1472	1461
1399422575783007025	1504	1477	1472	1461
1399422575793193196	1505	1475	1472	1460
1399422575813265074	1510	1466	1472	1459
1399422575827952179	1509	1467	1472	1459
1399422575852997452	1511	1465	1472	1460
1399422575867941810	1513	1461	1472	1460
1399422575892923682	1512	1461	1472	1460
1399422575922958240	1510	1457	1472	1460
1399422575958030122	1510	1459	1472	1461
1399422575973071872	1505	1462	1472	1461
1399422576018200926	1507	1469	1472	1462
1399422576028094536	1508	1470	1472	1463
1399422576043224255	1509	1470	1472	1462
1399422576063134812	1510	1484	1472	1462
1399422576078149101	1512	1485	1472	1462
1399422576093223216	1513	1485	1472	1463
1399422576113222302	1515	1491	1472	1463
1399422576128148366	1515	1491	1472	1463
1399422576158211432	1515	1493	1472	1463
1399422576173258801	1514	1501	1472	1463
1399422576188039413	1514	1501	1472	1463
1399422576213188416	1516	1503	1472	1463
1399422576228134646	1515	1503	1472	1463
1399422576243235307	1514	1503	1472	1463
1399422576263207493	1519	1494	1472	1461
1399422576278160265	1519	1495	1472	1461
1399422576293177874	1518	1496	1472	1461
1399422576313264556	1514	1491	1472	1461
1399422576328166661	1514	1492	1472	1461
1399422576343162127	1513	1493	1472	1461
1399422576363255521	1514	1493	1472	1461
1399422576378257931	1508	1480	1472	1461
1399422576403273686	1507	1483	1472	1461
1399422576428212288	1507	1479	1472	1460
1399422576443187704	1508	1480	1472	1460
1399422576463151123	1503	1473	1472	1460
1399422576488231427	1501	1472	1472	1460
1399422576507954603	1500	1472	1472	1459
1399422576522953883	1504	1470	1472	1460
1399422576537949366	1505	1469	1472	1460
1399422576558013190	1508	1470	1472	1460
1399422576572959072	1507	1471	1472	1460
1399422576587970640	1506	1471	1472	1459
1399422576607962187	1508	1468	1472	1459
1399422576627916204	1508	1467	1472	1459
1399422576653182939	1510	1468	1472	1460
1399422576668156244	1521	1476	1472	1459
1399422576688180065	1519	1476	1472	1459
1399422576703231974	1518	1476	1472	1459
1399422576718176050	1524	1480	1472	1459
1399422576738196492	1524	1479	1472	1459
1399422576758183937	1525	1480	1472	1459
1399422576773111291	1521	1484	1472	1459
1399422576788036475	1520	1484	1472	1459
1399422576808202483	1514	1483	1472	1459
1399422576828222904	1513	1481	1472	1459
1399422576843100360	1514	1481	1472	1459
1399422576863053911	1511	1475	1472	1460
1399422576888095221	1511	1474	1472	1459
1399422576903141098	1511	1473	1472	1460
1399422576918205817	1510	1471	1472	1460
1399422576938200837	1510	1470	1472	1460
1399422576953168017	1509	1469	1472	1459
1399422576968002008	1508	1466	1472	1459
1399422576987946600	1508	1466	1472	1460
1399422577002965765	1508	1465	1472	1459
1399422577022940798	1500	1461	1472	1459
1399422577037945699	1499	1461	1472	1460
1399422577057925520	1499	1459	1472	1460
1399422577072951844	1494	1460	1472	1460
1399422577087915999	1494	1458	1472	1460
1399422577107969759	1492	1458	1472	1460
1399422577117913375	1490	1456	1472	1460
1399422577143154281	1490	1456	1472	1460
1399422577173210347	1492	1455	1472	1461
1399422577188191696	1491	1452	1472	1460
1399422577208203929	1491	1453	1472	1461
1399422577223065312	1501	1456	1472	1461
1399422577238320686	1499	1456	1472	1461
1399422577253253681	1499	1456	1472	1461
1399422577273205896	1509	1466	1472	1462
1399422577288169820	1509	1463	1472	1461
1399422577308127065	1507	1464	1472	1461
1399422577323096926	1513	1470	1472	1461
1399422577338118654	1515	1468	1472	1461
1399422577363078731	1518	1473	1472	1461
1399422577378138851	1519	1474	1472	1462
1399422577407978993	1521	1472	1472	1461
1399422577423136073	1527	1473	1472	1461
1399422577438231760	1530	1473	1472	1461
1399422577453212053	1530	1473	1472	1461
1399422577468219634	1535	1474	1472	1461
1399422577488140390	1535	1473	1472	1460
1399422577503188323	1536	1473	1472	1460
1399422577518199702	1538	1475	1472	1459
1399422577538209129	1540	1477	1472	1458
1399422577553179046	1539	1477	1472	1459
1399422577573234763	1536	1476	1472	1458
1399422577588192331	1536	1477	1472	1459
1399422577608113738	1526	1472	1472	1459
1399422577618198874	1528	1472	1472	1458
1399422577642961234	1527	1473	1472	1458
1399422577662951936	1516	1467	1472	1458
1399422577687949723	1515	1468	1472	1458
1399422577702913250	1515	1465	1472	1456
1399422577717920585	1505	1462	1472	1456
1399422577737934736	1504	1462	1472	1457
1399422577752994761	1505	1462	1472	1457
1399422577773065542	1499	1459	1472	1457
1399422577787958833	1500	1458	1472	1456
1399422577813003348	1500	1457	1472	1455
1399422577827982945	1499	1458	1472	1455
1399422577847932446	1500	1458	1472	1455
1399422577862958898	1498	1462	1472	1455
1399422577877947643	1497	1463	1472	1455
1399422577893005190	1497	1461	1472	1455
1399422577912926135	1497	1463	1472	1454
1399422577927944201	1496	1463	1472	1454
1399422577943228678	1496	1464	1472	1453
1399422577963284533	1493	1454	1472	1453
1399422577978184133	1494	1455	1472	1454
1399422577993211145	1493	1456	1472	1454
1399422578013236121	1496	1456	1472	1454
1399422578028173916	1495	1457	1472	1453
1399422578048191548	1494	1456	1472	1453
1399422578063280728	1509	1461	1472	1453
1399422578088196496	1509	1463	1472	1454
1399422578103114494	1509	1463	1472	1453
1399422578123276347	1511	1465	1472	1453
1399422578138146430	1511	1466	1472	1454
1399422578163178303	1518	1469	1472	1454
1399422578193246258	1517	1472	1472	1454
1399422578213132766	1518	1473	1472	1454
1399422578228193089	1517	1473	1472	1454
1399422578243348919	1516	1474	1472	1454
1399422578263131673	1513	1479	1472	1453
1399422578278115611	1513	1479	1472	1454
1399422578293137698	1512	1480	1472	1453
1399422578313148264	1509	1481	1472	1454
1399422578328224277	1510	1482	1472	1454
1399422578358260133	1504	1476	1472	1454
1399422578388192691	1503	1478	1472	1454
1399422578418198966	1503	1473	1472	1455
1399422578428223278	1502	1474	1472	1455
1399422578443024349	1502	1474	1472	1455
1399422578468112320	1498	1469	1472	1455
1399422578488204391	1498	1469	1472	1454
1399422578503145589	1498	1471	1472	1455
1399422578518211482	1496	1466	1472	1455
1399422578538261066	1496	1467	1472	1457
1399422578553336398	1494	1467	1472	1456
1399422578568194751	1497	1466	1472	1456
1399422578588167882	1497	1467	1472	1456
1399422578608224706	1493	1460	1472	1455
1399422578638197679	1493	1462	1472	1456
1399422578663175007	1494	1463	1472	1456
1399422578688204976	1493	1464	1472	1455
1399422578703200890	1494	1464	1472	1455
1399422578718148263	1504	1472	1472	1456
1399422578738197970	1503	1473	1472	1456
1399422578758206518	1504	1473	1472	1456
1399422578778240484	1513	1476	1472	1455
1399422578798246529	1512	1478	1472	1455
1399422578813222405	1527	1485	1472	1456
1399422578828239858	1528	1485	1472	1454
1399422578853261013	1527	1486	1472	1455
1399422578868238719	1531	1486	1472	1454
1399422578888222151	1532	1488	1472	1455
1399422578903112557	1534	1488	1472	1455
1399422578918109157	1534	1497	1472	1455
1399422578938108060	1536	1497	1472	1456
1399422578953270118	1537	1496	1472	1454
1399422578968161534	1531	1497	1472	1455
1399422578988397495	1532	1496	1472	1454
1399422579003235469	1533	1497	1472	1455
1399422579018146320	1528	1495	1472	1454
1399422579038185400	1526	1496	1472	1454
1399422579063039109	1530	1497	1472	1454
1399422579078119837	1522	1485	1472	1454
1399422579093285720	1523	1485	1472	1455
1399422579113167131	1518	1480	1472	1454
1399422579128062425	1517	1480	1472	1453
1399422579143216794	1517	1482	1472	1454
1399422579168334425	1498	1475	1472	1454
1399422579178311420	1499	1476	1472	1454
1399422579193307520	1500	1475	1472	1454
1399422579213213736	1493	1475	1472	1455
1399422579228013215	1494	1478	1472	1455
1399422579248326159	1492	1476	1472	1454
1399422579263166608	1490	1481	1472	1455
1399422579278233773	1491	1480	1472	1454
1399422579293210118	1489	1480	1472	1454
1399422579323216557	1488	1483	1472	1454
1399422579343272914	1488	1484	1472	1455
1399422579363186751	1503	1494	1472	1455
1399422579378152878	1504	1493	1472	1456
1399422579403189758	1504	1494	1472	1456
1399422579418199608	1523	1498	1472	1456
1399422579437971005	1524	1498	1472	1457
1399422579458143048	1523	1497	1472	1457
1399422579468159606	1540	1494	1472	1457
1399422579488069378	1542	1495	1472	1456
1399422579503104190	1543	1494	1472	1456
1399422579518128361	1549	1493	1472	1456
1399422579538138653	1548	1494	1472	1457
1399422579553016785	1548	1493	1472	1458
1399422579568218275	1553	1490	1472	1459
1399422579588269169	1553	1487	1472	1458
1399422579603243533	1553	1488	1472	1458
1399422579618139348	1547	1489	1472	1458
1399422579638188231	1547	1488	1472	1459
1399422579653139317	1549	1488	1472	1459
1399422579673179498	1515	1500	1472	1460
1399422579688200140	1514	1499	1473	1460
1399422579703136016	1514	1499	1473	1459
1399422579718210930	1502	1502	1473	1460
1399422579738018631	1503	1502	1473	1461
1399422579758219420	1501	1501	1473	1462
1399422579773182730	1493	1500	1473	1462
1399422579788190612	1492	1500	1473	1462
1399422579813264937	1495	1494	1473	1462
1399422579838167310	1494	1494	1473	1462
1399422579873216277	1498	1494	1473	1462
1399422579888234606	1498	1494	1472	1463
1399422579903171674	1497	1494	1472	1463
1399422579923223905	1516	1493	1472	1463
1399422579938208603	1515	1492	1472	1462
1399422579953209142	1514	1493	1472	1461
1399422579973197932	1536	1490	1472	1463
1399422579988261443	1535	1490	1472	1463
1399422580007988012	1542	1487	1472	1464
1399422580023214819	1540	1486	1472	1464
1399422580043243387	1539	1488	1472	1463
1399422580062940921	1538	1483	1472	1464
1399422580078315733	1538	1482	1472	1463
1399422580093159556	1538	1481	1472	1462
1399422580123240401	1499	1487	1472	1462
1399422580138105078	1499	1485	1472	1463
1399422580158374856	1500	1484	1472	1462
1399422580168020039	1495	1488	1472	1460
1399422580188244832	1495	1488	1472	1460
1399422580208208354	1495	1491	1472	1461
1399422580223223833	1494	1489	1472	1461
1399422580238310619	1493	1489	1472	1461
1399422580258188373	1499	1483	1472	1461
1399422580278173525	1497	1484	1472	1461
1399422580308197072	1502	1482	1472	1460
1399422580323268348	1502	1481	1472	1459
1399422580338256205	1503	1480	1472	1460
1399422580353298766	1503	1479	1472	1460
1399422580373183165	1516	1477	1472	1459
1399422580388167730	1516	1475	1472	1459
1399422580403123430	1516	1475	1472	1459
1399422580428205533	1527	1474	1472	1459
1399422580443224217	1528	1472	1472	1459
1399422580463241541	1530	1471	1472	1459
1399422580488228277	1530	1471	1472	1459
1399422580503221420	1530	1470	1472	1459
1399422580518209043	1530	1468	1472	1458
1399422580538185053	1512	1472	1472	1458
1399422580553246977	1511	1470	1472	1457
1399422580568333764	1508	1469	1472	1457
1399422580588192787	1510	1470	1472	1458
1399422580623180475	1497	1473	1472	1457
1399422580653260591	1497	1472	1472	1457
1399422580668261134	1497	1474	1472	1457
1399422580688211983	1498	1473	1472	1456
1399422580703284054	1498	1473	1472	1457
1399422580723295472	1506	1476	1472	1457
1399422580738157537	1506	1475	1472	1457
1399422580758272359	1507	1476	1472	1457
1399422580773242549	1506	1475	1472	1457
1399422580793243130	1507	1476	1472	1457
1399422580823215556	1511	1475	1472	1457
1399422580838196205	1511	1474	1472	1457
1399422580863229413	1514	1468	1472	1457
1399422580888229055	1514	1468	1472	1458
1399422580903171656	1514	1468	1472	1458
1399422580918224166	1513	1466	1472	1457
1399422580938202633	1508	1459	1472	1457
1399422580953201377	1510	1457	1472	1457
1399422580968314350	1506	1456	1472	1457
1399422580988205499	1504	1455	1472	1458
1399422581003220224	1505	1455	1472	1458
1399422581018177127	1502	1452	1472	1459
1399422581043254301	1504	1451	1472	1458
1399422581063224473	1500	1450	1472	1459
1399422581078268123	1499	1449	1472	1458
1399422581093214656	1499	1449	1472	1458
1399422581118211137	1495	1449	1472	1458
1399422581137855250	1495	1449	1472	1458
1399422581152981630	1495	1450	1472	1459
1399422581173129974	1499	1455	1472	1458
1399422581188121576	1498	1455	1472	1458
1399422581203296646	1498	1455	1472	1457
1399422581228146322	1502	1458	1472	1457
1399422581243190828	1501	1455	1472	1457
1399422581263244407	1507	1466	1472	1456
1399422581288213860	1506	1466	1472	1457
1399422581308337115	1508	1466	1472	1456
1399422581318177854	1508	1467	1472	1456
1399422581338058838	1514	1472	1472	1456
1399422581363190735	1520	1477	1472	1456
1399422581378172578	1521	1476	1472	1455
1399422581393217266	1521	1476	1472	1455
1399422581413243428	1527	1478	1472	1454
1399422581427958096	1528	1477	1472	1453
1399422581443174787	1529	1477	1472	1453
1399422581468166896	1529	1469	1472	1454
1399422581488094550	1530	1468	1472	1453
1399422581503235731	1532	1468	1472	1453
1399422581517996217	1524	1458	1472	1452
1399422581538048062	1523	1460	1472	1452
1399422581553265720	1523	1459	1472	1452
1399422581568195286	1517	1458	1472	1452
1399422581588113667	1515	1458	1472	1451
1399422581603190021	1515	1459	1472	1452
1399422581623169426	1501	1451	1472	1451
1399422581638323723	1501	1453	1472	1451
1399422581658399063	1494	1450	1472	1452
1399422581673160560	1494	1452	1472	1452
1399422581688121512	1494	1450	1472	1453
1399422581708199935	1494	1450	1472	1452
1399422581723220124	1482	1459	1472	1452
1399422581738212301	1482	1460	1472	1451
1399422581763128765	1483	1462	1472	1452
1399422581778138260	1484	1462	1472	1452
1399422581793137633	1483	1462	1472	1451
1399422581813288544	1490	1471	1472	1451
1399422581828217048	1490	1472	1472	1452
1399422581843224386	1490	1472	1472	1452
1399422581863217208	1501	1477	1472	1452
1399422581878195981	1502	1477	1472	1451
1399422581893192180	1501	1479	1472	1451
1399422581913341226	1514	1480	1472	1451
1399422581928296352	1515	1480	1472	1452
1399422581943060497	1516	1480	1472	1452
1399422581968123738	1521	1483	1472	1451
1399422581988193047	1522	1483	1472	1452
1399422582023241139	1534	1476	1472	1452
1399422582043216197	1535	1478	1472	1452
1399422582063248112	1539	1473	1472	1452
1399422582078205355	1542	1474	1472	1453
1399422582093237141	1542	1474	1472	1453
1399422582118217532	1531	1458	1472	1452
1399422582128253063	1531	1458	1472	1452
1399422582143248220	1531	1457	1472	1452
1399422582163215598	1526	1457	1472	1452
1399422582178241173	1526	1458	1472	1452
1399422582193164177	1528	1460	1472	1453
1399422582213230973	1520	1457	1472	1453
1399422582238397958	1518	1456	1472	1454
1399422582258306586	1519	1458	1472	1452
1399422582278455709	1510	1459	1472	1453
1399422582292994273	1510	1459	1472	1453
1399422582313245662	1497	1472	1472	1454
1399422582328218298	1499	1472	1472	1453
1399422582353327402	1498	1472	1472	1454
1399422582368051991	1497	1483	1472	1453
1399422582388183184	1496	1486	1472	1454
1399422582408222331	1495	1489	1472	1455
1399422582423209166	1496	1490	1472	1456
1399422582438270762	1495	1491	1472	1456
1399422582458229896	1494	1492	1472	1457
1399422582473237785	1499	1493	1472	1456
1399422582488229011	1499	1495	1472	1456
1399422582523234509	1506	1494	1472	1456
1399422582538200789	1507	1495	1472	1457
1399422582553255975	1507	1496	1472	1457
1399422582568202433	1522	1490	1472	1458
1399422582588199908	1522	1490	1472	1457
1399422582608226263	1539	1474	1472	1458
1399422582618102727	1540	1475	1472	1458
1399422582638183499	1541	1475	1472	1457
1399422582658230637	1545	1475	1472	1457
1399422582673265911	1545	1475	1472	1458
1399422582688154579	1545	1472	1472	1458
1399422582708325010	1549	1474	1473	1459
1399422582718104968	1547	1471	1473	1457
1399422582738180869	1548	1471	1473	1457
1399422582753209845	1553	1473	1473	1458
1399422582768222666	1542	1458	1473	1457
1399422582788228511	1542	1457	1474	1457
1399422582803173158	1543	1458	1474	1458
1399422582818270247	1535	1458	1474	1458
1399422582838233543	1535	1457	1474	1458
1399422582853301427	1536	1456	1474	1458
1399422582878318415	1521	1467	1475	1457
1399422582893332210	1520	1468	1475	1458
1399422582913052429	1513	1470	1475	1458
1399422582927942492	1512	1469	1475	1458
1399422582952901200	1510	1468	1476	1458
1399422582988027706	1494	1486	1476	1458
1399422583007953593	1493	1486	1476	1459
1399422583017921198	1485	1491	1476	1459
1399422583037931843	1485	1491	1476	1459
1399422583062951482	1485	1496	1476	1460
1399422583078188164	1485	1497	1476	1461
1399422583098231838	1483	1496	1476	1460
1399422583113213338	1492	1501	1476	1461
1399422583128254193	1492	1501	1476	1461
1399422583143207934	1490	1502	1476	1461
1399422583163207727	1494	1500	1476	1462
1399422583178261813	1494	1501	1476	1463
1399422583208252133	1495	1497	1476	1462
1399422583228195120	1495	1498	1476	1463
1399422583258277542	1494	1498	1475	1463
1399422583288159484	1523	1490	1475	1464
1399422583313138393	1539	1482	1475	1464
1399422583333183837	1539	1484	1475	1465
1399422583343045332	1541	1482	1475	1465
1399422583363278485	1539	1484	1475	1465
1399422583377926725	1540	1483	1475	1465
1399422583393177844	1538	1483	1475	1465
1399422583418198363	1538	1483	1475	1466
1399422583438168651	1537	1482	1474	1466
1399422583453243729	1536	1483	1474	1466
1399422583467951980	1518	1483	1474	1466
1399422583488248576	1518	1482	1474	1465
1399422583502989693	1516	1482	1473	1465
1399422583518072187	1490	1492	1473	1465
1399422583537948251	1491	1493	1473	1465
1399422583553155685	1490	1492	1472	1465
1399422583573214527	1479	1494	1472	1466
1399422583588038256	1476	1493	1472	1465
1399422583603195877	1476	1494	1472	1464
1399422583618088371	1467	1498	1472	1464
1399422583638136328	1465	1497	1472	1463
1399422583653271876	1464	1498	1472	1462
1399422583668181278	1467	1496	1472	1463
1399422583687983124	1467	1495	1472	1463
1399422583708209739	1466	1497	1472	1464
1399422583718258860	1478	1492	1472	1463
1399422583738231937	1477	1493	1472	1464
1399422583753179600	1480	1491	1472	1462
1399422583787976442	1493	1490	1472	1461
1399422583818253388	1515	1484	1472	1462
1399422583828146444	1513	1483	1472	1460
1399422583843210042	1513	1484	1472	1460
1399422583863172392	1521	1484	1472	1460
1399422583878320048	1520	1484	1472	1460
1399422583893255690	1521	1483	1472	1461
1399422583913165444	1522	1482	1472	1460
1399422583928174064	1538	1479	1472	1460
1399422583953196695	1539	1477	1472	1459
1399422583968214602	1533	1477	1472	1460
