#Time	 Roll 	 Pitch 	 Yaw 	 Thrust
1399407576754439546	1520	1516	1926	1105
1399407576854736814	1520	1516	1926	1105
1399407576954983116	1520	1516	1926	1105
1399407577055298338	1520	1516	1926	1105
1399407577155518935	1520	1516	1926	1105
1399407577255772957	1520	1516	1926	1105
1399407577356014733	1520	1516	1926	1105
1399407577456246085	1520	1516	1513	1105
1399407583414799744	1506	1509	1514	1378
1399407583419804442	1506	1509	1514	1378
1399407583429833505	1506	1509	1514	1378
1399407583449890377	1506	1509	1514	1378
1399407583464818387	1506	1510	1514	1378
1399407583474797146	1506	1510	1514	1378
1399407583479772368	1507	1509	1514	1378
1399407583489801852	1506	1510	1514	1378
1399407583509822057	1507	1509	1514	1378
1399407583514746392	1506	1509	1514	1378
1399407583529881514	1507	1509	1514	1378
1399407583554939397	1507	1509	1514	1378
1399407583564800308	1506	1509	1514	1378
1399407583579767588	1506	1510	1514	1378
1399407583589805855	1506	1509	1514	1378
1399407583599805211	1506	1509	1514	1378
1399407583604798510	1507	1510	1514	1378
1399407583614827753	1506	1509	1514	1378
1399407583634870824	1506	1509	1514	1378
1399407583639808112	1506	1509	1514	1378
1399407583664828403	1507	1509	1514	1378
1399407583679790309	1507	1509	1514	1378
1399407583699832356	1506	1509	1514	1378
1399407583709812351	1505	1508	1514	1378
1399407583714834158	1506	1510	1514	1378
1399407583719759846	1506	1509	1514	1378
1399407583729811539	1507	1510	1514	1378
1399407583749890162	1506	1509	1514	1378
1399407583759845577	1506	1509	1514	1378
1399407583764809690	1505	1509	1514	1378
1399407583769758023	1506	1509	1514	1378
1399407583779796738	1505	1510	1514	1378
1399407583789781251	1505	1508	1514	1378
1399407583794807882	1505	1509	1514	1378
1399407583814797310	1505	1510	1514	1378
1399407583819833819	1505	1509	1514	1377
1399407583829760169	1506	1509	1514	1378
1399407583839807116	1506	1509	1514	1377
1399407583849782754	1505	1510	1514	1378
1399407583854808618	1506	1509	1514	1377
1399407583864826421	1507	1509	1514	1378
1399407583869755106	1506	1509	1514	1378
1399407583879807410	1507	1510	1514	1378
1399407583889844466	1506	1509	1514	1377
1399407583899838498	1507	1509	1514	1378
1399407583914867480	1506	1509	1514	1434
1399407583919817001	1506	1509	1514	1426
1399407583944870074	1506	1510	1514	1426
1399407583949819162	1506	1510	1514	1426
1399407583954945167	1507	1509	1514	1427
1399407583965102516	1505	1510	1514	1426
1399407583975086697	1507	1509	1514	1426
1399407583980034996	1505	1510	1514	1426
1399407583989914893	1506	1510	1514	1427
1399407584000011571	1504	1510	1514	1427
1399407584004926001	1506	1510	1514	1426
1399407584015103469	1503	1510	1514	1427
1399407584020003750	1505	1510	1514	1427
1399407584035025897	1504	1510	1514	1427
1399407584039855801	1505	1509	1514	1428
1399407584049996529	1504	1510	1514	1427
1399407584055034274	1506	1510	1514	1428
1399407584064890596	1504	1510	1514	1427
1399407584070001382	1506	1509	1514	1428
1399407584085086297	1504	1511	1514	1427
1399407584100140976	1504	1510	1514	1427
1399407584115183514	1504	1509	1514	1427
1399407584120076401	1504	1508	1514	1427
1399407584135267493	1505	1509	1514	1427
1399407584150054147	1504	1508	1514	1427
1399407584165096618	1503	1507	1514	1426
1399407584180057394	1503	1505	1514	1426
1399407584190051115	1502	1505	1514	1426
1399407584195057723	1502	1502	1514	1425
1399407584204977148	1501	1505	1514	1426
1399407584215051282	1497	1498	1514	1424
1399407584224913042	1498	1500	1514	1426
1399407584229958888	1496	1499	1514	1424
1399407584239823578	1498	1498	1514	1426
1399407584250021776	1498	1500	1514	1424
1399407584255064934	1499	1499	1514	1425
1399407584265092579	1498	1493	1514	1424
1399407584270052749	1496	1493	1514	1423
1399407584280058846	1497	1494	1514	1423
1399407584290014172	1495	1493	1514	1421
1399407584305039557	1496	1493	1514	1423
1399407584315064050	1499	1491	1514	1423
1399407584330180352	1497	1490	1514	1421
1399407584350068530	1494	1490	1514	1420
1399407584365107401	1500	1492	1514	1420
1399407584380079397	1499	1492	1514	1420
1399407584400115908	1497	1492	1514	1419
1399407584405084120	1497	1491	1514	1417
1399407584415068482	1493	1491	1514	1418
1399407584430076328	1490	1492	1514	1417
1399407584445069031	1488	1491	1514	1415
1399407584449968699	1490	1491	1514	1416
1399407584454852338	1489	1490	1514	1415
1399407584465052616	1492	1496	1514	1416
1399407584469969764	1494	1498	1514	1416
1399407584480039632	1492	1498	1514	1415
1399407584500027768	1493	1497	1514	1414
1399407584505029585	1493	1497	1514	1414
1399407584515101597	1487	1496	1514	1413
1399407584520028745	1488	1496	1514	1412
1399407584530096824	1488	1495	1514	1413
1399407584540056391	1487	1496	1514	1413
1399407584545100954	1487	1496	1514	1412
1399407584565098454	1490	1496	1514	1412
1399407584570093591	1489	1495	1514	1411
1399407584579839111	1489	1494	1514	1411
1399407584600156288	1488	1493	1514	1410
1399407584615153404	1487	1497	1514	1410
1399407584630096982	1488	1496	1514	1409
1399407584650025238	1486	1495	1514	1409
1399407584665119144	1491	1493	1514	1408
1399407584670157228	1492	1495	1514	1409
1399407584680071485	1491	1493	1514	1408
1399407584690050409	1492	1494	1514	1408
1399407584700134137	1489	1493	1514	1408
1399407584705086903	1490	1493	1514	1408
1399407584715159367	1489	1489	1514	1407
1399407584720004186	1491	1490	1514	1407
1399407584730059447	1490	1491	1514	1408
1399407584740086590	1491	1489	1514	1407
1399407584750044167	1492	1489	1514	1407
1399407584755099167	1488	1488	1514	1406
1399407584765014528	1493	1487	1514	1408
1399407584769988026	1491	1487	1514	1407
1399407584784965095	1493	1487	1514	1407
1399407584789902781	1493	1487	1514	1407
1399407584799996683	1495	1489	1514	1408
1399407584804955903	1492	1485	1514	1406
1399407584814971039	1493	1491	1514	1407
1399407584830116983	1492	1489	1514	1407
1399407584850089755	1493	1489	1514	1407
1399407584865027470	1489	1491	1514	1407
1399407584870037200	1488	1491	1514	1408
1399407584880096907	1488	1489	1514	1407
1399407584900050938	1489	1489	1514	1407
1399407584915163102	1483	1487	1514	1407
1399407584930189321	1483	1490	1514	1408
1399407584935163289	1482	1487	1514	1408
1399407584940009587	1483	1486	1514	1407
1399407584944980353	1484	1486	1514	1407
1399407584955068347	1486	1484	1514	1408
1399407584965042475	1482	1485	1514	1407
1399407584969857619	1483	1486	1514	1409
1399407584985032952	1484	1487	1514	1410
1399407584989918642	1483	1483	1514	1408
1399407584994991073	1485	1484	1514	1409
1399407585004949167	1484	1483	1514	1408
1399407585014933944	1482	1488	1514	1410
1399407585030002924	1482	1487	1514	1410
1399407585039953420	1482	1486	1514	1409
1399407585049932929	1483	1485	1514	1409
1399407585054931144	1482	1485	1514	1409
1399407585064930423	1485	1484	1514	1411
1399407585069972486	1485	1485	1514	1412
1399407585079956578	1486	1484	1514	1410
1399407585089781308	1486	1482	1514	1410
1399407585099860377	1486	1481	1514	1410
1399407585104741319	1487	1483	1514	1412
1399407585114771865	1486	1486	1514	1411
1399407585119743942	1489	1484	1514	1411
1399407585129816769	1489	1485	1514	1410
1399407585144787231	1489	1484	1514	1411
1399407585154805459	1488	1484	1514	1412
1399407585164819720	1491	1482	1514	1412
1399407585179799270	1492	1482	1514	1412
1399407585199815391	1493	1483	1514	1412
1399407585214828461	1496	1475	1514	1412
1399407585219801964	1497	1476	1514	1414
1399407585240139403	1497	1475	1514	1413
1399407585250099228	1500	1476	1514	1413
1399407585255077737	1499	1475	1514	1414
1399407585265067302	1501	1474	1514	1414
1399407585270093578	1500	1470	1514	1414
1399407585280133011	1502	1472	1514	1414
1399407585290050463	1501	1472	1514	1415
1399407585300022787	1502	1474	1514	1416
1399407585315125252	1501	1474	1514	1415
1399407585330010330	1502	1473	1514	1415
1399407585340021798	1503	1474	1514	1415
1399407585349979148	1503	1472	1514	1415
1399407585365058011	1503	1473	1514	1416
1399407585380073936	1504	1472	1514	1416
1399407585400031175	1505	1473	1514	1417
1399407585415121947	1498	1475	1514	1417
1399407585424993396	1499	1475	1514	1417
1399407585429975691	1498	1475	1514	1417
1399407585450043347	1498	1474	1514	1417
1399407585475109857	1497	1476	1514	1418
1399407585480020762	1498	1476	1514	1418
1399407585490005901	1499	1477	1514	1418
1399407585499957291	1499	1476	1514	1417
1399407585505012759	1499	1476	1514	1419
1399407585514898278	1493	1481	1514	1418
1399407585520066707	1494	1482	1514	1420
1399407585530096126	1494	1481	1514	1419
1399407585540042072	1494	1479	1514	1419
1399407585550026498	1495	1481	1514	1418
1399407585565061978	1496	1481	1514	1419
1399407585570109564	1495	1482	1514	1419
1399407585585029598	1496	1482	1514	1420
1399407585599932358	1497	1481	1514	1419
1399407585615135584	1496	1481	1514	1419
1399407585619924590	1496	1482	1514	1419
1399407585629976924	1498	1479	1514	1418
1399407585650009495	1498	1481	1514	1419
1399407585665071967	1495	1479	1514	1420
1399407585670039420	1497	1478	1514	1420
1399407585685089815	1496	1477	1514	1418
1399407585689988431	1497	1478	1514	1419
1399407585695066090	1497	1478	1514	1418
1399407585705037473	1498	1479	1514	1419
1399407585714963855	1496	1478	1514	1420
1399407585719741386	1497	1477	1514	1419
1399407585734801321	1498	1478	1514	1421
1399407585739814865	1498	1478	1514	1419
1399407585749822400	1500	1476	1514	1419
1399407585754808370	1499	1476	1514	1419
1399407585769849886	1503	1477	1514	1419
1399407585779863728	1502	1478	1514	1420
1399407585789776763	1503	1478	1514	1420
1399407585799814124	1503	1478	1514	1419
1399407585804781155	1503	1476	1514	1418
1399407585814915971	1504	1478	1514	1418
1399407585829820369	1504	1480	1514	1419
1399407585839801289	1504	1481	1514	1419
1399407585849801661	1504	1480	1514	1420
1399407585864763787	1512	1471	1514	1419
1399407585880015115	1512	1471	1514	1419
1399407585890045637	1512	1473	1514	1420
1399407585895045604	1512	1473	1514	1419
1399407585909929716	1514	1473	1514	1420
1399407585915089949	1513	1472	1514	1419
1399407585920044247	1514	1472	1514	1419
1399407585939995730	1513	1473	1514	1420
1399407585950119095	1511	1475	1514	1420
1399407585965145660	1517	1471	1514	1420
1399407585969978971	1517	1471	1514	1419
1399407585980092919	1518	1473	1514	1420
1399407585990070804	1516	1473	1514	1420
1399407585995126235	1519	1471	1514	1420
1399407586015143688	1518	1471	1514	1420
1399407586020095856	1517	1471	1514	1420
1399407586035086545	1519	1471	1514	1420
1399407586050127573	1519	1472	1514	1420
1399407586065075208	1518	1472	1514	1420
1399407586079887132	1518	1472	1514	1420
1399407586089988440	1517	1474	1514	1421
1399407586100089502	1519	1472	1514	1419
1399407586115050572	1519	1473	1514	1420
1399407586130113665	1514	1472	1514	1421
1399407586150088371	1516	1472	1514	1420
1399407586154931545	1515	1471	1514	1420
1399407586174944516	1513	1476	1514	1420
1399407586179910421	1513	1477	1514	1421
1399407586189950090	1515	1476	1514	1420
1399407586199867473	1514	1477	1514	1421
1399407586205015857	1514	1477	1514	1421
1399407586215093373	1511	1478	1514	1420
1399407586220035979	1509	1479	1514	1422
1399407586230027037	1512	1480	1514	1422
1399407586240001534	1510	1478	1514	1420
1399407586250020322	1511	1479	1514	1421
1399407586254934809	1510	1479	1514	1421
1399407586265012077	1511	1480	1514	1422
1399407586269989713	1509	1478	1514	1421
1399407586284982808	1509	1480	1514	1423
1399407586300081226	1511	1480	1514	1422
1399407586305099913	1511	1481	1514	1422
1399407586315092656	1509	1479	1514	1422
1399407586320063989	1509	1483	1514	1423
1399407586335048262	1509	1482	1514	1422
1399407586339920327	1509	1484	1514	1423
1399407586344735432	1509	1481	1514	1421
1399407586365079341	1507	1483	1514	1422
1399407586379822374	1507	1485	1514	1423
1399407586404990241	1506	1485	1514	1422
1399407586415021660	1506	1486	1514	1424
1399407586430031335	1506	1485	1514	1422
1399407586440032624	1505	1486	1514	1422
1399407586449886347	1505	1486	1514	1423
1399407586454986288	1505	1486	1514	1423
1399407586465052941	1502	1487	1514	1423
1399407586470057780	1502	1487	1514	1424
1399407586480034580	1502	1487	1514	1423
1399407586490012510	1501	1487	1514	1424
1399407586505001475	1502	1488	1514	1423
1399407586515061803	1502	1487	1514	1423
1399407586530105710	1503	1488	1514	1424
1399407586550124923	1503	1489	1514	1424
1399407586565097862	1502	1485	1514	1425
1399407586580030044	1502	1484	1514	1425
1399407586599993561	1501	1485	1514	1425
1399407586605013451	1501	1485	1514	1426
1399407586620015492	1513	1480	1514	1425
1399407586630057737	1513	1480	1514	1424
1399407586640100159	1512	1479	1514	1425
1399407586650053303	1512	1480	1514	1425
1399407586654911284	1512	1480	1514	1425
1399407586665083285	1515	1479	1514	1426
1399407586669964140	1514	1479	1514	1425
1399407586685027029	1515	1479	1514	1426
1399407586689940005	1514	1479	1514	1425
1399407586694924702	1514	1479	1514	1425
1399407586705037208	1513	1480	1514	1426
1399407586715048158	1514	1480	1514	1425
1399407586720029898	1513	1479	1514	1426
1399407586740074287	1514	1480	1514	1426
1399407586750071108	1514	1480	1514	1426
1399407586755064171	1513	1480	1514	1426
1399407586765159716	1511	1479	1514	1426
1399407586780118200	1511	1479	1514	1426
1399407586790182020	1510	1479	1514	1426
1399407586800106762	1510	1478	1514	1426
1399407586815130917	1513	1480	1514	1426
1399407586830053103	1513	1480	1514	1426
1399407586840017153	1513	1479	1514	1426
1399407586850108110	1511	1479	1514	1426
1399407586865055507	1512	1480	1514	1425
1399407586870024297	1511	1480	1514	1425
1399407586880075326	1512	1481	1514	1426
1399407586890023380	1510	1480	1514	1425
1399407586895154320	1511	1481	1514	1426
1399407586915098437	1507	1485	1514	1426
1399407586924721053	1505	1485	1514	1426
1399407586929842412	1507	1485	1514	1426
1399407586950158245	1505	1485	1514	1426
1399407586955144205	1506	1486	1514	1426
1399407586970154991	1504	1482	1514	1425
1399407586975065021	1505	1483	1514	1426
1399407586979982695	1503	1483	1514	1426
1399407587000114876	1503	1483	1514	1426
1399407587005005699	1503	1483	1514	1426
1399407587014792073	1500	1487	1514	1425
1399407587029833409	1499	1488	1514	1426
1399407587039764930	1499	1487	1514	1426
1399407587049790415	1498	1488	1514	1427
1399407587064862009	1494	1491	1514	1426
1399407587079820425	1494	1492	1514	1426
1399407587099876926	1494	1491	1514	1426
1399407587114861481	1493	1490	1514	1426
1399407587129792418	1493	1490	1514	1426
1399407587139738339	1492	1490	1514	1426
1399407587149805350	1492	1490	1514	1426
1399407587154789140	1492	1490	1514	1427
1399407587165150363	1495	1487	1514	1427
1399407587175089101	1496	1488	1514	1427
1399407587179837741	1495	1486	1514	1426
1399407587190018556	1496	1488	1514	1426
1399407587205052374	1496	1487	1514	1427
1399407587215081257	1500	1489	1514	1426
1399407587229799952	1500	1489	1514	1426
1399407587239970217	1499	1489	1514	1427
1399407587250029944	1500	1489	1514	1427
1399407587264915112	1506	1488	1514	1427
1399407587279841349	1505	1488	1514	1427
1399407587290015577	1505	1488	1514	1426
1399407587300079982	1504	1488	1514	1427
1399407587315085603	1504	1489	1514	1427
1399407587329875032	1504	1488	1514	1427
1399407587350022404	1504	1488	1514	1427
1399407587354912063	1503	1489	1514	1428
1399407587364998062	1502	1489	1514	1427
1399407587379991028	1501	1489	1514	1428
1399407587395037774	1501	1489	1514	1428
1399407587399998677	1500	1487	1514	1428
1399407587404992817	1502	1488	1514	1428
1399407587415126340	1497	1482	1514	1428
1399407587419976565	1498	1482	1514	1429
1399407587429996973	1498	1482	1514	1429
1399407587440008609	1496	1481	1514	1428
1399407587449987100	1496	1483	1514	1429
1399407587455030328	1496	1482	1514	1429
1399407587465109907	1487	1482	1514	1428
1399407587469965150	1486	1481	1514	1429
1399407587485067922	1487	1482	1514	1430
1399407587500170996	1486	1481	1514	1429
1399407587515074364	1479	1480	1514	1430
1399407587519735291	1480	1480	1514	1429
1399407587535117039	1480	1478	1514	1430
1399407587550066499	1478	1479	1514	1431
1399407587565095882	1482	1476	1514	1431
1399407587585046880	1482	1475	1514	1431
1399407587595102376	1482	1475	1514	1431
1399407587605025650	1481	1474	1514	1430
1399407587614949696	1484	1473	1514	1432
1399407587625026322	1483	1473	1514	1431
1399407587629937770	1484	1473	1514	1432
1399407587640025903	1484	1471	1514	1431
1399407587650018398	1485	1473	1514	1432
1399407587654732152	1483	1471	1514	1432
1399407587664800965	1485	1471	1514	1431
1399407587669762541	1482	1471	1514	1433
1399407587679869636	1492	1478	1514	1432
1399407587689829635	1493	1477	1514	1432
1399407587699872343	1493	1475	1514	1431
1399407587704877847	1494	1478	1514	1433
1399407587714932765	1498	1480	1514	1432
1399407587719774879	1499	1482	1514	1433
1399407587729843960	1498	1480	1514	1432
1399407587739815868	1499	1480	1514	1432
1399407587754896062	1499	1479	1514	1432
1399407587764875984	1507	1482	1514	1432
1399407587769864009	1507	1481	1514	1432
1399407587784791193	1506	1482	1514	1433
1399407587789818330	1507	1480	1514	1432
1399407587799903937	1507	1482	1514	1433
1399407587814763355	1504	1488	1514	1433
1399407587829796081	1505	1487	1514	1432
1399407587839867290	1505	1488	1514	1432
1399407587844736248	1506	1487	1514	1433
1399407587854840117	1507	1488	1514	1432
1399407587864921576	1502	1489	1514	1432
1399407587879923608	1503	1490	1514	1432
1399407587889846683	1503	1491	1514	1433
1399407587899804176	1503	1490	1514	1431
1399407587904794127	1504	1491	1514	1433
1399407587914773867	1498	1491	1514	1432
1399407587924759391	1498	1490	1514	1431
1399407587929768077	1499	1491	1514	1433
1399407587939783033	1499	1489	1514	1431
1399407587949761584	1499	1491	1514	1433
1399407587954824275	1499	1491	1514	1431
1399407587964838058	1494	1489	1514	1432
1399407587970029777	1494	1488	1514	1431
1399407587980016031	1495	1488	1514	1432
1399407587990036679	1495	1489	1514	1431
1399407588000073545	1497	1487	1514	1431
1399407588004971368	1496	1489	1514	1431
1399407588015055486	1485	1478	1514	1430
1399407588030121372	1486	1479	1514	1431
1399407588050093950	1486	1479	1514	1430
1399407588055036982	1488	1478	1514	1431
1399407588064860067	1486	1478	1514	1430
1399407588079825986	1487	1478	1514	1430
1399407588100126529	1487	1477	1514	1429
1399407588114978380	1492	1473	1514	1429
1399407588140127076	1493	1473	1514	1429
1399407588149952831	1493	1472	1514	1428
1399407588164989211	1495	1471	1514	1428
1399407588170062453	1497	1471	1514	1429
1399407588190066011	1497	1471	1514	1428
1399407588200052073	1497	1471	1514	1428
1399407588215097950	1511	1474	1514	1428
1399407588219846653	1513	1474	1514	1427
1399407588230007604	1513	1474	1514	1427
1399407588240092691	1514	1474	1514	1427
1399407588245016323	1516	1475	1514	1427
1399407588265054741	1523	1480	1514	1427
1399407588280048084	1523	1479	1514	1427
1399407588290236628	1523	1479	1514	1426
1399407588299738570	1526	1480	1514	1427
1399407588304964100	1527	1479	1514	1426
1399407588314860713	1521	1482	1514	1427
1399407588330056381	1521	1484	1514	1426
1399407588339971700	1522	1485	1514	1427
1399407588350016541	1522	1485	1514	1427
1399407588354961559	1523	1485	1514	1427
1399407588375028882	1522	1491	1514	1426
1399407588379984974	1524	1491	1514	1426
1399407588390068541	1523	1493	1514	1427
1399407588400083067	1524	1492	1514	1427
1399407588405007099	1524	1494	1514	1428
1399407588425045601	1511	1490	1514	1427
1399407588430022225	1510	1491	1514	1427
1399407588440082139	1512	1491	1514	1428
1399407588449968769	1512	1493	1514	1428
1399407588454959084	1514	1490	1514	1427
1399407588465028462	1506	1488	1514	1428
1399407588480094540	1506	1488	1514	1428
1399407588490188781	1506	1487	1514	1427
1399407588494969569	1508	1488	1514	1428
1399407588515016112	1514	1483	1514	1428
1399407588530127791	1514	1484	1514	1428
1399407588550028249	1515	1484	1514	1428
1399407588565147081	1522	1480	1514	1429
1399407588580016168	1524	1480	1514	1429
1399407588610122748	1522	1481	1514	1429
1399407588615048659	1523	1482	1514	1429
1399407588620004238	1523	1480	1514	1429
1399407588630102640	1523	1481	1514	1429
1399407588640020590	1521	1481	1514	1430
1399407588649871868	1523	1482	1514	1430
1399407588655068109	1523	1480	1514	1429
1399407588665104611	1524	1479	1514	1431
1399407588680046518	1524	1479	1514	1429
1399407588690079609	1525	1482	1514	1430
1399407588699913663	1526	1480	1514	1430
1399407588705042706	1525	1480	1514	1431
1399407588715063265	1520	1477	1514	1428
1399407588730102518	1519	1482	1514	1432
1399407588740090766	1519	1480	1514	1430
1399407588749761419	1518	1480	1514	1430
1399407588765011262	1523	1488	1514	1431
1399407588785164588	1524	1489	1514	1431
1399407588800112964	1524	1487	1514	1431
1399407588815137036	1522	1489	1514	1431
1399407588819960811	1519	1490	1514	1431
1399407588830037116	1522	1490	1514	1432
1399407588839821838	1520	1488	1514	1430
1399407588844935726	1522	1488	1514	1431
1399407588865081508	1524	1488	1514	1431
1399407588869956445	1524	1489	1514	1432
1399407588880072048	1524	1488	1514	1431
1399407588890059893	1524	1487	1514	1432
1399407588899784423	1523	1488	1514	1431
1399407588904973824	1524	1487	1514	1432
1399407588914790267	1520	1489	1514	1432
1399407588919985467	1520	1487	1514	1431
1399407588935101208	1519	1488	1514	1432
1399407588950038566	1518	1487	1514	1431
1399407588954987851	1516	1488	1514	1432
1399407588964818015	1518	1485	1514	1433
1399407588969933768	1517	1484	1514	1432
1399407588979959641	1519	1484	1514	1431
1399407588989947692	1517	1484	1514	1432
1399407588999836600	1518	1483	1514	1431
1399407589015025268	1518	1484	1514	1432
1399407589019923720	1516	1484	1514	1432
1399407589030015024	1516	1483	1514	1432
1399407589040010258	1516	1484	1514	1432
1399407589050105857	1513	1484	1514	1431
1399407589055124714	1515	1483	1514	1432
1399407589065062095	1509	1485	1514	1432
1399407589075106043	1510	1483	1514	1432
1399407589079714473	1509	1485	1514	1432
1399407589089923721	1508	1483	1514	1432
1399407589095037999	1508	1485	1514	1433
1399407589105064448	1506	1484	1514	1432
1399407589115049595	1503	1485	1514	1433
1399407589119968374	1501	1486	1514	1432
1399407589135089271	1501	1484	1514	1432
1399407589140023538	1500	1487	1514	1433
1399407589149998948	1499	1484	1514	1432
1399407589154912759	1499	1486	1514	1434
1399407589170049329	1500	1485	1514	1433
1399407589179972657	1499	1486	1514	1432
1399407589200105438	1499	1486	1514	1433
1399407589215186843	1500	1484	1514	1433
1399407589220020826	1498	1483	1514	1431
1399407589235146994	1499	1483	1514	1433
1399407589250083389	1498	1484	1514	1432
1399407589265092384	1500	1484	1514	1433
1399407589270056658	1499	1485	1514	1434
1399407589280054929	1499	1484	1514	1432
1399407589300137935	1498	1485	1514	1433
1399407589315143414	1505	1484	1514	1432
1399407589330072816	1505	1484	1514	1432
1399407589339811716	1504	1484	1514	1432
1399407589350050525	1504	1487	1514	1433
1399407589365139898	1509	1488	1514	1432
1399407589380065849	1509	1488	1514	1432
1399407589389844689	1509	1489	1514	1432
1399407589399931524	1507	1487	1514	1431
1399407589404981975	1509	1489	1514	1432
1399407589415015623	1507	1491	1514	1432
1399407589419968313	1508	1492	1514	1432
1399407589430023695	1507	1491	1514	1431
1399407589439914415	1507	1492	1514	1432
1399407589450015833	1509	1492	1514	1431
1399407589465059675	1510	1491	1514	1431
1399407589480139292	1509	1491	1514	1431
1399407589500014608	1509	1492	1514	1431
1399407589505106256	1508	1492	1514	1431
1399407589515096994	1500	1488	1514	1430
1399407589520011969	1502	1488	1514	1431
1399407589529946974	1501	1489	1514	1430
1399407589545075739	1500	1488	1514	1431
1399407589555063799	1500	1489	1514	1431
1399407589565039682	1498	1487	1514	1431
1399407589570051032	1497	1486	1514	1430
1399407589580120641	1498	1487	1514	1431
1399407589595094200	1497	1486	1514	1431
1399407589599978380	1498	1488	1514	1431
1399407589605031660	1497	1487	1514	1430
1399407589615088075	1487	1483	1514	1431
1399407589619795377	1489	1485	1514	1431
1399407589629991342	1486	1483	1514	1430
1399407589640060576	1488	1484	1514	1431
1399407589650032160	1488	1483	1514	1430
1399407589655090365	1489	1484	1514	1430
1399407589665080971	1487	1486	1514	1430
1399407589669946442	1486	1487	1514	1431
1399407589680050844	1486	1487	1514	1430
1399407589690005335	1486	1488	1514	1432
1399407589704990678	1486	1487	1514	1431
1399407589715120664	1488	1488	1514	1431
1399407589734874996	1487	1489	1514	1431
1399407589739819443	1486	1490	1514	1431
1399407589749862356	1485	1488	1514	1431
1399407589755133579	1488	1489	1514	1431
1399407589779946645	1488	1490	1514	1431
1399407589790117189	1488	1490	1514	1432
1399407589795059033	1489	1492	1514	1433
1399407589815232098	1491	1490	1514	1432
1399407589830028920	1491	1491	1514	1432
1399407589840045327	1493	1492	1514	1432
1399407589849868985	1491	1491	1514	1432
1399407589855131420	1492	1491	1514	1432
1399407589865083680	1492	1491	1514	1432
1399407589870075969	1494	1493	1514	1434
1399407589880101783	1494	1492	1514	1432
1399407589900147837	1494	1492	1514	1433
1399407589904839396	1494	1492	1514	1433
1399407589915031153	1499	1492	1514	1434
1399407589919945956	1497	1492	1514	1433
1399407589930012627	1498	1491	1514	1433
1399407589939890293	1498	1493	1514	1433
1399407589950019221	1498	1494	1514	1434
1399407589964807403	1500	1491	1514	1433
1399407589969796978	1500	1490	1514	1434
1399407589985139000	1499	1491	1514	1433
1399407589999739374	1499	1491	1514	1434
1399407590015238058	1499	1492	1514	1434
1399407590019946301	1499	1492	1514	1434
1399407590035068203	1498	1492	1514	1434
1399407590040011273	1498	1492	1514	1434
1399407590060087727	1496	1494	1514	1435
1399407590065052537	1498	1493	1514	1434
1399407590069855891	1497	1494	1514	1434
1399407590079814378	1497	1493	1514	1434
1399407590089812511	1496	1495	1514	1435
1399407590095051834	1496	1493	1514	1435
1399407590109884324	1494	1498	1514	1435
1399407590114940242	1494	1497	1514	1434
1399407590120024237	1494	1498	1514	1436
1399407590129912476	1494	1499	1514	1435
1399407590139936244	1494	1497	1514	1435
1399407590149953158	1495	1499	1514	1435
1399407590155048481	1494	1496	1514	1434
1399407590165084327	1489	1500	1514	1435
1399407590180111930	1489	1499	1514	1435
1399407590190074049	1489	1499	1514	1435
1399407590200034827	1488	1499	1514	1436
1399407590205046598	1490	1500	1514	1435
1399407590215114764	1489	1496	1514	1435
1399407590230049733	1488	1498	1514	1435
1399407590250067496	1489	1498	1514	1435
1399407590265186116	1484	1497	1514	1436
1399407590280162836	1484	1498	1514	1435
1399407590300035457	1484	1499	1514	1435
1399407590304952809	1485	1498	1514	1435
1399407590315022503	1482	1500	1514	1435
1399407590320046568	1484	1500	1514	1435
1399407590330053734	1483	1501	1514	1435
1399407590339981486	1484	1500	1514	1435
1399407590349968070	1483	1501	1514	1434
1399407590365066397	1488	1498	1514	1435
1399407590369954247	1488	1498	1514	1434
1399407590379980411	1488	1498	1514	1435
1399407590390059761	1488	1500	1514	1435
1399407590399993465	1488	1498	1514	1434
1399407590405007276	1489	1499	1514	1434
1399407590415064492	1491	1499	1514	1434
1399407590419965273	1491	1499	1514	1434
1399407590435066211	1491	1500	1514	1433
1399407590450058062	1492	1500	1514	1434
1399407590465110424	1494	1497	1514	1434
1399407590470087182	1493	1497	1514	1434
1399407590479837759	1494	1499	1514	1434
1399407590489817807	1495	1498	1514	1432
1399407590499829693	1493	1497	1514	1434
1399407590504776665	1494	1497	1514	1433
1399407590514844435	1493	1493	1514	1433
1399407590524758588	1495	1494	1514	1434
1399407590529773960	1495	1493	1514	1432
1399407590539807704	1494	1494	1514	1434
1399407590549802675	1495	1493	1514	1433
1399407590554709457	1494	1494	1514	1434
1399407590569820237	1496	1497	1514	1434
1399407590574762476	1494	1495	1514	1433
1399407590580052437	1495	1496	1514	1434
1399407590600071017	1495	1496	1514	1434
1399407590604964646	1496	1496	1514	1433
1399407590614901777	1493	1496	1514	1434
1399407590619895000	1494	1496	1514	1434
1399407590630038356	1493	1496	1514	1433
1399407590639951009	1493	1496	1514	1434
1399407590650066905	1493	1495	1514	1434
1399407590655032492	1493	1496	1514	1434
1399407590664974564	1493	1495	1514	1434
1399407590679845532	1492	1496	1514	1435
1399407590699994460	1491	1495	1514	1434
1399407590715081439	1486	1492	1514	1434
1399407590730024360	1486	1491	1514	1434
1399407590750100033	1486	1492	1514	1435
1399407590765063343	1485	1492	1514	1435
1399407590775062085	1484	1492	1514	1435
1399407590779949323	1484	1491	1514	1435
1399407590789819684	1483	1492	1514	1435
1399407590800083210	1484	1491	1514	1434
1399407590804811942	1482	1491	1514	1435
1399407590815089639	1481	1495	1514	1435
1399407590825044211	1479	1494	1514	1436
1399407590830037953	1479	1494	1514	1436
1399407590840005493	1480	1494	1514	1435
1399407590850001571	1478	1494	1514	1436
1399407590854989414	1480	1494	1514	1436
1399407590865094112	1478	1493	1514	1435
1399407590870088430	1481	1493	1514	1435
1399407590880057788	1480	1494	1514	1436
1399407590890020748	1480	1493	1514	1435
1399407590900049511	1481	1494	1514	1436
1399407590915032236	1481	1497	1514	1436
1399407590930132301	1481	1497	1514	1435
1399407590950002706	1481	1499	1514	1436
1399407590965122771	1482	1497	1514	1435
1399407590980063407	1481	1497	1514	1436
1399407590990147640	1480	1496	1514	1435
1399407590995018693	1482	1497	1514	1436
1399407591004899447	1482	1497	1514	1435
1399407591015128564	1489	1500	1514	1436
1399407591019955681	1489	1501	1514	1435
1399407591034871282	1488	1500	1514	1436
1399407591039834664	1488	1501	1514	1436
1399407591044706717	1488	1500	1514	1435
1399407591064820819	1489	1500	1514	1436
1399407591074825079	1489	1498	1514	1436
1399407591084721303	1490	1500	1514	1435
1399407591089705836	1488	1500	1514	1436
1399407591094730380	1488	1500	1514	1436
1399407591114797514	1493	1503	1514	1436
1399407591119708312	1493	1503	1514	1436
1399407591134804666	1491	1504	1514	1437
1399407591139750886	1492	1504	1514	1437
1399407591149760515	1491	1504	1514	1438
1399407591164814039	1492	1503	1514	1437
1399407591169793898	1491	1503	1514	1437
1399407591179910471	1490	1502	1514	1437
1399407591189993200	1490	1504	1514	1438
1399407591199850875	1490	1502	1514	1438
1399407591214816563	1491	1505	1514	1438
1399407591220009780	1492	1505	1514	1438
1399407591229977068	1491	1505	1514	1438
1399407591240057172	1491	1503	1514	1438
1399407591245259732	1490	1505	1514	1440
1399407591255125228	1491	1504	1514	1439
1399407591265047417	1491	1504	1514	1439
1399407591280157060	1488	1505	1514	1439
1399407591295193310	1487	1506	1514	1439
1399407591300023382	1487	1505	1514	1439
1399407591305005132	1487	1506	1514	1440
1399407591314936629	1486	1506	1514	1438
1399407591319963230	1485	1506	1514	1439
1399407591330067280	1486	1507	1514	1440
1399407591339780770	1485	1506	1514	1440
1399407591349781741	1485	1507	1514	1440
1399407591354833485	1485	1506	1514	1439
1399407591364828661	1482	1508	1514	1440
1399407591369811867	1483	1509	1514	1440
1399407591384772658	1482	1508	1514	1440
1399407591399786166	1482	1508	1514	1440
1399407591404802652	1482	1508	1514	1440
1399407591419816013	1480	1510	1514	1440
1399407591429842874	1478	1509	1514	1440
1399407591449779567	1478	1508	1514	1440
1399407591454830103	1478	1509	1514	1439
1399407591464850721	1473	1507	1514	1440
1399407591479870392	1475	1507	1514	1439
1399407591500091556	1474	1507	1514	1440
1399407591510031564	1472	1506	1514	1440
1399407591515055588	1473	1507	1514	1440
1399407591519959239	1472	1507	1514	1440
1399407591529939012	1473	1507	1514	1440
1399407591539921362	1473	1506	1514	1439
1399407591549990472	1472	1507	1514	1440
1399407591554937862	1473	1507	1514	1440
1399407591565025268	1474	1506	1514	1440
1399407591570050530	1476	1506	1514	1440
1399407591585118282	1474	1506	1514	1440
1399407591589953570	1474	1507	1514	1439
1399407591595059556	1475	1506	1514	1440
1399407591604879101	1474	1506	1514	1439
1399407591620025151	1476	1503	1514	1440
1399407591635112537	1477	1502	1514	1439
1399407591639919919	1476	1502	1514	1439
1399407591649861771	1476	1502	1514	1439
1399407591665172605	1483	1498	1514	1439
1399407591680009304	1484	1497	1514	1439
1399407591689859522	1483	1497	1514	1438
1399407591699992051	1484	1497	1514	1439
1399407591715044546	1487	1495	1514	1439
1399407591729991438	1488	1494	1514	1439
1399407591750076850	1489	1494	1514	1439
1399407591765071618	1497	1489	1514	1439
1399407591770000210	1498	1489	1514	1439
1399407591780033909	1498	1488	1514	1439
1399407591789853261	1498	1490	1514	1439
1399407591800028072	1499	1488	1514	1440
1399407591815038475	1503	1489	1514	1440
1399407591819932721	1504	1489	1514	1440
1399407591839946022	1504	1489	1514	1440
1399407591849910940	1506	1489	1514	1440
1399407591854864439	1505	1488	1514	1441
1399407591864786626	1508	1488	1514	1441
1399407591870072564	1508	1486	1514	1441
1399407591879709051	1508	1486	1514	1442
1399407591900054167	1508	1487	1514	1441
1399407591915033009	1506	1486	1514	1442
1399407591930007410	1507	1485	1514	1442
1399407591950146440	1508	1486	1514	1442
1399407591965109944	1503	1483	1514	1442
1399407591980071637	1503	1483	1514	1442
1399407591990033647	1505	1485	1514	1442
1399407592000042223	1503	1484	1514	1443
1399407592004964633	1505	1484	1514	1442
1399407592020150330	1495	1486	1514	1442
1399407592030070223	1496	1487	1514	1442
1399407592040089475	1495	1487	1514	1443
1399407592050104227	1497	1487	1514	1442
1399407592055043417	1495	1487	1514	1443
1399407592064969726	1490	1493	1514	1442
1399407592074982843	1489	1493	1514	1442
1399407592080054581	1489	1493	1514	1442
1399407592100135432	1489	1494	1514	1442
1399407592104962543	1490	1494	1514	1443
1399407592115018263	1489	1496	1514	1443
1399407592130122350	1490	1494	1514	1442
1399407592139975764	1489	1495	1514	1442
1399407592149957159	1490	1495	1514	1442
1399407592155053813	1489	1496	1514	1443
1399407592164937537	1484	1499	1514	1442
1399407592180038874	1484	1500	1514	1442
1399407592200058399	1485	1500	1514	1442
1399407592215188918	1484	1504	1514	1442
1399407592230105482	1485	1503	1514	1441
1399407592235016141	1485	1504	1514	1442
1399407592239764230	1485	1504	1514	1441
1399407592244965968	1485	1504	1514	1442
1399407592255050635	1486	1504	1514	1441
1399407592265148696	1485	1506	1514	1442
1399407592280074630	1485	1507	1514	1442
1399407592295081233	1485	1507	1514	1442
1399407592299980856	1486	1508	1514	1441
1399407592305038556	1486	1507	1514	1442
1399407592315087771	1483	1507	1514	1442
1399407592330042615	1483	1507	1514	1442
1399407592340079134	1483	1507	1514	1441
1399407592350066947	1484	1508	1514	1443
1399407592355099994	1484	1508	1514	1442
1399407592365078017	1484	1505	1514	1443
1399407592370043976	1484	1507	1514	1442
1399407592385069016	1484	1505	1514	1442
1399407592389990795	1485	1507	1514	1444
1399407592400131544	1484	1506	1514	1442
1399407592404922320	1484	1507	1514	1444
1399407592415088934	1487	1507	1514	1441
1399407592435127522	1488	1507	1514	1443
1399407592440036257	1489	1507	1514	1442
1399407592450122477	1489	1507	1514	1444
1399407592464826801	1485	1507	1514	1443
1399407592484815212	1486	1506	1514	1442
1399407592489791431	1487	1508	1514	1443
1399407592499814285	1487	1506	1514	1442
1399407592504814343	1488	1506	1514	1443
1399407592514861859	1496	1499	1514	1442
1399407592519783824	1498	1500	1514	1443
1399407592529755875	1497	1500	1514	1442
1399407592539839112	1497	1501	1514	1444
1399407592544798207	1498	1501	1514	1442
1399407592554814748	1498	1499	1514	1442
1399407592564837108	1504	1494	1514	1442
1399407592569792335	1502	1493	1514	1442
1399407592579797270	1504	1496	1514	1444
1399407592589778195	1503	1494	1514	1441
1399407592599816457	1504	1495	1514	1444
1399407592604803088	1505	1495	1514	1442
1399407592614805292	1515	1491	1514	1442
1399407592629815307	1515	1492	1514	1442
1399407592649849051	1516	1491	1514	1442
1399407592664848783	1525	1490	1514	1441
1399407592679792507	1525	1489	1514	1441
1399407592699762641	1527	1488	1514	1441
1399407592714798747	1532	1485	1514	1441
1399407592724851217	1532	1485	1514	1439
1399407592729780107	1532	1484	1514	1441
1399407592739820576	1532	1486	1514	1441
1399407592749809303	1534	1482	1514	1439
1399407592754838529	1533	1484	1514	1441
1399407592764801456	1530	1479	1514	1438
1399407592769799660	1529	1481	1514	1441
1399407592780025446	1528	1480	1514	1439
1399407592790118897	1530	1479	1514	1439
1399407592800009897	1531	1479	1514	1439
1399407592805028755	1531	1481	1514	1440
1399407592820066982	1525	1474	1514	1440
1399407592825048111	1527	1473	1514	1438
1399407592830067428	1525	1473	1514	1440
1399407592840038805	1526	1474	1514	1439
1399407592849918997	1525	1474	1514	1439
1399407592854792266	1527	1473	1514	1438
1399407592864954123	1523	1473	1514	1439
1399407592880102315	1522	1472	1514	1439
1399407592899973597	1523	1471	1514	1438
1399407592915143785	1509	1476	1514	1438
1399407592930033931	1509	1475	1514	1438
1399407592949816511	1508	1476	1514	1437
1399407592954779002	1509	1476	1514	1438
1399407592964838975	1499	1478	1514	1437
1399407592969779220	1503	1476	1514	1437
1399407592979798220	1499	1479	1514	1437
1399407592989806888	1499	1477	1514	1438
1399407592994772649	1499	1477	1514	1437
1399407593004806219	1501	1475	1514	1436
1399407593014817964	1500	1482	1514	1438
1399407593019777032	1498	1481	1514	1436
1399407593029800967	1500	1481	1514	1438
1399407593039816227	1500	1481	1514	1436
1399407593044779310	1500	1479	1514	1438
1399407593054970381	1499	1481	1514	1437
1399407593064822862	1502	1485	1514	1437
1399407593079832571	1502	1486	1514	1437
1399407593089853257	1502	1487	1514	1438
1399407593099986586	1500	1486	1514	1437
1399407593115163405	1505	1486	1514	1437
1399407593130103225	1504	1486	1514	1437
1399407593150030764	1504	1485	1514	1437
1399407593154934798	1503	1487	1514	1437
1399407593165099990	1500	1490	1514	1438
1399407593170012093	1500	1490	1514	1438
1399407593180050883	1500	1488	1514	1437
1399407593200019701	1500	1490	1514	1438
1399407593209918776	1504	1491	1514	1440
1399407593214973568	1502	1490	1514	1438
1399407593219918644	1504	1489	1514	1439
1399407593235057127	1503	1489	1514	1437
1399407593250004691	1503	1489	1514	1438
1399407593265043195	1500	1484	1514	1439
1399407593269977370	1500	1484	1514	1437
1399407593290031733	1502	1483	1514	1438
1399407593299959856	1503	1482	1514	1438
1399407593315041096	1501	1479	1514	1439
1399407593319973595	1502	1477	1514	1439
1399407593335024954	1501	1478	1514	1438
1399407593350012892	1502	1477	1514	1438
1399407593355035514	1503	1477	1514	1438
1399407593364974353	1526	1479	1514	1439
1399407593380068585	1526	1477	1514	1438
1399407593400016383	1526	1477	1514	1438
1399407593415037356	1529	1476	1514	1438
1399407593430050315	1528	1475	1514	1438
1399407593440116260	1528	1475	1514	1439
1399407593450048440	1528	1475	1514	1438
1399407593454946312	1528	1475	1514	1438
1399407593465058037	1533	1471	1514	1438
1399407593470056450	1534	1471	1514	1438
1399407593480101783	1533	1470	1514	1439
1399407593495126889	1532	1471	1514	1438
1399407593500061310	1532	1471	1514	1439
1399407593505036121	1532	1472	1514	1438
1399407593515043468	1527	1471	1514	1438
1399407593520005124	1525	1471	1514	1438
1399407593530022271	1526	1473	1514	1438
1399407593539977163	1525	1471	1514	1438
1399407593550029023	1525	1472	1514	1438
1399407593554984766	1524	1472	1514	1439
1399407593564960374	1509	1478	1514	1438
1399407593569735005	1510	1478	1514	1438
1399407593584765458	1509	1477	1514	1438
1399407593589756917	1509	1477	1514	1438
1399407593599798376	1509	1478	1514	1439
1399407593604749010	1508	1478	1514	1438
1399407593614782002	1504	1480	1514	1438
1399407593629810037	1504	1481	1514	1438
1399407593649836481	1503	1481	1514	1438
1399407593664778528	1502	1483	1514	1438
1399407593669781932	1501	1484	1514	1439
1399407593679773693	1500	1483	1514	1438
1399407593699814816	1501	1484	1514	1438
1399407593709807966	1499	1490	1514	1439
1399407593714778843	1497	1489	1514	1438
1399407593719841457	1497	1490	1514	1439
1399407593729785793	1496	1490	1514	1439
1399407593739924423	1495	1490	1514	1439
1399407593749974224	1495	1491	1514	1439
1399407593754967470	1494	1490	1514	1439
1399407593765061967	1494	1497	1514	1439
1399407593770043762	1492	1496	1514	1439
1399407593780003326	1493	1498	1514	1439
1399407593789998619	1492	1497	1514	1439
1399407593805089857	1491	1498	1514	1439
1399407593815156045	1490	1500	1514	1439
1399407593830210417	1490	1501	1514	1439
1399407593840048705	1490	1502	1514	1440
1399407593850111085	1489	1502	1514	1439
1399407593855154128	1489	1501	1514	1440
1399407593865044750	1491	1497	1514	1439
1399407593880085739	1490	1497	1514	1440
1399407593900079987	1489	1498	1514	1440
1399407593914827789	1505	1480	1514	1440
1399407593929822483	1505	1481	1514	1440
1399407593939830815	1505	1482	1514	1441
1399407593949905701	1504	1481	1514	1441
1399407593954752874	1504	1482	1514	1441
1399407593964848250	1505	1480	1514	1440
1399407593969877486	1506	1481	1514	1442
1399407593979791895	1506	1481	1514	1441
1399407593989806358	1504	1481	1514	1442
1399407593999786572	1505	1483	1514	1442
1399407594004796359	1505	1481	1514	1441
1399407594014794642	1508	1473	1514	1442
1399407594019768899	1507	1471	1514	1441
1399407594029834235	1506	1473	1514	1443
1399407594039812899	1505	1474	1514	1441
1399407594049778713	1505	1474	1514	1443
1399407594054763567	1505	1474	1514	1442
1399407594064841484	1507	1470	1514	1443
1399407594069869393	1507	1471	1514	1443
1399407594084801011	1507	1470	1514	1441
1399407594089766219	1507	1472	1514	1443
1399407594099797780	1507	1471	1514	1442
1399407594114797947	1499	1476	1514	1443
1399407594129785517	1499	1476	1514	1443
1399407594139797600	1499	1477	1514	1442
1399407594149845694	1498	1477	1514	1443
1399407594164847601	1494	1478	1514	1443
1399407594169809060	1494	1480	1514	1443
1399407594179819485	1493	1479	1514	1443
1399407594194758335	1493	1480	1514	1443
1399407594204791554	1493	1479	1514	1443
1399407594214775264	1484	1484	1514	1442
1399407594230146914	1483	1484	1514	1443
1399407594249856237	1483	1485	1514	1444
1399407594260019265	1479	1490	1514	1443
1399407594265057527	1480	1488	1514	1443
1399407594269900950	1479	1489	1514	1443
1399407594279960761	1478	1489	1514	1444
1399407594289974366	1477	1490	1514	1444
1399407594299965619	1476	1490	1514	1444
1399407594305013848	1477	1490	1514	1444
1399407594314907409	1483	1492	1514	1444
1399407594330004443	1483	1492	1514	1444
1399407594350079655	1482	1493	1514	1444
1399407594365167972	1484	1491	1514	1444
1399407594369977637	1485	1492	1514	1445
1399407594384996654	1484	1493	1514	1444
1399407594399949054	1484	1492	1514	1444
1399407594415099842	1492	1490	1514	1445
1399407594425005031	1490	1491	1514	1444
1399407594430041773	1491	1490	1514	1445
1399407594440085967	1489	1490	1514	1444
1399407594460004140	1493	1487	1514	1445
1399407594465010698	1492	1487	1514	1445
1399407594470003861	1492	1485	1514	1444
1399407594480011417	1491	1486	1514	1445
1399407594490081079	1491	1486	1514	1446
1399407594500052300	1490	1486	1514	1444
1399407594504979817	1490	1487	1514	1445
1399407594514835402	1484	1486	1514	1445
1399407594529778182	1482	1488	1514	1446
1399407594539985853	1483	1488	1514	1446
1399407594550017527	1482	1489	1514	1446
1399407594555036090	1483	1487	1514	1445
1399407594565026982	1480	1488	1514	1446
1399407594569971579	1480	1486	1514	1445
1399407594580039145	1481	1487	1514	1447
1399407594600074474	1481	1486	1514	1446
1399407594605080321	1480	1486	1514	1445
1399407594614988327	1481	1488	1514	1447
1399407594629873790	1481	1487	1514	1447
1399407594650021717	1482	1485	1514	1446
1399407594665073519	1483	1488	1514	1447
1399407594670004471	1484	1489	1514	1448
1399407594695035499	1485	1488	1514	1447
1399407594699989577	1484	1486	1514	1447
1399407594705062778	1484	1488	1514	1447
1399407594715045161	1489	1487	1514	1448
1399407594720093222	1490	1486	1514	1447
1399407594735110856	1491	1487	1514	1447
1399407594740023940	1491	1487	1514	1447
1399407594745013843	1489	1488	1514	1447
1399407594765075833	1492	1487	1514	1447
1399407594775038441	1493	1487	1514	1447
1399407594779815030	1493	1488	1514	1448
1399407594790025871	1493	1486	1514	1447
1399407594805063843	1495	1488	1514	1448
1399407594814826513	1497	1485	1514	1447
1399407594819981260	1497	1484	1514	1447
1399407594834988468	1498	1486	1514	1448
1399407594839959661	1498	1485	1514	1447
1399407594849915881	1499	1485	1514	1448
1399407594864984946	1493	1486	1514	1447
1399407594870132659	1493	1487	1514	1447
1399407594885006387	1493	1485	1514	1447
1399407594900073180	1494	1485	1514	1447
1399407594905100116	1495	1486	1514	1447
1399407594915096033	1489	1488	1514	1447
1399407594919944777	1491	1489	1514	1447
1399407594930115684	1491	1488	1514	1447
1399407594940044741	1492	1488	1514	1448
1399407594949985213	1492	1488	1514	1447
1399407594954980424	1492	1487	1514	1448
1399407594965110504	1485	1490	1514	1447
1399407594969999772	1485	1488	1514	1446
1399407594985024023	1486	1490	1514	1447
1399407594989981517	1487	1489	1514	1446
1399407594999983333	1487	1489	1514	1447
1399407595005002878	1487	1489	1514	1447
1399407595015088976	1487	1487	1514	1447
1399407595020041057	1487	1488	1514	1447
1399407595035036607	1487	1488	1514	1446
1399407595039964376	1487	1488	1514	1447
1399407595050003500	1487	1488	1514	1446
1399407595055083611	1488	1486	1514	1446
1399407595065001250	1499	1484	1514	1447
1399407595069953575	1499	1484	1514	1446
1399407595084976844	1500	1483	1514	1446
1399407595100077053	1501	1484	1514	1447
1399407595115089263	1502	1485	1514	1446
1399407595120014467	1503	1484	1514	1446
1399407595130056653	1502	1483	1514	1445
1399407595150006881	1505	1483	1514	1445
1399407595160042797	1507	1482	1514	1446
1399407595164912073	1506	1481	1514	1444
1399407595170060964	1506	1481	1514	1445
1399407595180096125	1508	1481	1514	1445
1399407595190066369	1507	1480	1514	1444
1399407595200014458	1510	1481	1514	1444
1399407595204984925	1509	1481	1514	1443
1399407595220046306	1516	1479	1514	1443
1399407595234964652	1516	1480	1514	1443
1399407595239914912	1519	1480	1514	1442
1399407595249903489	1516	1479	1514	1442
1399407595254959563	1518	1479	1514	1442
1399407595269952602	1517	1480	1514	1441
1399407595279855955	1518	1481	1514	1441
1399407595300031063	1518	1481	1514	1441
1399407595304959510	1517	1481	1514	1440
1399407595314832836	1513	1483	1514	1440
1399407595330014728	1513	1483	1514	1439
1399407595339960766	1514	1484	1514	1439
1399407595350044414	1514	1484	1514	1440
1399407595365086041	1506	1489	1514	1439
1399407595380041890	1506	1488	1514	1439
1399407595395016921	1507	1489	1514	1439
1399407595405058086	1507	1489	1514	1439
1399407595415050154	1501	1491	1514	1439
1399407595419774486	1499	1492	1514	1439
1399407595429872633	1499	1492	1514	1440
1399407595439774180	1500	1493	1514	1439
1399407595449898671	1500	1492	1514	1438
1399407595465043326	1497	1493	1514	1439
1399407595469937085	1495	1493	1514	1440
1399407595479937101	1495	1493	1514	1438
1399407595489969647	1495	1494	1514	1439
1399407595505095811	1495	1494	1514	1439
1399407595514904650	1502	1485	1514	1439
1399407595519989734	1502	1485	1514	1439
1399407595530027513	1501	1485	1514	1440
1399407595540017070	1501	1484	1514	1439
1399407595550008275	1501	1486	1514	1440
1399407595564966316	1496	1487	1514	1440
1399407595579975907	1495	1486	1514	1439
1399407595600004823	1494	1488	1514	1440
1399407595615044994	1497	1488	1514	1440
1399407595620067455	1496	1486	1514	1440
1399407595629812626	1496	1488	1514	1441
1399407595639960650	1496	1488	1514	1441
1399407595645065745	1495	1488	1514	1441
1399407595664744758	1498	1488	1514	1440
1399407595680029364	1496	1487	1514	1441
1399407595690040854	1495	1487	1514	1441
1399407595699997438	1496	1487	1514	1442
1399407595705013378	1494	1488	1514	1442
1399407595715040283	1510	1481	1514	1442
1399407595719999644	1509	1483	1514	1442
1399407595729946839	1507	1482	1514	1442
1399407595750016582	1507	1483	1514	1442
1399407595755139951	1507	1482	1514	1443
1399407595765060062	1507	1484	1514	1443
1399407595780071675	1507	1483	1514	1443
1399407595800000353	1506	1484	1514	1444
1399407595804995598	1506	1485	1514	1443
1399407595820038735	1505	1484	1514	1445
1399407595830109934	1499	1489	1514	1444
1399407595850062083	1498	1489	1514	1445
1399407595855026647	1497	1488	1514	1446
1399407595865035984	1501	1491	1514	1445
1399407595869997710	1500	1491	1514	1446
1399407595879995461	1499	1490	1514	1445
1399407595900037424	1500	1491	1514	1447
1399407595925062496	1499	1494	1514	1447
1399407595929987519	1498	1495	1514	1448
1399407595940038684	1498	1494	1514	1446
1399407595944735991	1497	1494	1514	1448
1399407595965138366	1498	1491	1514	1447
1399407595975103797	1498	1492	1514	1449
1399407595980007600	1498	1491	1514	1448
1399407595990015367	1498	1492	1514	1449
1399407596004958654	1498	1491	1514	1448
1399407596015132281	1499	1491	1514	1449
1399407596030095149	1496	1485	1514	1449
1399407596039784391	1497	1485	1514	1449
1399407596045000678	1496	1484	1514	1450
1399407596055037380	1498	1484	1514	1449
1399407596064999416	1498	1481	1514	1450
1399407596085067885	1499	1481	1514	1450
1399407596089993807	1499	1481	1514	1450
1399407596099992354	1500	1480	1514	1450
1399407596104989127	1499	1480	1514	1450
1399407596115049602	1501	1474	1514	1450
1399407596120048123	1499	1475	1514	1450
1399407596130016204	1501	1473	1514	1450
1399407596140092827	1500	1474	1514	1450
1399407596149891465	1499	1472	1514	1450
1399407596155056142	1501	1472	1514	1451
1399407596165138896	1502	1473	1514	1450
1399407596169990342	1504	1471	1514	1451
1399407596180070651	1504	1472	1514	1450
1399407596190023548	1504	1471	1514	1450
1399407596200088518	1505	1472	1514	1451
1399407596205081308	1504	1472	1514	1450
1399407596215082634	1504	1471	1514	1451
1399407596220093823	1504	1471	1514	1450
1399407596234990114	1502	1475	1514	1450
1399407596239979649	1501	1476	1514	1450
1399407596249913658	1503	1475	1514	1450
1399407596265133303	1500	1480	1514	1450
1399407596280150589	1501	1480	1514	1450
1399407596290066036	1501	1479	1514	1450
1399407596300103461	1500	1480	1514	1451
1399407596315062806	1500	1486	1514	1450
1399407596320038997	1500	1486	1514	1450
1399407596329985970	1500	1486	1514	1450
1399407596340072511	1501	1487	1514	1450
1399407596350033426	1501	1485	1514	1450
1399407596354986829	1501	1486	1514	1450
1399407596365024781	1495	1494	1514	1450
1399407596375050660	1494	1493	1514	1451
1399407596379983605	1495	1493	1514	1450
1399407596390013222	1495	1493	1514	1450
1399407596399997020	1494	1494	1514	1451
1399407596405028144	1495	1492	1514	1450
1399407596415115814	1494	1492	1514	1450
1399407596419988084	1488	1493	1514	1450
1399407596429861283	1487	1493	1514	1451
1399407596440052652	1488	1493	1514	1450
1399407596450086005	1487	1493	1514	1450
1399407596454960572	1488	1492	1514	1450
1399407596464802036	1488	1478	1514	1451
1399407596470022660	1486	1477	1514	1450
1399407596489976696	1486	1477	1514	1450
1399407596499871379	1486	1476	1514	1450
1399407596504989834	1487	1478	1514	1450
1399407596515110822	1488	1474	1514	1449
1399407596519999403	1490	1474	1514	1450
1399407596529965926	1488	1474	1514	1449
1399407596550006488	1488	1473	1514	1449
1399407596554989470	1487	1473	1514	1449
1399407596565132660	1493	1468	1514	1450
1399407596580066405	1493	1468	1514	1449
1399407596600094405	1493	1466	1514	1449
1399407596604925079	1493	1466	1514	1449
1399407596615156439	1493	1466	1514	1449
1399407596630068943	1500	1464	1514	1449
1399407596655017254	1500	1463	1514	1448
1399407596665009983	1509	1464	1514	1449
1399407596670019116	1510	1465	1514	1448
1399407596680083604	1510	1464	1514	1448
1399407596690015147	1511	1465	1514	1448
1399407596700002190	1510	1463	1514	1447
1399407596704985110	1510	1462	1514	1449
1399407596715101477	1511	1468	1514	1448
1399407596725035942	1511	1468	1514	1448
1399407596729998665	1512	1469	1514	1448
1399407596740019764	1512	1466	1514	1447
1399407596750093452	1513	1466	1514	1448
1399407596764817375	1515	1470	1514	1447
1399407596769745209	1515	1470	1514	1446
1399407596780008087	1514	1469	1514	1447
1399407596800063846	1515	1469	1514	1447
1399407596814884813	1515	1471	1514	1446
1399407596829896211	1514	1472	1514	1446
1399407596849985183	1514	1471	1514	1446
1399407596864994255	1512	1476	1514	1445
1399407596879986729	1513	1476	1514	1445
1399407596910065516	1505	1477	1514	1444
1399407596915160056	1505	1477	1514	1444
1399407596919995977	1505	1478	1514	1444
1399407596930037851	1506	1476	1514	1443
1399407596939848384	1506	1478	1514	1444
1399407596950079556	1505	1477	1514	1443
1399407596955073356	1506	1479	1514	1444
1399407596965081080	1501	1480	1514	1443
1399407596970040161	1502	1479	1514	1443
1399407596985014401	1502	1481	1514	1443
1399407597000037380	1503	1480	1514	1442
1399407597014902948	1499	1471	1514	1442
1399407597030026597	1500	1472	1514	1441
1399407597050146025	1500	1472	1514	1441
1399407597065099327	1504	1468	1514	1441
1399407597080093282	1505	1469	1514	1441
1399407597095145420	1505	1470	1514	1440
1399407597105089373	1506	1471	1514	1441
1399407597115161491	1511	1468	1514	1440
1399407597120080637	1513	1469	1514	1440
1399407597130111645	1512	1469	1514	1439
1399407597145160741	1512	1468	1514	1440
1399407597150069631	1515	1470	1514	1439
1399407597155130434	1513	1468	1514	1439
1399407597165067970	1518	1470	1514	1439
1399407597170012947	1515	1470	1514	1439
1399407597185067211	1517	1468	1514	1439
1399407597190072445	1518	1471	1514	1439
1399407597199989672	1519	1469	1514	1439
1399407597204986968	1520	1471	1514	1439
1399407597215076023	1528	1471	1514	1438
1399407597220007404	1528	1471	1514	1439
1399407597235068158	1530	1471	1514	1438
1399407597239997367	1529	1469	1514	1438
1399407597250064706	1530	1470	1514	1438
1399407597255137174	1529	1470	1514	1438
1399407597264990252	1532	1471	1514	1438
1399407597285080879	1533	1471	1514	1438
1399407597300024898	1533	1470	1514	1437
1399407597315151830	1534	1475	1514	1437
1399407597335139909	1534	1475	1514	1438
1399407597350083803	1533	1474	1514	1437
1399407597355055168	1535	1475	1514	1436
1399407597364895201	1532	1475	1514	1438
1399407597375114857	1533	1475	1514	1437
1399407597380003813	1532	1474	1514	1437
1399407597390054938	1532	1475	1514	1437
1399407597400037115	1533	1476	1514	1437
1399407597404872323	1534	1475	1514	1438
1399407597414848650	1526	1479	1514	1437
1399407597425135754	1525	1477	1514	1436
1399407597429966301	1525	1479	1514	1438
1399407597440056069	1526	1479	1514	1436
1399407597450009623	1526	1478	1514	1437
1399407597454805784	1527	1479	1514	1436
1399407597465022386	1517	1475	1514	1437
1399407597480028601	1518	1476	1514	1437
1399407597489951213	1517	1476	1514	1438
1399407597500024145	1519	1475	1514	1436
1399407597505032990	1517	1477	1514	1438
1399407597515140276	1509	1470	1514	1437
1399407597530034176	1508	1470	1514	1437
1399407597550082706	1509	1470	1514	1437
1399407597554950553	1508	1471	1514	1437
1399407597564970029	1499	1466	1514	1437
1399407597579982661	1499	1466	1514	1437
1399407597589819196	1500	1466	1514	1438
1399407597600003438	1500	1468	1514	1437
1399407597614765765	1495	1465	1514	1438
1399407597645042373	1493	1466	1514	1438
1399407597649939009	1493	1464	1514	1438
1399407597654983570	1493	1467	1514	1439
1399407597665064560	1492	1465	1514	1437
1399407597669839393	1492	1467	1514	1439
1399407597690057747	1490	1467	1514	1438
1399407597699951773	1489	1468	1514	1438
1399407597704893253	1489	1466	1514	1439
1399407597715057250	1491	1469	1514	1439
1399407597719820437	1490	1468	1514	1438
1399407597735197673	1490	1469	1514	1440
1399407597750051733	1488	1468	1514	1439
1399407597765035911	1499	1473	1514	1439
1399407597780117123	1498	1473	1514	1439
1399407597790041546	1498	1473	1514	1440
1399407597800093959	1498	1474	1514	1438
1399407597815106275	1502	1473	1514	1439
1399407597830111364	1500	1472	1514	1439
1399407597850032454	1500	1473	1514	1439
1399407597870117574	1509	1476	1514	1439
1399407597879893978	1507	1476	1514	1439
1399407597900122366	1507	1476	1514	1440
1399407597905023104	1505	1476	1514	1440
1399407597924964672	1507	1475	1514	1439
1399407597930025433	1506	1476	1514	1440
1399407597940039869	1507	1475	1514	1440
1399407597949820733	1506	1476	1514	1440
1399407597954953643	1506	1476	1514	1440
1399407597965042335	1520	1478	1514	1440
1399407597980086251	1519	1478	1514	1440
1399407598000118485	1519	1478	1514	1440
1399407598015084986	1514	1479	1514	1441
1399407598030036063	1514	1478	1514	1441
1399407598050109286	1514	1478	1514	1441
1399407598065066085	1510	1479	1514	1441
1399407598075134178	1509	1479	1514	1442
1399407598080032153	1509	1479	1514	1441
1399407598089790013	1508	1480	1514	1442
1399407598099776483	1508	1481	1514	1442
1399407598104827372	1508	1480	1514	1443
1399407598114772840	1506	1484	1514	1442
1399407598124811093	1507	1483	1514	1442
1399407598129772873	1506	1485	1514	1443
1399407598139794690	1504	1484	1514	1442
1399407598144782585	1503	1486	1514	1443
1399407598164831795	1495	1483	1514	1442
1399407598174796314	1496	1483	1514	1442
1399407598179736570	1495	1484	1514	1443
1399407598189797073	1495	1486	1514	1443
1399407598199794346	1493	1486	1514	1443
1399407598214793156	1484	1484	1514	1442
1399407598229772375	1483	1486	1514	1444
1399407598249873010	1481	1487	1514	1443
1399407598254713039	1479	1487	1514	1443
1399407598264833823	1471	1485	1514	1444
1399407598279813469	1469	1486	1514	1444
1399407598300036195	1469	1487	1514	1444
1399407598315121621	1461	1490	1514	1445
1399407598319846076	1458	1491	1514	1445
1399407598329970850	1460	1490	1514	1445
1399407598339935574	1459	1490	1514	1445
1399407598344937189	1458	1492	1514	1445
1399407598354758700	1454	1491	1514	1445
1399407598364892553	1459	1490	1514	1446
1399407598369925289	1458	1490	1514	1446
1399407598380048096	1457	1490	1514	1446
1399407598390039045	1456	1491	1514	1446
1399407598394955476	1455	1491	1514	1447
1399407598415064852	1457	1494	1514	1447
1399407598419892135	1456	1493	1514	1447
1399407598434989872	1456	1496	1514	1447
1399407598449989946	1454	1494	1514	1448
1399407598454878939	1455	1496	1514	1447
1399407598465048067	1465	1499	1514	1448
1399407598469957058	1462	1499	1514	1448
1399407598479979850	1463	1496	1514	1447
1399407598489932616	1464	1499	1514	1449
1399407598500010556	1463	1498	1514	1448
1399407598514888098	1473	1494	1514	1449
1399407598529993373	1474	1494	1514	1449
1399407598550082370	1474	1495	1514	1449
1399407598565055821	1483	1491	1514	1449
1399407598575127262	1484	1494	1514	1451
1399407598580016263	1482	1493	1514	1450
1399407598590012192	1482	1492	1514	1451
1399407598600115051	1482	1492	1514	1450
1399407598604929786	1485	1494	1514	1451
1399407598614919181	1502	1488	1514	1450
1399407598619858937	1502	1488	1514	1451
1399407598634781739	1504	1487	1514	1450
1399407598640041823	1504	1489	1514	1452
1399407598650062545	1503	1489	1514	1451
1399407598655053389	1502	1487	1514	1451
1399407598665036557	1507	1491	1514	1452
1399407598669902232	1508	1486	1514	1450
1399407598685100772	1507	1488	1514	1452
1399407598700015831	1506	1487	1514	1451
1399407598715061148	1508	1492	1514	1452
1399407598720090137	1507	1490	1514	1451
1399407598735025278	1509	1489	1514	1450
1399407598750081358	1509	1492	1514	1452
1399407598765105401	1505	1487	1514	1451
1399407598769972726	1505	1488	1514	1451
1399407598779974289	1506	1488	1514	1452
1399407598799895028	1507	1488	1514	1451
1399407598814991502	1493	1487	1514	1451
1399407598830029963	1493	1489	1514	1451
1399407598840071640	1494	1486	1514	1451
1399407598850095301	1494	1489	1514	1451
1399407598855051397	1493	1487	1514	1450
1399407598865048366	1493	1488	1514	1451
1399407598870048705	1491	1488	1514	1450
1399407598885015612	1493	1487	1514	1452
1399407598889767706	1492	1488	1514	1450
1399407598900013221	1492	1488	1514	1451
1399407598904903873	1492	1489	1514	1451
1399407598915043263	1464	1499	1514	1450
1399407598919980063	1465	1499	1514	1452
1399407598935107583	1463	1498	1514	1449
1399407598940073885	1464	1498	1514	1450
1399407598950063768	1464	1499	1514	1450
1399407598965091185	1460	1499	1514	1450
1399407598985175362	1462	1499	1514	1450
1399407599000111097	1462	1499	1514	1450
1399407599005079089	1462	1498	1514	1450
1399407599014946858	1452	1494	1514	1449
1399407599035102353	1453	1493	1514	1449
1399407599039966007	1452	1493	1514	1448
1399407599050067961	1454	1493	1514	1450
1399407599064869992	1462	1491	1514	1448
1399407599089854406	1462	1492	1514	1448
1399407599099868418	1462	1491	1514	1447
1399407599105068587	1463	1492	1514	1449
1399407599115053417	1462	1492	1514	1447
1399407599120100692	1468	1489	1514	1448
1399407599130007622	1469	1489	1514	1448
1399407599140085213	1469	1488	1514	1448
1399407599149958048	1472	1488	1514	1448
1399407599155087055	1470	1488	1514	1448
1399407599165048373	1477	1488	1514	1448
1399407599169846619	1478	1488	1514	1447
1399407599185119765	1477	1487	1514	1448
