#Time	 Roll 	 Pitch 	 Yaw 	 Thrust
1399578101592359702	1520	1516	1926	1105
1399578101692642313	1520	1516	1926	1105
1399578101792893385	1520	1516	1926	1105
1399578101893131138	1520	1516	1926	1105
1399578101993375568	1520	1516	1926	1105
1399578102093630783	1520	1516	1926	1105
1399578102193849987	1520	1516	1926	1105
1399578102294088727	1520	1516	1926	1105
1399578102394401934	1520	1516	1926	1105
1399578102494643194	1520	1516	1926	1105
1399578102594882817	1520	1516	1926	1105
1399578102695151840	1520	1516	1926	1105
1399578102795394427	1520	1516	1926	1105
1399578102895565216	1520	1516	1926	1105
1399578102995705646	1520	1516	1926	1105
1399578103095840016	1520	1516	1926	1105
1399578103195961477	1520	1516	1926	1105
1399578103296093491	1520	1516	1926	1105
1399578103396209706	1520	1516	1926	1105
1399578103496330511	1520	1516	1926	1105
1399578103596448772	1520	1516	1926	1105
1399578103696567558	1520	1516	1926	1105
1399578103796682098	1520	1516	1926	1105
1399578103896834717	1520	1516	1926	1105
1399578103996971574	1520	1516	1926	1105
1399578104097132018	1520	1516	1926	1105
1399578104197276006	1520	1516	1926	1105
1399578104297421157	1520	1516	1926	1105
1399578104397572449	1520	1516	1926	1105
1399578104497714951	1520	1516	1926	1105
1399578104597855513	1520	1516	1513	1105
1399578111738976792	1518	1527	1508	1378
1399578111753706954	1519	1528	1508	1378
1399578111758634127	1518	1528	1508	1379
1399578111768724678	1519	1528	1508	1378
1399578111778722213	1519	1528	1508	1378
1399578111788702998	1519	1528	1508	1378
1399578111803737696	1518	1527	1508	1378
1399578111818740864	1518	1528	1508	1378
1399578111838760258	1518	1527	1508	1434
1399578111853812094	1519	1528	1508	1380
1399578111858748484	1518	1528	1508	1380
1399578111873714547	1518	1527	1508	1380
1399578111888700575	1518	1528	1508	1380
1399578111893691425	1519	1528	1508	1380
1399578111913765139	1519	1527	1508	1380
1399578111918681634	1518	1527	1508	1380
1399578111928746618	1520	1528	1508	1380
1399578111938732063	1519	1527	1508	1434
1399578111943645654	1518	1527	1508	1382
1399578111958746014	1520	1528	1508	1382
1399578111963721812	1519	1526	1508	1382
1399578111968683048	1518	1528	1508	1382
1399578111988675411	1519	1528	1508	1382
1399578111993738353	1518	1528	1508	1382
1399578112008733871	1521	1527	1508	1382
1399578112018711709	1519	1527	1508	1382
1399578112038740998	1519	1528	1508	1434
1399578112053739949	1519	1528	1508	1384
1399578112058685794	1519	1528	1508	1383
1399578112068936541	1519	1529	1508	1383
1399578112078967698	1519	1529	1508	1383
1399578112084018187	1520	1528	1508	1383
1399578112103894759	1519	1528	1508	1383
1399578112119008273	1519	1527	1508	1383
1399578112129021603	1519	1527	1508	1383
1399578112139005195	1520	1528	1508	1434
1399578112143869659	1516	1528	1508	1385
1399578112154004354	1519	1526	1508	1385
1399578112158977797	1520	1529	1508	1385
1399578112174043843	1519	1528	1508	1385
1399578112179042165	1518	1529	1508	1385
1399578112189043469	1518	1527	1508	1385
1399578112194012066	1520	1529	1508	1385
1399578112203771017	1518	1527	1508	1386
1399578112208851145	1520	1529	1508	1385
1399578112223980068	1519	1527	1508	1385
1399578112228805858	1520	1528	1508	1386
1399578112238853187	1519	1528	1508	1434
1399578112243840025	1520	1527	1508	1387
1399578112259031651	1520	1527	1508	1387
1399578112263918060	1519	1526	1508	1387
1399578112273959394	1519	1528	1508	1387
1399578112278992721	1520	1525	1508	1386
1399578112288914176	1519	1527	1508	1387
1399578112293955524	1517	1524	1508	1386
1399578112303755363	1520	1526	1508	1387
1399578112318939174	1519	1524	1508	1387
1399578112338992008	1519	1525	1508	1435
1399578112343891681	1517	1523	1508	1389
1399578112353959152	1519	1526	1508	1389
1399578112358890885	1517	1522	1508	1389
1399578112368926741	1517	1526	1508	1389
1399578112378975592	1516	1521	1508	1389
1399578112388932143	1516	1527	1508	1390
1399578112393962727	1516	1521	1508	1389
1399578112403744490	1513	1525	1508	1390
1399578112408985055	1516	1520	1508	1390
1399578112418944074	1513	1526	1508	1390
1399578112428817053	1517	1522	1508	1389
1399578112438901918	1515	1526	1508	1435
1399578112443921861	1518	1525	1508	1391
1399578112458963322	1516	1528	1508	1393
1399578112463973072	1518	1528	1508	1391
1399578112473951741	1518	1527	1508	1392
1399578112478862731	1518	1530	1508	1391
1399578112489067953	1518	1526	1508	1392
1399578112503851671	1518	1528	1508	1392
1399578112518991448	1517	1528	1508	1392
1399578112538940294	1517	1527	1508	1435
1399578112553935371	1516	1528	1508	1393
1399578112559018637	1518	1531	1508	1394
1399578112574031306	1515	1526	1508	1393
1399578112578986403	1517	1531	1508	1394
1399578112589067516	1518	1526	1508	1393
1399578112593925836	1517	1532	1508	1394
1399578112604019596	1520	1528	1508	1393
1399578112613990945	1516	1534	1508	1394
1399578112618912500	1520	1530	1508	1393
1399578112628994124	1515	1534	1508	1394
1399578112638996542	1519	1530	1508	1435
1399578112643931318	1516	1532	1508	1396
1399578112653924012	1517	1531	1508	1395
1399578112658912547	1515	1530	1508	1397
1399578112668950840	1515	1531	1508	1395
1399578112678997969	1516	1528	1508	1396
1399578112688748230	1513	1530	1508	1396
1399578112693979628	1515	1526	1508	1395
1399578112703918937	1512	1526	1508	1396
1399578112708981684	1511	1523	1508	1395
1399578112723976940	1512	1525	1508	1395
1399578112738900177	1512	1526	1508	1436
1399578112743939039	1507	1522	1508	1395
1399578112753833786	1505	1524	1508	1395
1399578112768923127	1502	1522	1508	1395
1399578112788953759	1504	1522	1508	1395
1399578112804006526	1500	1520	1509	1394
1399578112808894470	1497	1517	1509	1392
1399578112824010366	1501	1522	1509	1394
1399578112828635049	1495	1517	1509	1391
1399578112833642422	1500	1521	1509	1393
1399578112843649291	1502	1520	1509	1436
1399578112853646352	1494	1520	1509	1395
1399578112868639771	1495	1515	1509	1393
1399578112878626788	1494	1510	1510	1392
1399578112898695575	1496	1517	1510	1393
1399578112903695720	1499	1516	1510	1394
1399578112908667122	1494	1515	1510	1391
1399578112918636601	1495	1515	1510	1392
1399578112928662450	1493	1512	1510	1392
1399578112938724876	1499	1520	1511	1436
1399578112943653244	1494	1511	1511	1394
1399578112958671973	1488	1517	1511	1394
1399578112968597111	1488	1514	1511	1394
1399578112988669230	1487	1513	1511	1393
1399578112993665718	1483	1516	1511	1393
1399578113008660763	1493	1512	1512	1393
1399578113018651738	1490	1513	1512	1393
1399578113038661464	1498	1517	1512	1437
1399578113043659613	1494	1513	1513	1395
1399578113053701289	1498	1514	1513	1395
1399578113058691898	1496	1515	1513	1394
1399578113068685579	1500	1511	1513	1395
1399578113088662805	1498	1513	1514	1393
1399578113103692697	1503	1516	1514	1393
1399578113108591141	1506	1517	1514	1394
1399578113118671583	1501	1515	1515	1393
1399578113128694542	1507	1518	1515	1395
1399578113133638174	1499	1517	1515	1394
1399578113153683004	1517	1526	1515	1437
1399578113158641580	1513	1523	1515	1397
1399578113168643180	1510	1519	1515	1396
1399578113178573174	1511	1522	1515	1398
1399578113188587344	1511	1518	1516	1396
1399578113193612383	1510	1521	1516	1398
1399578113203658616	1516	1525	1516	1398
1399578113218665659	1514	1523	1516	1399
1399578113228684206	1513	1520	1516	1398
1399578113238661592	1525	1531	1516	1438
1399578113253672042	1517	1521	1516	1401
1399578113268659952	1518	1521	1517	1401
1399578113278677506	1517	1519	1517	1401
1399578113288654649	1516	1523	1517	1403
1399578113293683557	1517	1519	1517	1403
1399578113303612595	1513	1521	1517	1403
1399578113318645707	1514	1518	1517	1402
1399578113333672192	1514	1518	1517	1403
1399578113338700429	1522	1530	1517	1438
1399578113343648379	1513	1517	1517	1406
1399578113353648336	1511	1519	1517	1405
1399578113363625467	1508	1515	1517	1406
1399578113368678364	1511	1522	1517	1407
1399578113378611958	1508	1518	1518	1406
1399578113388648500	1512	1522	1518	1407
1399578113393680828	1506	1517	1518	1406
1399578113403648493	1491	1518	1518	1408
1399578113408630148	1485	1515	1518	1407
1399578113418665715	1491	1518	1518	1409
1399578113428663402	1487	1514	1518	1408
1399578113438642117	1500	1521	1518	1439
1399578113443655781	1490	1513	1518	1409
1399578113453654569	1484	1513	1518	1410
1399578113468650317	1486	1514	1518	1409
1399578113473651887	1484	1514	1518	1411
1399578113488640778	1485	1513	1518	1411
1399578113503652477	1479	1508	1518	1410
1399578113508601159	1480	1510	1518	1411
1399578113518630260	1477	1505	1518	1410
1399578113538659720	1485	1513	1518	1439
1399578113543663859	1479	1514	1518	1415
1399578113553629196	1480	1509	1518	1412
1399578113558651851	1481	1514	1518	1414
1399578113568655917	1481	1509	1518	1411
1399578113578656121	1479	1513	1518	1414
1399578113583670811	1479	1512	1518	1412
1399578113598667961	1479	1512	1518	1415
1399578113603589165	1481	1511	1518	1413
1399578113608577092	1481	1510	1518	1414
1399578113618636298	1482	1511	1518	1414
1399578113628636535	1483	1509	1518	1414
1399578113638650681	1492	1517	1518	1440
1399578113643661972	1485	1508	1518	1415
1399578113653619409	1492	1522	1518	1416
1399578113658661844	1492	1519	1518	1415
1399578113668645676	1493	1522	1518	1417
1399578113678665761	1494	1522	1518	1416
1399578113688650858	1495	1523	1518	1418
1399578113703673166	1509	1524	1518	1416
1399578113718674109	1510	1525	1518	1417
1399578113728668966	1510	1526	1518	1416
1399578113738655927	1518	1529	1518	1441
1399578113753668265	1532	1525	1518	1419
1399578113768605156	1531	1526	1518	1419
1399578113788699570	1532	1527	1518	1418
1399578113793740688	1534	1529	1518	1419
1399578113803642829	1534	1527	1517	1418
1399578113808647754	1540	1531	1517	1419
1399578113818652737	1536	1529	1517	1417
1399578113833634098	1541	1532	1517	1420
1399578113838666319	1544	1532	1517	1441
1399578113853668772	1538	1530	1517	1420
1399578113863698775	1538	1531	1517	1420
1399578113868605681	1540	1530	1517	1420
1399578113878653763	1539	1531	1517	1419
1399578113883651861	1542	1530	1517	1420
1399578113893698976	1540	1532	1517	1419
1399578113903715370	1535	1530	1517	1420
1399578113908620567	1532	1531	1516	1420
1399578113918634115	1535	1532	1516	1420
1399578113928631490	1533	1532	1516	1421
1399578113943642208	1537	1533	1516	1442
1399578113953608899	1527	1532	1515	1421
1399578113968679250	1527	1532	1515	1421
1399578113978701390	1526	1531	1515	1420
1399578113988683255	1526	1533	1515	1422
1399578114003684604	1519	1531	1515	1420
1399578114018672526	1519	1531	1515	1419
1399578114038607979	1519	1532	1515	1442
1399578114053663090	1497	1527	1514	1421
1399578114068637423	1498	1528	1514	1420
1399578114088695108	1499	1529	1514	1421
1399578114093627864	1498	1528	1514	1422
1399578114103684137	1489	1525	1514	1420
1399578114108664884	1487	1525	1514	1420
1399578114118652148	1493	1523	1514	1419
1399578114128616208	1485	1523	1513	1419
1399578114138644897	1492	1524	1513	1443
1399578114143628462	1483	1526	1513	1422
1399578114153654531	1470	1521	1513	1423
1399578114158642168	1470	1516	1513	1421
1399578114168594931	1468	1520	1513	1422
1399578114188709687	1470	1518	1513	1421
1399578114193650756	1471	1520	1513	1421
1399578114208719437	1470	1513	1513	1422
1399578114218667558	1472	1513	1513	1419
1399578114238647058	1473	1514	1513	1444
1399578114243617916	1474	1516	1513	1424
1399578114253619172	1479	1518	1512	1420
1399578114268596402	1483	1519	1512	1421
1399578114288698140	1485	1520	1512	1422
1399578114303681008	1500	1522	1513	1421
1399578114308661700	1498	1523	1513	1421
1399578114318656738	1503	1520	1513	1420
1399578114328683635	1501	1520	1513	1420
1399578114338662324	1502	1524	1513	1420
1399578114343618025	1503	1518	1513	1420
1399578114353605571	1519	1528	1513	1420
1399578114363652369	1522	1524	1513	1421
1399578114368643884	1520	1530	1513	1420
1399578114378652991	1523	1523	1513	1419
1399578114388628630	1521	1527	1513	1420
1399578114393669980	1521	1522	1513	1420
1399578114403631124	1539	1536	1513	1420
1399578114408702288	1536	1530	1513	1418
1399578114418636562	1541	1535	1513	1420
1399578114438635589	1541	1533	1514	1420
1399578114443675816	1540	1534	1514	1418
1399578114458664119	1552	1534	1514	1419
1399578114468626363	1553	1537	1514	1418
1399578114488657052	1553	1538	1514	1419
1399578114493644149	1555	1541	1514	1419
1399578114503662107	1560	1546	1514	1418
1399578114518659090	1562	1546	1514	1418
1399578114528679806	1565	1547	1514	1417
1399578114538642468	1565	1546	1514	1417
1399578114543672142	1564	1550	1514	1419
1399578114553616235	1554	1546	1515	1419
1399578114558648306	1554	1546	1515	1416
1399578114568675520	1556	1545	1515	1418
1399578114578711248	1554	1551	1515	1419
1399578114583623627	1560	1545	1515	1416
1399578114598704972	1548	1546	1515	1418
1399578114603662378	1551	1545	1515	1416
1399578114608639395	1549	1546	1515	1418
1399578114618660523	1550	1546	1515	1417
1399578114628667924	1550	1544	1515	1416
1399578114643693960	1550	1545	1515	1417
1399578114653655985	1539	1542	1515	1416
1399578114658639638	1539	1544	1515	1417
1399578114668675369	1537	1542	1515	1418
1399578114688682828	1536	1542	1515	1417
1399578114703678263	1523	1541	1515	1416
1399578114708686496	1523	1545	1515	1417
1399578114718649352	1522	1541	1515	1416
1399578114738679487	1520	1543	1515	1417
1399578114753628620	1507	1539	1515	1416
1399578114768691574	1507	1537	1515	1416
1399578114788645301	1506	1538	1515	1416
1399578114793640608	1503	1537	1515	1416
1399578114803615777	1476	1533	1515	1418
1399578114808686463	1474	1530	1515	1415
1399578114823655558	1476	1530	1515	1418
1399578114828621851	1472	1529	1515	1415
1399578114838671160	1475	1527	1515	1417
1399578114843684614	1471	1531	1515	1417
1399578114853653584	1472	1529	1515	1416
1399578114858674379	1474	1529	1515	1416
1399578114878757900	1470	1529	1515	1417
1399578114888974691	1466	1528	1515	1416
1399578114894083038	1469	1527	1515	1418
1399578114903834512	1461	1519	1515	1416
1399578114908886407	1463	1517	1515	1417
1399578114923910247	1462	1519	1515	1417
1399578114939109690	1460	1517	1515	1417
1399578114953785321	1461	1512	1515	1418
1399578114969033620	1459	1511	1515	1417
1399578114988767875	1457	1511	1515	1418
1399578114993959331	1461	1509	1515	1417
1399578115003870405	1468	1510	1515	1418
1399578115008844191	1473	1511	1516	1418
1399578115023690850	1467	1509	1515	1419
1399578115028943214	1472	1513	1515	1419
1399578115033879615	1468	1508	1515	1419
1399578115053975701	1501	1512	1515	1419
1399578115068917460	1503	1512	1515	1418
1399578115078964636	1501	1512	1515	1420
1399578115088816089	1505	1512	1515	1419
1399578115093781748	1502	1512	1515	1420
1399578115103972046	1517	1519	1515	1419
1399578115108926815	1515	1517	1515	1420
1399578115118919443	1516	1520	1515	1421
1399578115128726225	1519	1516	1515	1419
1399578115138725564	1517	1519	1515	1420
1399578115143740018	1519	1515	1515	1419
1399578115153738931	1538	1522	1515	1420
1399578115168732213	1539	1521	1515	1420
1399578115178727852	1540	1518	1515	1419
1399578115188656256	1541	1522	1515	1421
1399578115203738304	1552	1526	1515	1420
1399578115218739353	1553	1527	1515	1420
1399578115228674050	1553	1530	1514	1420
1399578115238719648	1553	1525	1514	1420
1399578115243701713	1554	1531	1514	1420
1399578115258764387	1571	1540	1514	1421
1399578115273747229	1571	1540	1514	1420
1399578115278925560	1573	1542	1514	1422
1399578115288923823	1572	1541	1514	1419
1399578115293651841	1574	1541	1514	1422
1399578115309008099	1562	1544	1514	1421
1399578115324053499	1564	1544	1514	1421
1399578115328962381	1567	1543	1514	1420
1399578115333999693	1568	1545	1513	1422
1399578115343762348	1566	1543	1513	1420
1399578115353918722	1567	1546	1513	1422
1399578115358819543	1564	1546	1513	1421
1399578115368953705	1568	1544	1513	1422
1399578115379010920	1564	1546	1513	1421
1399578115388972212	1567	1545	1513	1422
1399578115393785692	1564	1545	1513	1423
1399578115403899619	1556	1543	1513	1422
1399578115418950398	1556	1543	1513	1422
1399578115438941213	1556	1543	1513	1422
1399578115453903444	1528	1546	1513	1422
1399578115469016544	1527	1544	1513	1421
1399578115489064903	1524	1545	1513	1422
1399578115504160186	1512	1541	1513	1422
1399578115509037128	1511	1541	1512	1423
1399578115533976206	1510	1540	1512	1423
1399578115538969934	1509	1541	1512	1421
1399578115543974730	1508	1538	1512	1423
1399578115553892405	1482	1530	1512	1422
1399578115559011323	1481	1525	1512	1423
1399578115568958191	1481	1530	1512	1424
1399578115578968381	1479	1527	1512	1422
1399578115588958397	1482	1527	1512	1424
1399578115594021495	1477	1528	1512	1422
1399578115603933631	1459	1511	1512	1424
1399578115608860738	1456	1513	1512	1422
1399578115628929703	1456	1512	1512	1424
1399578115638824016	1454	1512	1512	1424
1399578115653911689	1446	1503	1512	1424
1399578115668895490	1446	1502	1512	1424
1399578115688873780	1445	1503	1512	1424
1399578115693935900	1442	1504	1512	1425
1399578115703975428	1459	1508	1512	1424
1399578115719053825	1455	1506	1512	1424
1399578115738943998	1453	1507	1512	1425
1399578115753941219	1476	1507	1512	1425
1399578115758900120	1477	1506	1512	1424
1399578115768708681	1477	1504	1511	1426
1399578115778906610	1476	1507	1511	1424
1399578115788975593	1477	1504	1511	1426
1399578115793982400	1478	1508	1512	1425
1399578115804091981	1509	1508	1512	1425
1399578115808971853	1510	1512	1512	1426
1399578115818927893	1509	1509	1512	1424
1399578115828831975	1511	1511	1512	1427
1399578115838784815	1509	1511	1512	1425
1399578115843974158	1513	1510	1512	1427
1399578115859005702	1545	1524	1512	1426
1399578115868943650	1545	1525	1512	1426
1399578115878914641	1545	1525	1512	1426
1399578115888926559	1546	1524	1512	1427
1399578115903897801	1554	1526	1512	1426
1399578115919090070	1555	1526	1512	1426
1399578115928759213	1554	1525	1512	1426
1399578115938902236	1558	1526	1512	1426
1399578115954013754	1568	1536	1512	1426
1399578115968919537	1570	1537	1512	1426
1399578115989029065	1571	1537	1512	1426
1399578115993937071	1573	1539	1512	1426
1399578116004007428	1566	1548	1512	1427
1399578116008852854	1569	1550	1512	1425
1399578116018921545	1566	1548	1512	1427
1399578116038939997	1568	1549	1512	1426
1399578116048708060	1558	1552	1512	1427
1399578116053937527	1558	1549	1512	1426
1399578116058886129	1557	1552	1512	1428
1399578116068745859	1560	1550	1512	1425
1399578116078897056	1556	1552	1512	1428
1399578116088970568	1560	1553	1512	1426
1399578116093928491	1557	1550	1512	1427
1399578116103998909	1527	1552	1512	1426
1399578116108954229	1525	1548	1512	1427
1399578116128847406	1526	1551	1512	1428
1399578116138990694	1525	1550	1512	1427
1399578116154059968	1511	1547	1511	1427
1399578116169001547	1510	1548	1511	1427
1399578116178953436	1511	1549	1511	1428
1399578116189031058	1508	1546	1511	1427
1399578116204045042	1450	1519	1511	1428
1399578116218995603	1449	1518	1510	1428
1399578116228695661	1449	1516	1511	1429
1399578116238945805	1449	1518	1510	1428
1399578116244007296	1446	1515	1510	1428
1399578116253685304	1446	1506	1510	1429
1399578116258714593	1439	1507	1510	1427
1399578116268676852	1444	1504	1510	1429
1399578116283726622	1438	1506	1510	1428
1399578116288676357	1441	1505	1510	1429
1399578116293678397	1440	1505	1510	1428
1399578116303668897	1435	1492	1510	1429
1399578116308623607	1440	1492	1510	1429
1399578116318700285	1432	1493	1510	1429
1399578116328642408	1438	1495	1510	1430
1399578116338732556	1433	1491	1510	1429
1399578116343697662	1434	1494	1509	1429
1399578116353732915	1445	1486	1510	1429
1399578116358727267	1443	1491	1510	1430
1399578116368689943	1443	1486	1510	1428
1399578116388704439	1442	1488	1510	1430
1399578116403903938	1474	1485	1510	1430
1399578116408858312	1471	1484	1510	1431
1399578116423903021	1476	1486	1510	1432
1399578116438815040	1475	1485	1510	1431
1399578116454072873	1511	1491	1510	1431
1399578116468931487	1511	1490	1510	1431
1399578116488948471	1511	1489	1510	1431
1399578116493915087	1510	1492	1510	1432
1399578116518836600	1550	1499	1511	1431
1399578116528954713	1551	1499	1511	1431
1399578116538918236	1549	1498	1511	1431
1399578116543882780	1552	1498	1511	1432
1399578116553981139	1571	1513	1511	1430
1399578116558924455	1575	1517	1511	1432
1399578116568973700	1568	1515	1512	1433
1399578116578888015	1574	1519	1512	1432
1399578116594004549	1572	1513	1512	1431
1399578116603971297	1574	1526	1512	1430
1399578116618997209	1575	1528	1513	1431
1399578116639023270	1575	1528	1513	1431
1399578116644036202	1575	1530	1513	1431
1399578116654004792	1576	1529	1513	1431
1399578116668865909	1541	1541	1514	1431
1399578116678979128	1543	1539	1514	1431
1399578116689044382	1542	1543	1514	1431
1399578116703921483	1536	1543	1514	1431
1399578116718971487	1536	1545	1515	1431
1399578116729033351	1534	1546	1515	1431
1399578116738941923	1538	1547	1515	1432
1399578116743969443	1535	1548	1515	1431
1399578116753945579	1497	1545	1515	1432
1399578116758980432	1500	1546	1515	1431
1399578116768956281	1495	1545	1515	1432
1399578116784071830	1500	1546	1515	1431
1399578116788924240	1494	1546	1515	1431
1399578116804048702	1466	1536	1516	1431
1399578116828934717	1464	1535	1516	1431
1399578116838683759	1466	1537	1516	1432
1399578116853955738	1455	1519	1516	1431
1399578116868909948	1455	1519	1516	1431
1399578116878991587	1458	1521	1516	1431
1399578116888816026	1454	1518	1516	1431
1399578116903703653	1451	1509	1516	1431
1399578116918703039	1451	1507	1516	1431
1399578116928715474	1450	1506	1516	1432
1399578116938708954	1453	1508	1516	1430
1399578116943684928	1447	1508	1516	1431
1399578116953696797	1492	1486	1516	1431
1399578116958670633	1485	1488	1516	1430
1399578116968707226	1490	1485	1516	1431
1399578116983780287	1490	1489	1516	1430
1399578116988741671	1486	1486	1516	1431
1399578116993717928	1494	1488	1516	1430
1399578117003712696	1506	1481	1516	1430
1399578117018725338	1510	1481	1516	1431
1399578117033741295	1508	1482	1516	1432
1399578117038699654	1509	1481	1516	1431
1399578117044008947	1506	1482	1516	1431
1399578117054050813	1557	1498	1516	1431
1399578117059093742	1554	1501	1516	1432
1399578117069044961	1554	1499	1516	1431
1399578117079025470	1556	1501	1516	1431
1399578117089095669	1551	1502	1516	1431
1399578117104025059	1562	1509	1516	1432
1399578117108985186	1561	1506	1516	1431
1399578117118963255	1562	1512	1516	1433
1399578117139042871	1562	1509	1516	1432
1399578117153969599	1554	1537	1516	1432
1399578117168993164	1556	1536	1516	1432
1399578117189047803	1556	1535	1516	1432
1399578117203920522	1527	1551	1516	1432
1399578117208915103	1526	1553	1516	1432
1399578117219022517	1525	1549	1516	1433
1399578117229056199	1527	1553	1516	1432
1399578117239063725	1523	1550	1516	1432
1399578117244002762	1528	1553	1516	1433
1399578117253946364	1482	1537	1516	1432
1399578117258869761	1486	1535	1516	1433
1399578117269030225	1483	1539	1516	1433
1399578117279022702	1484	1535	1516	1433
1399578117283848239	1487	1539	1516	1433
1399578117298976974	1470	1532	1516	1432
1399578117303864353	1477	1532	1516	1434
1399578117309022451	1471	1535	1516	1432
1399578117318725369	1477	1532	1516	1434
1399578117328934717	1473	1536	1516	1433
1399578117338852884	1475	1532	1516	1434
1399578117343934751	1478	1536	1516	1434
1399578117353713900	1474	1510	1516	1433
1399578117368947961	1478	1513	1516	1433
1399578117388875482	1480	1513	1516	1434
1399578117393927378	1479	1511	1516	1434
1399578117403918958	1521	1511	1516	1435
1399578117418929602	1519	1511	1516	1434
1399578117439008885	1518	1512	1516	1434
1399578117453948392	1531	1522	1516	1434
1399578117468938146	1531	1522	1516	1435
1399578117478902096	1533	1521	1517	1435
1399578117488907264	1528	1524	1517	1435
1399578117493919771	1531	1524	1517	1435
1399578117503963018	1540	1526	1517	1436
1399578117508877379	1543	1527	1516	1434
1399578117518944753	1542	1525	1516	1435
1399578117528953399	1541	1527	1516	1435
1399578117538992788	1544	1526	1516	1433
1399578117543898993	1541	1526	1516	1435
1399578117553873952	1555	1538	1516	1434
1399578117558917265	1550	1536	1516	1434
1399578117568912680	1554	1537	1516	1434
1399578117579065153	1550	1538	1516	1434
1399578117588939951	1550	1535	1516	1435
1399578117603990476	1519	1546	1516	1434
1399578117619009935	1520	1546	1516	1434
1399578117629043624	1522	1544	1516	1435
1399578117639053458	1519	1547	1516	1431
1399578117653832069	1506	1533	1516	1433
1399578117668765050	1507	1532	1516	1433
1399578117688973371	1507	1533	1516	1433
1399578117703957532	1500	1522	1516	1433
1399578117709050691	1502	1524	1516	1432
1399578117718980267	1499	1523	1516	1433
1399578117728913265	1500	1524	1516	1434
1399578117738873564	1500	1526	1516	1432
1399578117743915885	1500	1524	1515	1434
1399578117754032628	1490	1516	1515	1432
1399578117764040930	1490	1513	1515	1433
1399578117769008651	1490	1516	1515	1433
1399578117788967326	1491	1515	1515	1433
1399578117793874306	1492	1516	1515	1433
1399578117804058665	1517	1524	1515	1434
1399578117808880602	1516	1525	1515	1432
1399578117828884108	1518	1523	1515	1434
1399578117838708325	1517	1527	1515	1434
1399578117853640441	1521	1524	1515	1434
1399578117858751923	1523	1524	1515	1433
1399578117873681264	1519	1523	1515	1433
1399578117888621077	1521	1524	1515	1433
1399578117903709456	1525	1535	1515	1433
1399578117908630968	1522	1534	1515	1433
1399578117918632435	1527	1538	1515	1434
1399578117928584240	1520	1535	1515	1434
1399578117933701679	1525	1536	1515	1435
1399578117943694447	1521	1537	1515	1434
1399578117958625733	1531	1540	1515	1435
1399578117973617434	1529	1538	1515	1435
1399578117978634609	1533	1540	1515	1435
1399578117983816928	1528	1538	1515	1434
1399578117993634964	1532	1535	1515	1435
1399578118008682127	1520	1539	1515	1434
1399578118013631203	1522	1535	1515	1435
1399578118023631246	1522	1539	1515	1434
1399578118028635859	1520	1536	1516	1435
1399578118038652516	1522	1537	1516	1436
1399578118043674453	1519	1537	1516	1434
1399578118058774111	1518	1533	1516	1436
1399578118068635588	1517	1534	1516	1435
1399578118088665816	1517	1533	1516	1435
1399578118093590663	1517	1533	1516	1435
1399578118103676279	1506	1523	1516	1435
1399578118118655803	1507	1524	1516	1435
1399578118138660183	1508	1524	1516	1435
1399578118153635714	1507	1520	1516	1435
1399578118168680018	1508	1518	1516	1435
1399578118188653443	1507	1517	1516	1435
1399578118193628051	1505	1521	1516	1434
1399578118203645072	1514	1512	1516	1435
1399578118208583043	1514	1519	1516	1434
1399578118218627867	1512	1514	1516	1435
1399578118233677899	1516	1516	1517	1435
1399578118238655090	1511	1517	1517	1433
1399578118243631234	1516	1513	1517	1436
1399578118253678553	1521	1523	1517	1434
1399578118258589389	1522	1518	1517	1435
1399578118268642958	1523	1522	1517	1436
1399578118278644928	1522	1521	1517	1434
1399578118293685105	1523	1521	1517	1435
1399578118303633069	1526	1526	1517	1435
1399578118308624251	1523	1526	1517	1435
1399578118318589473	1525	1527	1517	1435
1399578118338804172	1524	1525	1517	1435
1399578118353697660	1525	1527	1517	1435
1399578118368710568	1525	1526	1517	1435
1399578118378650914	1525	1523	1517	1436
1399578118388599651	1525	1527	1517	1434
1399578118403745291	1523	1525	1517	1435
1399578118418663654	1522	1524	1517	1435
1399578118438681662	1522	1524	1517	1435
1399578118443631361	1525	1525	1518	1435
1399578118468692056	1514	1513	1518	1435
1399578118478610333	1512	1512	1518	1436
1399578118488633631	1516	1512	1518	1435
1399578118493594019	1513	1514	1518	1435
1399578118503645393	1511	1511	1518	1435
1399578118508643089	1508	1514	1517	1436
1399578118528628751	1510	1512	1517	1435
1399578118538638433	1510	1515	1517	1435
1399578118543610496	1511	1513	1517	1436
1399578118553649841	1508	1511	1517	1436
1399578118558709680	1512	1513	1517	1435
1399578118573670793	1507	1510	1517	1436
1399578118588650535	1510	1512	1517	1436
1399578118603738432	1512	1515	1517	1436
1399578118618658052	1511	1514	1517	1436
1399578118638692557	1510	1513	1517	1436
1399578118653653733	1519	1520	1517	1436
1399578118668675789	1519	1520	1517	1436
1399578118688690416	1520	1520	1517	1436
1399578118693675456	1520	1517	1517	1437
1399578118703674697	1521	1524	1517	1435
1399578118708663141	1521	1520	1517	1435
1399578118718591521	1521	1521	1517	1436
1399578118728633604	1521	1522	1517	1435
1399578118738618283	1521	1520	1517	1436
1399578118743653920	1521	1521	1517	1435
1399578118753608666	1520	1520	1517	1436
1399578118758640165	1520	1520	1517	1435
1399578118768665995	1519	1519	1516	1436
1399578118778664395	1519	1521	1516	1436
1399578118788671795	1519	1518	1516	1436
1399578118793638627	1517	1522	1516	1436
1399578118808612330	1517	1515	1516	1435
1399578118818604748	1516	1518	1516	1436
1399578118838605065	1516	1517	1516	1435
1399578118843624926	1515	1516	1516	1435
1399578118858618649	1512	1511	1516	1436
1399578118868638996	1511	1512	1516	1435
1399578118888719764	1513	1514	1515	1435
1399578118903689268	1511	1512	1515	1435
1399578118918712236	1512	1512	1515	1435
1399578118928620589	1509	1512	1515	1435
1399578118938626774	1516	1513	1515	1435
1399578118943599611	1510	1514	1515	1434
1399578118953664798	1519	1513	1515	1435
1399578118958621600	1517	1518	1515	1434
1399578118968631402	1517	1514	1514	1434
1399578118988669643	1518	1517	1514	1434
1399578118998627533	1526	1517	1514	1435
1399578119003673074	1523	1519	1514	1434
1399578119008632190	1526	1518	1514	1434
1399578119018633224	1523	1517	1514	1434
1399578119028661463	1526	1519	1514	1433
1399578119043601489	1524	1518	1513	1434
1399578119053621268	1530	1524	1513	1434
1399578119068645410	1529	1524	1513	1434
1399578119078618330	1526	1524	1513	1433
1399578119088620017	1531	1525	1513	1434
1399578119103684101	1525	1531	1513	1433
1399578119118702597	1526	1533	1512	1433
1399578119138674654	1526	1533	1512	1433
1399578119153656276	1520	1535	1512	1433
1399578119158699850	1520	1532	1512	1434
1399578119173677671	1519	1538	1511	1432
1399578119178639564	1518	1532	1511	1432
1399578119188642110	1522	1536	1511	1433
1399578119193651149	1518	1536	1511	1431
1399578119203640641	1512	1533	1511	1434
1399578119208663900	1509	1536	1511	1431
1399578119218706004	1510	1532	1511	1433
1399578119228602906	1512	1537	1510	1430
1399578119238625235	1509	1534	1510	1432
1399578119243634463	1511	1537	1510	1433
1399578119253616385	1506	1536	1510	1431
1399578119258644632	1507	1537	1510	1432
1399578119278639823	1507	1537	1509	1430
1399578119288577819	1507	1539	1509	1430
1399578119293627176	1506	1536	1509	1430
1399578119303596220	1508	1534	1509	1432
1399578119308647900	1508	1533	1509	1429
1399578119318634421	1509	1534	1509	1432
1399578119338653995	1508	1536	1508	1431
1399578119353654048	1511	1533	1508	1429
1399578119368648060	1509	1535	1508	1430
1399578119388669211	1509	1537	1508	1430
1399578119393605448	1508	1537	1508	1432
1399578119403644486	1520	1531	1508	1429
1399578119418655479	1520	1530	1508	1430
1399578119428660997	1520	1529	1508	1430
1399578119438642770	1521	1532	1508	1430
1399578119443629575	1520	1531	1508	1430
1399578119453685546	1523	1530	1508	1431
1399578119463655168	1523	1530	1508	1429
1399578119468686407	1523	1527	1508	1430
1399578119478629060	1523	1529	1508	1429
1399578119488694182	1522	1527	1508	1429
1399578119493644041	1522	1531	1508	1430
1399578119513664985	1525	1529	1508	1430
1399578119518622490	1527	1530	1508	1428
1399578119528672994	1526	1530	1508	1430
1399578119538592511	1526	1529	1508	1429
1399578119543597933	1525	1530	1508	1431
1399578119558684786	1524	1532	1508	1430
1399578119568614143	1523	1530	1508	1430
1399578119588643850	1523	1531	1508	1431
1399578119603735326	1522	1535	1509	1430
1399578119618647547	1519	1537	1509	1432
1399578119638680250	1519	1538	1509	1430
1399578119653704864	1514	1536	1509	1431
1399578119668674488	1513	1537	1509	1431
1399578119678599269	1515	1537	1509	1432
1399578119688661947	1512	1540	1509	1432
1399578119693647336	1513	1536	1509	1432
1399578119703581425	1507	1540	1510	1431
1399578119708599646	1504	1542	1510	1431
1399578119718649686	1506	1542	1510	1433
1399578119728653693	1503	1541	1510	1432
1399578119738648486	1506	1540	1510	1433
1399578119743668101	1503	1543	1510	1432
1399578119753676086	1500	1538	1510	1432
1399578119758643283	1501	1540	1510	1433
1399578119768649771	1499	1539	1510	1432
1399578119778658790	1500	1542	1511	1434
1399578119793659985	1498	1542	1511	1433
1399578119803684741	1500	1537	1511	1433
1399578119818657932	1499	1537	1511	1433
1399578119838648750	1498	1537	1511	1433
1399578119853697305	1502	1540	1511	1433
1399578119858665868	1501	1540	1511	1433
1399578119868617606	1504	1538	1511	1432
1399578119878656125	1502	1540	1511	1433
1399578119888618546	1501	1539	1511	1431
1399578119893634077	1501	1541	1511	1434
1399578119908655209	1509	1541	1512	1433
1399578119918604888	1509	1541	1512	1433
1399578119933579735	1509	1539	1511	1432
1399578119938722897	1507	1542	1511	1433
1399578119943624727	1507	1539	1512	1433
1399578119953666324	1514	1540	1512	1433
1399578119968675324	1514	1540	1512	1433
1399578119983646486	1514	1539	1512	1432
1399578119988681938	1514	1538	1512	1433
1399578119993654943	1514	1540	1512	1433
1399578120003596896	1516	1537	1512	1434
1399578120008591129	1515	1538	1512	1432
1399578120018593729	1517	1536	1512	1432
1399578120038617312	1516	1537	1512	1432
1399578120043639756	1516	1537	1512	1434
1399578120058652188	1520	1534	1512	1433
1399578120068587584	1519	1532	1512	1432
1399578120088692651	1519	1532	1512	1433
1399578120103675093	1518	1532	1512	1433
1399578120108662514	1518	1533	1512	1432
1399578120118641318	1518	1530	1512	1433
1399578120128625509	1519	1532	1512	1432
1399578120133605649	1517	1529	1512	1433
1399578120148615236	1515	1535	1512	1432
1399578120153583032	1515	1533	1512	1432
1399578120158618201	1513	1533	1512	1433
1399578120168605262	1515	1533	1512	1431
1399578120178653629	1512	1532	1512	1434
1399578120198687243	1508	1535	1512	1433
1399578120203653681	1509	1535	1512	1433
1399578120208579934	1508	1534	1512	1433
1399578120218662762	1506	1533	1512	1433
1399578120228634665	1510	1534	1512	1432
1399578120243605763	1508	1532	1512	1433
1399578120253622374	1502	1529	1512	1433
1399578120268672512	1503	1530	1512	1433
1399578120278689051	1501	1528	1512	1433
1399578120288680245	1505	1531	1512	1432
1399578120303655701	1502	1529	1512	1433
1399578120318687072	1501	1528	1512	1433
1399578120338616165	1499	1526	1511	1433
1399578120343613288	1502	1528	1511	1433
1399578120353577515	1495	1528	1511	1433
1399578120358608359	1501	1528	1511	1433
1399578120368636041	1493	1529	1511	1432
1399578120378663035	1500	1526	1511	1433
1399578120383622053	1497	1529	1511	1432
1399578120403677747	1497	1530	1511	1433
1399578120433699419	1495	1530	1511	1432
1399578120438609862	1499	1528	1511	1433
1399578120443693540	1496	1530	1511	1431
1399578120453643365	1498	1530	1511	1433
1399578120458651113	1500	1534	1511	1432
1399578120478629943	1499	1530	1511	1433
1399578120488650728	1497	1531	1510	1431
1399578120503658137	1502	1532	1510	1433
1399578120508680836	1501	1529	1510	1433
1399578120523710738	1503	1533	1510	1432
1399578120538678799	1502	1530	1510	1433
1399578120553649121	1509	1532	1510	1433
1399578120568641035	1509	1529	1510	1432
1399578120578673372	1510	1530	1510	1432
1399578120588647414	1509	1527	1510	1433
1399578120603651630	1513	1527	1510	1433
1399578120618670773	1512	1526	1509	1433
1399578120638575113	1513	1525	1509	1433
1399578120643654902	1512	1523	1509	1433
1399578120653656179	1517	1523	1509	1433
1399578120668618924	1516	1523	1509	1434
1399578120678657092	1515	1524	1509	1432
1399578120688604423	1517	1520	1509	1435
1399578120693611309	1516	1524	1509	1433
1399578120713700770	1516	1518	1509	1434
1399578120718612557	1516	1516	1509	1432
1399578120728648535	1517	1515	1509	1435
1399578120738609222	1515	1515	1509	1432
1399578120743681772	1518	1515	1509	1435
1399578120753646398	1516	1516	1509	1433
1399578120768667011	1516	1513	1509	1434
1399578120788620714	1516	1511	1509	1435
1399578120803692488	1516	1510	1509	1435
1399578120808656652	1514	1512	1509	1434
1399578120823612083	1517	1509	1509	1435
1399578120838667683	1516	1509	1509	1435
1399578120853664698	1510	1508	1509	1435
1399578120858652419	1511	1507	1509	1436
1399578120873638895	1508	1506	1509	1435
1399578120878635957	1513	1506	1509	1435
1399578120883619573	1508	1506	1509	1435
1399578120898645184	1501	1504	1509	1436
1399578120903673186	1500	1504	1509	1436
1399578120908649824	1499	1503	1509	1436
1399578120918622992	1501	1501	1509	1436
1399578120928646245	1497	1501	1509	1436
1399578120938678532	1501	1501	1509	1436
1399578120943679164	1496	1500	1508	1437
1399578120953610594	1495	1501	1508	1436
1399578120958661184	1495	1499	1508	1436
1399578120968628448	1492	1498	1508	1436
1399578120978653842	1496	1500	1509	1437
1399578120993613615	1492	1497	1509	1437
1399578121003604796	1487	1498	1509	1437
1399578121018643957	1486	1498	1509	1436
1399578121038598418	1486	1498	1508	1436
1399578121043657640	1486	1496	1509	1437
1399578121053654953	1481	1507	1508	1436
1399578121068656298	1483	1503	1509	1436
1399578121088642033	1483	1502	1509	1437
1399578121103634831	1483	1508	1509	1436
1399578121118673878	1484	1509	1509	1436
1399578121128636900	1484	1509	1509	1436
1399578121138677434	1481	1509	1509	1436
1399578121143679225	1486	1507	1509	1436
1399578121153605640	1487	1517	1509	1433
1399578121158605663	1489	1513	1509	1436
1399578121168706999	1488	1520	1509	1436
1399578121178633857	1488	1516	1509	1435
1399578121188619364	1490	1515	1509	1435
1399578121193616693	1487	1517	1509	1434
1399578121203599390	1498	1516	1509	1436
1399578121208588890	1495	1518	1509	1434
1399578121228670457	1497	1516	1509	1434
1399578121238631117	1496	1516	1509	1433
1399578121253637257	1503	1521	1510	1434
1399578121258628104	1504	1519	1510	1435
1399578121268645680	1501	1522	1510	1433
1399578121288656574	1504	1522	1510	1434
1399578121303608272	1506	1524	1510	1433
1399578121318658249	1507	1525	1510	1433
1399578121328636786	1506	1526	1510	1432
1399578121338657601	1508	1524	1510	1433
1399578121343619296	1508	1527	1510	1433
1399578121353605215	1514	1525	1510	1432
1399578121368622253	1514	1526	1510	1432
1399578121378601086	1516	1526	1510	1434
1399578121388634081	1514	1528	1510	1431
1399578121393616457	1517	1525	1510	1433
1399578121403617096	1518	1528	1510	1432
1399578121408634329	1517	1525	1510	1432
1399578121418632748	1519	1527	1510	1432
1399578121428647048	1518	1528	1510	1431
1399578121438674420	1520	1526	1510	1433
1399578121443695058	1519	1531	1510	1432
1399578121463650505	1523	1525	1510	1433
1399578121468652469	1524	1524	1511	1432
1399578121488721236	1525	1526	1511	1432
1399578121503644275	1525	1526	1511	1432
1399578121508667363	1527	1525	1511	1433
1399578121523646291	1527	1527	1511	1432
1399578121538674880	1527	1527	1511	1432
1399578121553687474	1525	1528	1512	1432
1399578121558652619	1526	1528	1512	1432
1399578121568636000	1524	1528	1512	1433
1399578121578627409	1526	1528	1512	1432
1399578121583651925	1525	1528	1512	1433
1399578121603672123	1524	1525	1512	1432
1399578121618585898	1523	1525	1512	1433
1399578121628641963	1521	1526	1512	1433
1399578121638565739	1525	1523	1512	1432
1399578121643647437	1522	1527	1512	1433
1399578121653565793	1517	1512	1513	1433
1399578121658634604	1518	1515	1513	1433
1399578121668662933	1517	1511	1513	1432
1399578121678639437	1520	1515	1513	1433
1399578121688608944	1517	1514	1513	1432
1399578121693628519	1521	1513	1513	1434
1399578121703601582	1514	1510	1513	1432
1399578121708654596	1517	1507	1513	1434
1399578121718637353	1516	1511	1513	1433
1399578121728566836	1515	1507	1513	1433
1399578121738620063	1517	1511	1513	1434
1399578121753613652	1508	1497	1513	1434
1399578121768626761	1508	1498	1513	1433
1399578121788714747	1509	1499	1513	1433
1399578121793696836	1509	1499	1513	1435
1399578121803707812	1507	1498	1513	1432
1399578121818624892	1507	1497	1513	1434
1399578121833932212	1504	1496	1513	1435
1399578121838948902	1508	1496	1513	1434
1399578121843654123	1505	1497	1513	1434
1399578121853687071	1505	1497	1513	1435
1399578121858688904	1506	1501	1513	1434
1399578121868680378	1502	1498	1513	1435
1399578121883685488	1508	1498	1513	1435
1399578121888678709	1502	1501	1513	1434
1399578121893683683	1507	1497	1513	1435
1399578121903666814	1502	1507	1513	1434
1399578121908683118	1504	1501	1513	1435
1399578121918572009	1504	1506	1513	1435
1399578121928660373	1503	1504	1513	1434
1399578121938538474	1505	1505	1513	1436
1399578121943668171	1503	1507	1513	1434
1399578121953638784	1502	1509	1513	1435
1399578121958645038	1501	1512	1513	1435
1399578121968622095	1502	1511	1513	1435
1399578121978656981	1503	1513	1513	1435
1399578121993655130	1502	1512	1513	1434
1399578122003631403	1502	1520	1512	1435
1399578122018664336	1503	1520	1512	1435
1399578122038664564	1502	1521	1512	1435
1399578122053643676	1502	1528	1512	1435
1399578122058660333	1504	1530	1512	1435
1399578122068651726	1502	1529	1512	1435
1399578122078588842	1505	1530	1512	1436
1399578122088589792	1503	1531	1512	1434
1399578122093651295	1506	1529	1512	1435
1399578122103674380	1503	1532	1512	1436
1399578122118651706	1505	1530	1512	1435
1399578122128670537	1506	1528	1512	1433
1399578122138643041	1506	1531	1512	1436
1399578122143626376	1506	1533	1512	1435
1399578122153664975	1510	1529	1512	1436
1399578122158628664	1511	1531	1512	1435
1399578122168647217	1511	1531	1511	1435
1399578122178548362	1511	1533	1511	1435
1399578122188572537	1513	1532	1511	1434
1399578122193591906	1511	1533	1511	1435
1399578122203606773	1517	1529	1511	1434
1399578122208567297	1515	1529	1511	1435
1399578122223638168	1518	1532	1511	1434
1399578122238569735	1517	1533	1511	1435
1399578122243590027	1517	1532	1511	1435
1399578122253582075	1519	1528	1511	1434
1399578122258620769	1520	1526	1511	1435
1399578122268564572	1519	1527	1511	1434
1399578122288630813	1520	1527	1511	1434
1399578122293636592	1522	1528	1511	1434
1399578122303550585	1527	1538	1511	1435
1399578122308614340	1529	1533	1511	1433
1399578122323559057	1529	1537	1510	1434
1399578122328650025	1530	1535	1510	1434
1399578122333625587	1532	1539	1510	1434
1399578122348599754	1531	1535	1510	1434
1399578122353703206	1532	1534	1510	1434
1399578122368642387	1533	1534	1510	1434
1399578122383648549	1533	1535	1510	1433
1399578122388605325	1534	1532	1510	1434
1399578122393627247	1536	1537	1510	1434
1399578122403580779	1535	1534	1510	1434
1399578122408574679	1536	1535	1509	1435
1399578122418573157	1537	1535	1509	1432
1399578122428641057	1534	1531	1509	1435
1399578122438565091	1539	1537	1509	1433
1399578122443629115	1536	1533	1509	1434
1399578122458685252	1538	1532	1509	1434
1399578122468637314	1537	1533	1509	1435
1399578122488653108	1538	1532	1508	1434
1399578122493652712	1541	1531	1508	1434
1399578122508627131	1531	1525	1508	1434
1399578122518634500	1535	1525	1508	1434
1399578122538678680	1535	1521	1508	1434
1399578122553624674	1532	1520	1508	1435
1399578122568666013	1531	1519	1507	1434
1399578122588663162	1533	1518	1507	1433
1399578122603679975	1528	1508	1507	1434
1399578122608640181	1528	1507	1507	1436
1399578122633673730	1528	1505	1507	1434
1399578122638610090	1528	1506	1507	1434
1399578122643710583	1527	1503	1507	1434
1399578122653724384	1521	1494	1507	1435
1399578122658703789	1521	1489	1507	1433
1399578122668705171	1521	1491	1507	1435
1399578122678655027	1520	1489	1507	1433
1399578122688659314	1519	1489	1507	1435
1399578122693619940	1520	1490	1507	1434
1399578122703632792	1516	1483	1506	1435
1399578122708612222	1517	1483	1506	1434
1399578122718641182	1517	1482	1507	1434
1399578122738665074	1516	1482	1507	1434
1399578122753726507	1514	1487	1507	1435
1399578122758668512	1513	1486	1506	1435
1399578122773713014	1513	1487	1506	1434
1399578122788678594	1513	1484	1507	1434
1399578122803674319	1512	1489	1507	1435
1399578122808618966	1511	1490	1507	1435
1399578122818981430	1511	1489	1507	1436
1399578122828934524	1512	1491	1507	1435
1399578122838932124	1511	1489	1507	1436
1399578122843889843	1510	1491	1507	1436
1399578122853955641	1511	1489	1507	1436
1399578122863990384	1509	1510	1507	1436
1399578122868944624	1510	1509	1507	1435
1399578122878990494	1508	1510	1507	1436
1399578122888981582	1510	1510	1507	1435
1399578122893922191	1507	1510	1507	1436
1399578122903990508	1511	1525	1507	1436
1399578122908962595	1511	1524	1507	1436
1399578122918962745	1510	1525	1507	1436
1399578122928928570	1511	1525	1508	1436
1399578122938916001	1508	1525	1508	1436
1399578122943884875	1510	1526	1508	1436
1399578122953968320	1507	1527	1508	1437
1399578122958873767	1510	1526	1508	1436
1399578122974005075	1513	1538	1508	1437
1399578122988760815	1514	1537	1508	1436
1399578122993715724	1513	1538	1508	1436
1399578123003702558	1517	1542	1508	1436
1399578123018712688	1516	1543	1508	1436
1399578123038734639	1517	1546	1508	1436
1399578123053733135	1524	1557	1508	1436
1399578123068748759	1525	1557	1509	1436
1399578123078775483	1525	1557	1509	1436
1399578123098805693	1525	1557	1509	1436
1399578123103738589	1527	1558	1509	1436
1399578123108729726	1524	1558	1509	1436
1399578123118770973	1525	1558	1509	1436
1399578123128753982	1527	1560	1509	1435
1399578123138977246	1524	1560	1509	1436
1399578123144000879	1529	1561	1509	1435
1399578123154065725	1524	1563	1509	1435
1399578123169290415	1535	1555	1509	1435
1399578123178945384	1536	1553	1509	1434
1399578123188961397	1536	1559	1509	1435
1399578123193976422	1535	1555	1509	1434
1399578123203763853	1535	1552	1509	1435
1399578123219047036	1534	1551	1509	1434
1399578123228855344	1534	1552	1509	1433
1399578123238946120	1532	1550	1509	1434
1399578123244002034	1535	1552	1509	1433
1399578123254046548	1545	1542	1509	1433
1399578123269066083	1544	1542	1510	1433
1399578123289037102	1545	1542	1510	1433
1399578123304079859	1541	1532	1509	1433
1399578123319066005	1541	1532	1510	1433
1399578123328845669	1542	1535	1510	1433
1399578123339001064	1541	1530	1510	1431
1399578123353891684	1541	1531	1510	1432
1399578123358856896	1533	1511	1510	1432
1399578123368866517	1530	1514	1510	1431
1399578123378886982	1533	1510	1510	1431
1399578123383938641	1531	1513	1510	1431
1399578123393864689	1530	1509	1510	1430
1399578123403897098	1527	1493	1510	1432
1399578123408831989	1527	1489	1510	1429
1399578123418981898	1527	1490	1510	1431
1399578123429065607	1526	1490	1510	1430
1399578123443716745	1525	1489	1509	1431
1399578123453869196	1521	1479	1509	1430
1399578123458870347	1521	1478	1509	1430
1399578123473844124	1520	1475	1509	1430
1399578123488728994	1520	1476	1509	1430
1399578123503976064	1513	1471	1509	1430
1399578123508906151	1513	1471	1509	1431
1399578123518979259	1514	1471	1509	1430
1399578123528737888	1513	1469	1509	1431
1399578123538904347	1514	1472	1509	1430
1399578123543832927	1513	1467	1508	1431
1399578123553868196	1514	1470	1508	1430
1399578123568978367	1509	1492	1508	1431
1399578123588994392	1508	1492	1508	1431
1399578123593900921	1510	1493	1508	1430
1399578123603966340	1509	1512	1508	1432
1399578123608710918	1513	1513	1508	1431
1399578123618963216	1509	1512	1507	1431
1399578123628968096	1511	1512	1507	1432
1399578123638989401	1511	1512	1507	1431
1399578123643934956	1508	1512	1507	1432
1399578123653984740	1521	1540	1507	1431
1399578123658972481	1516	1540	1507	1432
1399578123668968948	1521	1540	1507	1432
1399578123688967267	1518	1541	1507	1432
1399578123693906213	1516	1543	1506	1432
1399578123708964456	1521	1557	1506	1433
1399578123718720801	1520	1558	1506	1433
1399578123738991090	1520	1558	1506	1433
1399578123744016738	1521	1556	1506	1433
1399578123753946453	1518	1560	1506	1433
1399578123768961937	1518	1558	1506	1434
1399578123788916713	1517	1558	1506	1434
1399578123793977120	1516	1558	1506	1433
1399578123804034387	1517	1522	1506	1434
1399578123808942445	1516	1525	1506	1434
1399578123818967188	1516	1521	1506	1434
1399578123828958334	1515	1524	1506	1434
1399578123838928956	1516	1522	1506	1434
1399578123843931470	1514	1522	1506	1435
1399578123854013633	1514	1508	1506	1434
1399578123863923062	1513	1508	1506	1435
1399578123868971191	1512	1509	1506	1434
1399578123878973895	1514	1508	1506	1435
1399578123888951723	1512	1511	1506	1435
1399578123894144971	1515	1508	1506	1435
1399578123903928499	1514	1494	1506	1435
1399578123908880119	1514	1492	1506	1435
1399578123918952624	1516	1494	1506	1435
1399578123928917936	1512	1493	1506	1435
1399578123944000591	1517	1493	1506	1436
1399578123953713980	1516	1486	1506	1435
1399578123968895970	1514	1484	1506	1436
1399578123978991660	1517	1486	1506	1436
1399578123989036560	1513	1482	1506	1435
1399578124004023318	1517	1477	1506	1436
1399578124018842735	1516	1477	1507	1437
1399578124038945734	1514	1477	1507	1438
1399578124043961721	1512	1479	1507	1437
1399578124053792280	1517	1475	1508	1437
1399578124058945225	1516	1479	1508	1437
1399578124068969581	1513	1479	1508	1438
1399578124078986889	1514	1478	1508	1439
1399578124084045312	1513	1480	1508	1436
1399578124099074749	1508	1514	1509	1438
1399578124104039528	1506	1520	1509	1437
1399578124108919314	1503	1515	1509	1438
1399578124118915146	1507	1517	1509	1439
1399578124128962564	1502	1516	1509	1437
1399578124143876412	1504	1517	1510	1438
1399578124154051067	1494	1535	1510	1440
1399578124159014807	1494	1539	1511	1438
1399578124173967005	1492	1536	1511	1438
1399578124188959271	1492	1536	1511	1439
1399578124203961548	1496	1527	1512	1439
1399578124218992372	1496	1527	1512	1440
1399578124239021239	1494	1525	1512	1440
1399578124253991492	1494	1536	1513	1440
1399578124268907088	1495	1535	1513	1439
1399578124278955133	1492	1532	1513	1440
1399578124288991726	1495	1532	1513	1439
1399578124294018704	1491	1533	1513	1440
1399578124304118206	1498	1529	1514	1439
1399578124309022149	1497	1530	1514	1440
1399578124318898785	1497	1527	1514	1440
1399578124339038612	1496	1529	1514	1440
1399578124364041758	1506	1494	1514	1440
1399578124368980387	1505	1497	1514	1440
1399578124388972238	1505	1495	1514	1441
1399578124393994429	1505	1494	1514	1440
1399578124409041598	1504	1493	1514	1442
1399578124419096617	1504	1492	1514	1441
1399578124438968516	1503	1494	1514	1442
1399578124444035924	1505	1492	1514	1440
1399578124458966687	1503	1488	1514	1441
1399578124469075207	1503	1490	1514	1442
1399578124488964898	1503	1491	1514	1443
1399578124504007734	1497	1499	1513	1442
1399578124508992229	1497	1502	1513	1442
1399578124523991154	1496	1497	1513	1443
1399578124528917802	1500	1502	1513	1441
1399578124533938910	1495	1498	1513	1444
1399578124554018156	1494	1509	1513	1442
1399578124568990607	1494	1509	1513	1443
1399578124579020153	1492	1507	1512	1443
1399578124589009055	1496	1511	1512	1443
1399578124593948222	1492	1511	1512	1443
1399578124604038392	1493	1518	1512	1444
1399578124613908707	1495	1521	1512	1443
1399578124618926752	1491	1518	1512	1444
1399578124628958719	1497	1521	1512	1444
1399578124638984805	1490	1519	1511	1444
1399578124643999975	1496	1517	1511	1444
1399578124653978035	1495	1525	1511	1443
1399578124668943975	1496	1522	1511	1444
1399578124688980730	1496	1522	1510	1445
1399578124704109790	1497	1522	1510	1444
1399578124718986495	1499	1529	1510	1444
1399578124739076978	1500	1530	1509	1445
1399578124753965159	1500	1516	1509	1444
1399578124769014531	1500	1516	1508	1445
1399578124778803874	1501	1517	1508	1444
1399578124798813654	1503	1514	1508	1445
1399578124804044832	1504	1513	1508	1445
1399578124808949829	1503	1516	1507	1445
1399578124819029886	1506	1516	1507	1444
1399578124828944449	1505	1516	1507	1444
1399578124833934558	1505	1519	1507	1445
1399578124848705015	1501	1509	1506	1445
1399578124853943540	1500	1512	1506	1444
1399578124858874287	1503	1510	1506	1444
1399578124874003227	1501	1513	1506	1444
1399578124878928783	1502	1513	1505	1444
1399578124888979805	1501	1513	1505	1446
1399578124893979425	1501	1516	1505	1445
1399578124904027725	1500	1513	1505	1445
1399578124918941182	1500	1516	1504	1445
1399578124938744975	1501	1516	1504	1445
1399578124953728504	1502	1520	1503	1445
1399578124968753715	1502	1520	1503	1445
1399578124988763025	1503	1521	1503	1446
1399578125003758173	1503	1523	1502	1445
1399578125018754721	1503	1525	1502	1445
1399578125028691056	1505	1525	1502	1447
1399578125038740714	1503	1527	1502	1445
1399578125043738611	1507	1524	1502	1447
1399578125053729486	1506	1526	1502	1445
1399578125063729981	1508	1521	1501	1447
1399578125068931065	1510	1525	1501	1446
1399578125078952059	1506	1523	1501	1445
1399578125088903104	1513	1524	1501	1448
1399578125093874694	1507	1526	1501	1446
1399578125114023363	1513	1519	1501	1447
1399578125118971013	1511	1519	1501	1448
1399578125138747423	1513	1519	1500	1448
1399578125143873601	1517	1518	1501	1447
1399578125153983764	1515	1515	1500	1447
1399578125168968604	1519	1515	1500	1448
1399578125188963287	1518	1518	1500	1448
1399578125204061594	1516	1513	1501	1448
1399578125218947799	1517	1513	1501	1448
1399578125239018368	1518	1514	1501	1448
1399578125253993312	1512	1512	1501	1448
1399578125258842187	1509	1514	1501	1448
1399578125268979095	1512	1514	1501	1449
1399578125278921142	1513	1511	1501	1447
1399578125288952322	1509	1515	1501	1448
1399578125293975810	1514	1512	1501	1448
1399578125304108683	1501	1519	1501	1448
1399578125308888583	1503	1520	1501	1448
1399578125318961073	1504	1515	1502	1447
1399578125328990045	1501	1520	1502	1448
1399578125333965625	1502	1516	1502	1447
1399578125343724506	1504	1518	1502	1448
1399578125353924079	1496	1522	1502	1447
1399578125369022577	1499	1520	1502	1447
1399578125378796282	1497	1518	1502	1447
1399578125393708952	1502	1520	1503	1447
1399578125403743708	1511	1528	1503	1447
1399578125418700947	1511	1527	1504	1446
1399578125438722486	1511	1527	1504	1446
1399578125443714763	1514	1527	1504	1445
1399578125453720840	1513	1528	1504	1446
1399578125468692277	1513	1530	1505	1445
1399578125488672288	1513	1531	1506	1445
1399578125503677382	1518	1528	1506	1445
1399578125518713075	1519	1526	1507	1445
1399578125538755246	1520	1525	1507	1444
1399578125553946516	1525	1530	1508	1445
1399578125558997162	1523	1531	1508	1443
1399578125578932875	1526	1529	1509	1444
1399578125588790311	1523	1528	1509	1443
1399578125593903726	1529	1526	1510	1444
1399578125603999681	1520	1524	1510	1442
1399578125608877087	1526	1519	1510	1444
1399578125628871135	1523	1523	1510	1441
1399578125638969872	1524	1520	1511	1443
1399578125643987340	1520	1519	1511	1442
1399578125653902456	1526	1514	1512	1444
1399578125669081984	1522	1513	1512	1442
1399578125688983258	1522	1513	1513	1441
1399578125704034539	1514	1509	1514	1441
1399578125718737192	1515	1508	1514	1440
1399578125728912075	1517	1505	1515	1441
1399578125738985537	1516	1510	1515	1439
1399578125743906189	1515	1505	1515	1440
1399578125753944648	1513	1507	1515	1440
1399578125758918307	1511	1506	1515	1438
1399578125768879459	1514	1502	1516	1440
1399578125783644400	1511	1507	1516	1438
1399578125788869540	1512	1499	1516	1439
1399578125793898391	1513	1505	1516	1438
1399578125803907081	1509	1504	1516	1437
1399578125813885159	1509	1505	1517	1439
1399578125818725413	1509	1506	1517	1436
1399578125828895758	1508	1502	1517	1439
1399578125838902633	1510	1505	1517	1437
1399578125843917848	1507	1502	1517	1438
1399578125853877393	1510	1509	1517	1437
1399578125858995007	1509	1509	1517	1436
1399578125868966619	1508	1507	1517	1437
1399578125889027794	1509	1508	1517	1436
1399578125903982796	1512	1510	1518	1436
1399578125908764806	1512	1507	1518	1436
1399578125924048259	1512	1511	1518	1435
1399578125939078945	1513	1508	1518	1436
1399578125954012449	1515	1511	1518	1435
1399578125969046103	1516	1511	1518	1435
1399578125989076421	1516	1512	1518	1435
1399578125994005961	1518	1512	1518	1437
1399578126004049427	1519	1518	1518	1434
1399578126008968852	1522	1513	1518	1436
1399578126018927858	1520	1519	1518	1435
1399578126028977242	1519	1513	1518	1435
1399578126034047165	1521	1516	1518	1436
1399578126048953661	1523	1516	1517	1434
1399578126053915225	1524	1515	1517	1437
1399578126058923398	1525	1516	1517	1435
1399578126068972663	1522	1516	1517	1437
1399578126078946422	1525	1517	1517	1436
1399578126094009035	1523	1515	1517	1436
1399578126104035171	1524	1513	1517	1436
1399578126118998534	1524	1514	1516	1436
1399578126138964359	1525	1514	1516	1437
1399578126143885498	1523	1516	1516	1437
1399578126154014685	1526	1514	1516	1437
1399578126168932762	1522	1504	1516	1437
1399578126188998777	1524	1504	1515	1437
1399578126204007060	1524	1501	1515	1438
1399578126218876120	1526	1500	1515	1438
1399578126229014267	1524	1500	1514	1437
1399578126238895807	1527	1500	1514	1438
1399578126244056946	1523	1501	1514	1437
1399578126253968460	1527	1494	1514	1438
1399578126258955173	1523	1494	1514	1438
1399578126268990791	1525	1495	1514	1438
1399578126284027852	1524	1493	1514	1439
1399578126288998577	1523	1495	1514	1438
1399578126304038682	1522	1488	1513	1439
1399578126313733476	1524	1489	1513	1439
1399578126318747126	1520	1487	1513	1439
1399578126329178495	1524	1491	1513	1439
1399578126338903919	1521	1488	1513	1440
1399578126343885124	1523	1490	1513	1439
1399578126354017149	1522	1490	1513	1440
1399578126368926378	1523	1492	1513	1440
1399578126378982675	1519	1491	1513	1441
1399578126388962658	1525	1495	1513	1440
1399578126404050431	1519	1497	1513	1440
1399578126419145445	1519	1498	1513	1441
1399578126428924455	1523	1499	1513	1439
1399578126438993202	1517	1498	1513	1442
1399578126454001768	1520	1511	1513	1440
1399578126468979732	1521	1512	1513	1442
1399578126473979012	1520	1511	1513	1440
1399578126478982050	1518	1510	1513	1441
1399578126489033489	1522	1513	1513	1441
1399578126493997559	1516	1511	1513	1442
1399578126504003135	1519	1523	1513	1441
1399578126518850746	1516	1523	1513	1442
1399578126539008967	1516	1524	1513	1441
1399578126543961779	1519	1525	1512	1441
1399578126554029770	1513	1530	1512	1441
1399578126558732041	1519	1528	1512	1442
1399578126568938384	1515	1532	1512	1440
1399578126578801758	1517	1528	1512	1442
1399578126588954296	1519	1532	1512	1441
1399578126593918049	1515	1529	1512	1441
1399578126604006265	1523	1532	1512	1442
1399578126608898315	1517	1533	1512	1440
1399578126618904190	1522	1530	1512	1442
1399578126638948315	1520	1533	1512	1441
1399578126643985669	1521	1536	1512	1441
1399578126653896652	1521	1531	1511	1440
1399578126668915804	1522	1534	1511	1441
1399578126688960724	1522	1533	1511	1441
1399578126703883222	1528	1516	1511	1441
1399578126719077091	1527	1515	1511	1441
1399578126729014777	1527	1516	1511	1439
1399578126749023028	1526	1512	1510	1441
1399578126754016535	1524	1510	1510	1441
1399578126758989123	1525	1513	1510	1441
1399578126768986467	1524	1513	1510	1440
1399578126778932370	1524	1511	1510	1442
1399578126798952949	1520	1501	1510	1441
1399578126803894481	1522	1503	1510	1441
1399578126808890884	1519	1500	1510	1441
1399578126818972017	1521	1501	1510	1441
1399578126828964357	1521	1501	1510	1440
1399578126838986779	1519	1500	1509	1442
1399578126843923975	1522	1502	1509	1439
1399578126854040753	1516	1493	1509	1441
1399578126868956139	1517	1495	1509	1440
1399578126888950377	1517	1495	1509	1441
1399578126893866862	1516	1493	1509	1442
1399578126904005830	1514	1495	1509	1440
1399578126919041394	1512	1493	1509	1441
1399578126939081779	1512	1492	1509	1440
1399578126953971944	1511	1494	1509	1440
1399578126968838255	1511	1493	1509	1440
1399578126978958386	1511	1494	1509	1440
1399578126989059170	1510	1493	1509	1439
1399578126993974935	1510	1492	1509	1441
1399578127003741412	1512	1501	1509	1439
1399578127008743222	1512	1497	1509	1441
1399578127018710699	1512	1502	1509	1439
1399578127028740364	1511	1497	1509	1440
1399578127038735894	1512	1501	1509	1440
1399578127043777997	1511	1499	1509	1439
1399578127053739200	1514	1499	1509	1441
1399578127058697182	1515	1501	1509	1438
1399578127068688461	1514	1497	1509	1441
1399578127078698285	1516	1502	1509	1439
1399578127093743179	1514	1497	1509	1440
1399578127103700326	1522	1512	1509	1439
1399578127118704274	1522	1512	1509	1439
1399578127128699507	1521	1509	1509	1440
1399578127138697148	1523	1514	1509	1439
1399578127153752984	1529	1516	1509	1439
1399578127163990621	1529	1517	1509	1438
1399578127168977058	1528	1516	1509	1441
1399578127188968010	1528	1517	1509	1439
1399578127204035039	1529	1522	1509	1439
1399578127208886140	1530	1523	1509	1440
1399578127218959592	1530	1522	1509	1438
1399578127228970476	1529	1522	1509	1441
1399578127238909704	1531	1525	1509	1438
1399578127244019830	1529	1522	1509	1440
1399578127253774851	1530	1527	1509	1439
1399578127263917502	1528	1524	1509	1439
1399578127269011850	1529	1527	1509	1439
1399578127288974672	1530	1526	1508	1438
1399578127298978828	1530	1529	1508	1437
1399578127303902593	1527	1526	1508	1439
1399578127308887038	1529	1530	1508	1438
1399578127318919990	1527	1526	1508	1439
1399578127328910610	1528	1529	1508	1439
1399578127339028868	1528	1528	1508	1437
1399578127353931018	1524	1522	1508	1438
1399578127358929007	1523	1521	1508	1439
1399578127373952063	1525	1524	1508	1437
