#Time	 Roll 	 Pitch 	 Yaw 	 Thrust
1399582094008389224	1520	1516	1926	1105
1399582094108719209	1520	1516	1926	1105
1399582094208986207	1520	1516	1926	1105
1399582094309241322	1520	1516	1926	1105
1399582094409509113	1520	1516	1926	1105
1399582094509771557	1520	1516	1926	1105
1399582094610013929	1520	1516	1926	1105
1399582094710266354	1520	1516	1926	1105
1399582094810493847	1520	1516	1926	1105
1399582094910736507	1520	1516	1926	1105
1399582095010978414	1520	1516	1926	1105
1399582095111187445	1520	1516	1926	1105
1399582095211419458	1520	1516	1926	1105
1399582095311651651	1520	1516	1926	1105
1399582095411867990	1520	1516	1926	1105
1399582095512084522	1520	1516	1926	1105
1399582095612302295	1520	1516	1926	1105
1399582095712525350	1520	1516	1926	1105
1399582095812750007	1520	1516	1926	1105
1399582095912966748	1520	1516	1926	1105
1399582096013222942	1520	1516	1926	1105
1399582096113432780	1520	1516	1926	1105
1399582096213668992	1520	1516	1926	1105
1399582096313906206	1520	1516	1926	1105
1399582096414127875	1520	1516	1926	1105
1399582096514361244	1520	1516	1926	1105
1399582096614569057	1520	1516	1926	1105
1399582096714763342	1520	1516	1926	1105
1399582096814966602	1520	1516	1926	1105
1399582096915211725	1520	1516	1926	1105
1399582097015504721	1520	1516	1513	1105
1399582101672422556	1520	1516	1926	1105
1399582101772606550	1520	1516	1926	1105
1399582101872785968	1520	1516	1926	1105
1399582101972946162	1520	1516	1926	1105
1399582102073098068	1520	1516	1926	1105
1399582102173252681	1520	1516	1926	1105
1399582102273404420	1520	1516	1926	1105
1399582102373561354	1520	1516	1926	1105
1399582102473694754	1520	1516	1926	1105
1399582102573837580	1520	1516	1926	1105
1399582102673977883	1520	1516	1926	1105
1399582102774113102	1520	1516	1926	1105
1399582102874246843	1520	1516	1926	1105
1399582102974503997	1520	1516	1926	1105
1399582103074734729	1520	1516	1926	1105
1399582103174989684	1520	1516	1926	1105
1399582103275211671	1520	1516	1926	1105
1399582103375440881	1520	1516	1926	1105
1399582103475673869	1520	1516	1926	1105
1399582103575918538	1520	1516	1926	1105
1399582103676205149	1520	1516	1926	1105
1399582103776468011	1520	1516	1926	1105
1399582103876734672	1520	1516	1926	1105
1399582103977030870	1520	1516	1926	1105
1399582104077283896	1520	1516	1926	1105
1399582104177560727	1520	1516	1926	1105
1399582104277823493	1520	1516	1926	1105
1399582104378088253	1520	1516	1926	1105
1399582104478327855	1520	1516	1926	1105
1399582104578544223	1520	1516	1926	1105
1399582104678762159	1520	1516	1513	1105
1399582111237993181	1519	1525	1516	1378
1399582111252963473	1518	1525	1516	1378
1399582111283044553	1514	1526	1516	1378
1399582111298074496	1515	1525	1516	1378
1399582111313028676	1518	1527	1516	1379
1399582111328046358	1512	1526	1516	1381
1399582111363179754	1517	1526	1516	1380
1399582111383056887	1512	1528	1516	1380
1399582111398035191	1512	1526	1516	1380
1399582111412987736	1515	1527	1516	1380
1399582111433070888	1516	1524	1516	1382
1399582111448106202	1518	1526	1516	1382
1399582111463098046	1513	1526	1516	1382
1399582111483072208	1518	1527	1516	1382
1399582111503027592	1519	1527	1516	1382
1399582111533079548	1516	1526	1516	1434
1399582111548085414	1515	1525	1516	1384
1399582111573093833	1518	1527	1516	1384
1399582111598119640	1516	1525	1516	1384
1399582111612988954	1518	1524	1516	1384
1399582111633133395	1517	1527	1516	1434
1399582111648123091	1517	1528	1516	1385
1399582111663132434	1514	1526	1516	1385
1399582111678014007	1513	1524	1516	1385
1399582111698091675	1518	1526	1516	1385
1399582111713055795	1517	1527	1516	1385
1399582111733065359	1518	1528	1516	1434
1399582111747996223	1516	1527	1516	1387
1399582111763042306	1519	1530	1516	1388
1399582111783034623	1518	1529	1516	1388
1399582111803002444	1521	1525	1516	1389
1399582111823071928	1517	1527	1516	1435
1399582111837993459	1521	1528	1516	1389
1399582111858040318	1511	1532	1516	1388
1399582111867993630	1518	1531	1516	1388
1399582111888033168	1518	1529	1516	1388
1399582111903021013	1517	1530	1516	1388
1399582111917979117	1517	1528	1516	1388
1399582111938022854	1516	1519	1516	1391
1399582111953033893	1514	1520	1516	1391
1399582111968040085	1513	1522	1516	1390
1399582111998067841	1504	1525	1516	1389
1399582112013055924	1503	1531	1516	1389
1399582112033020851	1515	1527	1516	1435
1399582112048043623	1506	1524	1516	1392
1399582112063057865	1512	1524	1517	1392
1399582112078047968	1511	1526	1516	1392
1399582112098004155	1509	1524	1516	1392
1399582112113049617	1507	1527	1516	1394
1399582112133046115	1510	1528	1517	1436
1399582112143034705	1502	1520	1517	1398
1399582112163093550	1501	1526	1517	1399
1399582112183034579	1511	1515	1517	1400
1399582112203057481	1515	1520	1516	1399
1399582112218050556	1517	1529	1516	1398
1399582112238058811	1525	1533	1516	1401
1399582112263027281	1525	1529	1516	1403
1399582112283040137	1527	1541	1516	1401
1399582112302998443	1533	1526	1516	1406
1399582112318057005	1530	1535	1516	1407
1399582112338017310	1526	1519	1516	1408
1399582112352993622	1538	1521	1516	1408
1399582112368105315	1535	1527	1516	1407
1399582112388094641	1531	1531	1516	1405
1399582112403036512	1529	1532	1516	1404
1399582112418018725	1533	1526	1516	1404
1399582112448067500	1525	1523	1516	1405
1399582112463102631	1523	1528	1516	1404
1399582112483046928	1517	1533	1516	1403
1399582112503052944	1519	1527	1516	1405
1399582112533077374	1512	1522	1516	1437
1399582112548040470	1508	1528	1516	1407
1399582112568086272	1508	1522	1516	1407
1399582112588018653	1508	1521	1516	1408
1399582112603120083	1508	1524	1516	1407
1399582112623044549	1514	1529	1517	1438
1399582112638088607	1515	1524	1517	1409
1399582112653069622	1510	1526	1516	1409
1399582112668063237	1510	1527	1516	1409
1399582112688071484	1515	1523	1516	1409
1399582112713059700	1515	1527	1516	1409
1399582112733049504	1517	1530	1517	1439
1399582112748096431	1515	1536	1517	1411
1399582112768063213	1514	1529	1516	1413
1399582112788061995	1517	1527	1516	1412
1399582112803046757	1522	1532	1516	1412
1399582112818035422	1521	1532	1516	1413
1399582112838056402	1520	1529	1516	1416
1399582112858074927	1519	1529	1516	1417
1399582112868023588	1522	1521	1516	1418
1399582112888017559	1519	1522	1516	1418
1399582112902988338	1524	1528	1516	1416
1399582112917962166	1522	1531	1516	1416
1399582112938021965	1522	1530	1517	1418
1399582112952981414	1525	1529	1517	1418
1399582112968038330	1521	1520	1517	1419
1399582112998043251	1518	1527	1517	1419
1399582113013042273	1516	1536	1517	1415
1399582113038021827	1517	1514	1517	1421
1399582113053040961	1512	1521	1516	1420
1399582113073045539	1513	1522	1516	1418
1399582113088045123	1516	1527	1516	1419
1399582113102978061	1514	1528	1516	1419
1399582113123018241	1517	1522	1516	1442
1399582113138023563	1507	1521	1516	1422
1399582113153033503	1504	1526	1516	1421
1399582113168041007	1507	1525	1516	1421
1399582113198108868	1503	1517	1516	1425
1399582113213084776	1506	1524	1517	1424
1399582113233052477	1506	1528	1516	1443
1399582113253052040	1505	1518	1516	1429
1399582113283048892	1508	1523	1516	1427
1399582113298045238	1511	1524	1516	1427
1399582113313023408	1514	1524	1515	1428
1399582113337981840	1519	1526	1515	1428
1399582113363016122	1518	1523	1515	1431
1399582113383056062	1514	1525	1515	1430
1399582113403051737	1519	1526	1516	1430
1399582113433061004	1519	1530	1516	1444
1399582113448112740	1518	1534	1516	1430
1399582113463046880	1527	1528	1517	1431
1399582113498087337	1521	1529	1518	1431
1399582113513039462	1517	1525	1518	1431
1399582113528080032	1512	1526	1518	1432
1399582113563072155	1515	1530	1518	1431
1399582113583062031	1509	1532	1518	1430
1399582113593040443	1506	1530	1518	1430
1399582113613067988	1505	1522	1518	1430
1399582113633031704	1510	1528	1518	1446
1399582113648054577	1507	1524	1518	1430
1399582113663009520	1506	1524	1519	1428
1399582113683035612	1502	1531	1519	1427
1399582113703040150	1503	1518	1519	1426
1399582113723034291	1510	1525	1519	1447
1399582113738042036	1509	1518	1519	1427
1399582113753017246	1502	1522	1519	1424
1399582113768109566	1509	1530	1518	1422
1399582113793066793	1507	1530	1518	1421
1399582113803071167	1515	1527	1518	1422
1399582113818056584	1509	1506	1518	1424
1399582113843088587	1508	1514	1518	1421
1399582113852996427	1500	1518	1518	1417
1399582113873056662	1499	1527	1518	1417
1399582113888048736	1484	1532	1517	1416
1399582113903014992	1480	1528	1517	1416
1399582113933069639	1494	1521	1517	1413
1399582113948047940	1494	1526	1516	1414
1399582113968048088	1502	1523	1515	1414
1399582113988064827	1486	1533	1515	1413
1399582114013115927	1493	1525	1514	1412
1399582114028046932	1493	1530	1514	1414
1399582114048058502	1492	1527	1513	1411
1399582114063087249	1490	1529	1513	1414
1399582114083038872	1490	1526	1512	1415
1399582114098037924	1489	1529	1512	1413
1399582114113046988	1501	1529	1512	1417
1399582114133043499	1487	1530	1511	1417
1399582114153031024	1496	1533	1511	1417
1399582114168093918	1493	1525	1511	1421
1399582114198075435	1503	1545	1510	1420
1399582114213055982	1503	1550	1510	1419
1399582114238031308	1496	1543	1510	1422
1399582114253014059	1500	1543	1510	1422
1399582114268045280	1514	1558	1510	1422
1399582114288088131	1503	1541	1509	1425
1399582114313056518	1507	1542	1509	1426
1399582114338125890	1507	1537	1509	1428
1399582114353003292	1513	1539	1509	1429
1399582114368068516	1506	1531	1509	1430
1399582114398065647	1504	1540	1509	1430
1399582114413094258	1511	1543	1509	1432
1399582114433081405	1503	1530	1509	1432
1399582114448067875	1498	1524	1509	1432
1399582114468012964	1506	1533	1509	1433
1399582114488008555	1500	1538	1509	1433
1399582114503046748	1508	1535	1509	1431
1399582114533056810	1511	1540	1509	1434
1399582114548036565	1510	1533	1509	1434
1399582114563043077	1516	1545	1510	1434
1399582114583083783	1512	1555	1510	1433
1399582114598052421	1514	1547	1510	1435
1399582114623100561	1515	1546	1510	1436
1399582114638058005	1515	1545	1510	1435
1399582114653075144	1520	1549	1510	1435
1399582114683062588	1519	1545	1511	1437
1399582114713022648	1517	1539	1511	1436
1399582114728047601	1514	1540	1511	1438
1399582114743000122	1517	1538	1512	1437
1399582114763058667	1504	1532	1512	1437
1399582114783046726	1516	1537	1512	1436
1399582114793060599	1514	1534	1512	1437
1399582114813092163	1515	1528	1512	1437
1399582114833034522	1516	1530	1512	1437
1399582114843024547	1512	1530	1512	1439
1399582114868114725	1514	1523	1512	1438
1399582114883086050	1522	1534	1512	1436
1399582114898056772	1524	1537	1512	1436
1399582114918065230	1518	1534	1513	1438
1399582114933061508	1514	1534	1513	1438
1399582114953043144	1515	1532	1513	1438
1399582114973085603	1513	1536	1513	1438
1399582114988060844	1517	1534	1513	1439
1399582115013088846	1517	1532	1513	1438
1399582115033051816	1520	1537	1513	1438
1399582115048134611	1516	1532	1513	1438
1399582115063024672	1513	1531	1514	1440
1399582115078025803	1512	1530	1514	1440
1399582115098036334	1516	1530	1514	1439
1399582115113058555	1514	1535	1514	1438
1399582115133121131	1514	1529	1514	1438
1399582115153040834	1517	1525	1514	1438
1399582115168063004	1515	1527	1515	1438
1399582115188058128	1517	1533	1515	1436
1399582115203017313	1517	1529	1515	1438
1399582115218110780	1513	1525	1515	1438
1399582115238023495	1517	1523	1515	1440
1399582115253051512	1515	1516	1515	1441
1399582115268063143	1518	1517	1515	1439
1399582115288009740	1514	1529	1515	1438
1399582115303021752	1514	1532	1515	1437
1399582115323058523	1514	1539	1516	1437
1399582115338055410	1514	1533	1516	1439
1399582115353039844	1515	1522	1516	1440
1399582115368022864	1513	1519	1516	1440
1399582115398116483	1510	1522	1516	1439
1399582115413098112	1514	1520	1516	1440
1399582115433048631	1511	1514	1516	1440
1399582115453090584	1511	1523	1516	1438
1399582115467991269	1508	1518	1517	1440
1399582115488077820	1503	1515	1517	1441
1399582115513102924	1504	1522	1517	1439
1399582115533068363	1504	1525	1517	1439
1399582115558050227	1505	1520	1517	1438
1399582115568033797	1506	1525	1517	1438
1399582115588056153	1508	1532	1517	1439
1399582115603065143	1509	1528	1517	1439
1399582115618059439	1507	1527	1517	1439
1399582115638050952	1506	1523	1517	1438
1399582115652973514	1509	1530	1517	1437
1399582115683041079	1506	1526	1517	1438
1399582115698076574	1501	1524	1517	1438
1399582115713011414	1508	1532	1516	1436
1399582115728081178	1507	1534	1516	1437
1399582115753042554	1510	1520	1516	1439
1399582115768091291	1512	1528	1516	1438
1399582115793056785	1504	1529	1516	1437
1399582115803054702	1503	1527	1516	1438
1399582115817994599	1505	1528	1516	1439
1399582115838053322	1506	1523	1516	1439
1399582115852992071	1504	1517	1516	1440
1399582115868032585	1505	1520	1516	1440
1399582115888017378	1510	1512	1516	1440
1399582115913045559	1509	1512	1516	1440
1399582115932983359	1513	1518	1516	1441
1399582115948038442	1511	1514	1516	1442
1399582115963048717	1509	1515	1516	1442
1399582115983031448	1505	1516	1516	1442
1399582115997991800	1504	1524	1516	1441
1399582116013073569	1504	1527	1516	1440
1399582116033030260	1507	1527	1516	1441
1399582116048081392	1507	1520	1516	1442
1399582116063003361	1507	1514	1516	1443
1399582116088057896	1507	1523	1517	1443
1399582116103010777	1507	1522	1517	1444
1399582116117997261	1507	1516	1517	1445
1399582116138018114	1510	1518	1517	1444
1399582116153009732	1507	1520	1517	1443
1399582116183071766	1509	1513	1517	1443
1399582116198074121	1512	1518	1517	1444
1399582116212988143	1511	1522	1517	1444
1399582116228004088	1509	1521	1518	1444
1399582116243052921	1511	1513	1518	1444
1399582116262980676	1510	1513	1518	1445
1399582116288042859	1508	1509	1518	1445
1399582116303033751	1513	1509	1518	1444
1399582116318032647	1509	1517	1517	1443
1399582116337989694	1512	1531	1517	1444
1399582116353033483	1515	1525	1517	1444
1399582116383131000	1510	1523	1517	1444
1399582116398054971	1513	1532	1517	1442
1399582116413077210	1514	1524	1517	1444
1399582116438057143	1517	1532	1517	1442
1399582116453033124	1512	1530	1516	1443
1399582116467963849	1511	1523	1516	1445
1399582116498081478	1516	1514	1516	1445
1399582116513025831	1515	1516	1516	1442
1399582116533076506	1520	1515	1516	1444
1399582116548024881	1522	1514	1516	1445
1399582116563163590	1518	1511	1516	1445
1399582116583052741	1519	1509	1516	1445
1399582116598022327	1520	1504	1515	1446
1399582116613037253	1519	1501	1515	1446
1399582116633019229	1517	1512	1515	1445
1399582116653051413	1518	1502	1515	1447
1399582116668040760	1515	1504	1515	1446
1399582116688099988	1518	1517	1515	1444
1399582116703064804	1523	1522	1515	1442
1399582116728060568	1520	1523	1515	1442
1399582116738058551	1523	1517	1515	1445
1399582116753040491	1524	1507	1515	1444
1399582116783096664	1518	1510	1515	1444
1399582116798064178	1525	1508	1515	1443
1399582116812959411	1518	1505	1515	1445
1399582116833080876	1519	1510	1515	1445
1399582116848015376	1525	1508	1515	1443
1399582116863031155	1517	1512	1515	1443
1399582116882993066	1524	1514	1515	1444
1399582116903023084	1523	1517	1514	1443
1399582116933054014	1514	1516	1514	1443
1399582116948018294	1517	1521	1514	1442
1399582116963085796	1516	1518	1514	1442
1399582116983075559	1514	1519	1514	1443
1399582116998070220	1514	1514	1514	1443
1399582117013047610	1519	1513	1515	1443
1399582117033050570	1512	1520	1514	1443
1399582117048168079	1511	1529	1514	1442
1399582117068091935	1508	1526	1515	1443
1399582117087994644	1508	1513	1515	1443
1399582117102977450	1510	1521	1515	1443
1399582117133017981	1501	1513	1515	1444
1399582117148074121	1500	1515	1515	1445
1399582117163082116	1492	1520	1515	1445
1399582117188041823	1502	1516	1515	1446
1399582117213046125	1502	1521	1515	1447
1399582117233027457	1502	1520	1516	1449
1399582117248017247	1501	1522	1516	1448
1399582117263041459	1501	1529	1516	1448
1399582117283035295	1509	1526	1516	1448
1399582117303038659	1501	1528	1516	1450
1399582117323038673	1502	1527	1516	1449
1399582117348044502	1499	1525	1517	1451
1399582117367997211	1496	1513	1517	1452
1399582117398074631	1492	1523	1517	1450
1399582117413015836	1492	1520	1517	1452
1399582117443087856	1489	1527	1518	1450
1399582117463069716	1485	1532	1518	1451
1399582117478036554	1493	1529	1518	1449
1399582117498062270	1482	1534	1518	1453
1399582117513062070	1485	1517	1518	1451
1399582117528030661	1474	1532	1519	1451
1399582117548047854	1491	1531	1519	1451
1399582117563056860	1481	1531	1519	1451
1399582117583066026	1486	1522	1519	1452
1399582117598040134	1487	1513	1519	1454
1399582117618033087	1483	1527	1519	1454
1399582117638019109	1486	1519	1519	1456
1399582117653036753	1488	1527	1519	1456
1399582117668014788	1486	1531	1518	1453
1399582117688011845	1487	1535	1518	1455
1399582117703008196	1488	1528	1518	1454
1399582117723091475	1489	1520	1518	1458
1399582117738008634	1476	1538	1518	1455
1399582117753054178	1486	1548	1518	1453
1399582117773008480	1487	1540	1517	1454
1399582117788051278	1488	1531	1517	1458
1399582117802977156	1486	1522	1517	1456
1399582117817952745	1488	1526	1517	1457
1399582117837989419	1488	1538	1517	1455
1399582117863016020	1490	1535	1516	1455
1399582117888050863	1487	1526	1516	1457
1399582117903118883	1490	1525	1516	1458
1399582117918355268	1486	1536	1516	1457
1399582117938333502	1495	1533	1515	1456
1399582117953250871	1499	1531	1515	1456
1399582117968047929	1495	1532	1515	1457
1399582117988301098	1498	1527	1515	1456
1399582118008232789	1501	1530	1515	1456
1399582118018210526	1505	1532	1514	1456
1399582118038242919	1498	1535	1514	1456
1399582118053221447	1495	1530	1514	1459
1399582118068193685	1496	1529	1514	1458
1399582118098279107	1507	1527	1514	1458
1399582118113205441	1506	1517	1513	1460
1399582118133289343	1510	1524	1513	1458
1399582118148295494	1509	1540	1513	1455
1399582118168136239	1513	1522	1512	1458
1399582118188521223	1511	1537	1512	1455
1399582118203126692	1521	1541	1512	1453
1399582118218318385	1514	1537	1512	1456
1399582118238182259	1514	1527	1511	1457
1399582118253313509	1521	1526	1511	1457
1399582118273217176	1521	1530	1511	1455
1399582118288351151	1512	1524	1510	1455
1399582118303269126	1518	1534	1510	1454
1399582118333282006	1507	1534	1510	1456
1399582118348342761	1512	1529	1509	1456
1399582118363199174	1508	1535	1509	1455
1399582118378220308	1506	1536	1509	1456
1399582118393343865	1513	1532	1509	1459
1399582118413439534	1519	1528	1509	1456
1399582118433343796	1508	1528	1509	1456
1399582118448378759	1503	1538	1508	1455
1399582118463386454	1512	1538	1508	1454
1399582118483326717	1520	1531	1508	1458
1399582118498350058	1517	1516	1508	1460
1399582118513348351	1521	1519	1508	1459
1399582118533339896	1517	1525	1508	1459
1399582118553330208	1521	1526	1508	1458
1399582118568334802	1515	1521	1508	1458
1399582118598341952	1521	1518	1508	1458
1399582118613364094	1521	1517	1508	1457
1399582118638342578	1529	1521	1508	1456
1399582118653299932	1521	1507	1508	1457
1399582118668368845	1525	1513	1508	1457
1399582118688357187	1530	1513	1508	1457
1399582118708313112	1529	1512	1508	1456
1399582118718276069	1529	1517	1508	1453
1399582118738346547	1526	1533	1509	1452
1399582118753182504	1525	1530	1509	1453
1399582118768308626	1521	1521	1509	1455
1399582118788119773	1520	1512	1509	1455
1399582118803283468	1530	1515	1509	1453
1399582118833360588	1518	1519	1509	1452
1399582118848285824	1513	1518	1509	1453
1399582118873050912	1517	1520	1509	1451
1399582118898050684	1524	1514	1509	1450
1399582118913130691	1521	1521	1510	1449
1399582118928139231	1517	1516	1510	1449
1399582118948152163	1519	1503	1510	1449
1399582118963267710	1521	1509	1510	1448
1399582118983134692	1512	1519	1510	1447
1399582118998060787	1514	1516	1510	1446
1399582119018100568	1514	1514	1510	1445
1399582119038210129	1506	1515	1510	1446
1399582119063433293	1507	1509	1510	1445
1399582119083431324	1518	1504	1510	1445
1399582119103274083	1512	1510	1510	1442
1399582119123265733	1521	1504	1510	1443
1399582119148328486	1525	1512	1510	1442
1399582119163446921	1524	1516	1510	1440
1399582119183225484	1516	1517	1510	1442
1399582119198100879	1520	1509	1511	1442
1399582119213102443	1525	1510	1511	1442
1399582119238069338	1513	1519	1511	1441
1399582119263097804	1521	1515	1511	1442
1399582119283092344	1519	1509	1511	1441
1399582119298008781	1520	1515	1512	1442
1399582119318172417	1512	1514	1512	1442
1399582119338154132	1518	1510	1512	1443
1399582119353259266	1517	1511	1513	1442
1399582119373376333	1518	1517	1513	1442
1399582119388341499	1524	1528	1513	1442
1399582119408284384	1521	1517	1513	1444
1399582119418322795	1517	1515	1514	1445
1399582119438323945	1525	1512	1514	1447
1399582119453305839	1519	1511	1514	1445
1399582119468328601	1524	1519	1515	1444
1399582119488335091	1530	1521	1515	1444
1399582119513213884	1525	1518	1515	1445
1399582119538144814	1522	1519	1516	1445
1399582119563128124	1526	1521	1516	1445
1399582119588121420	1529	1526	1516	1446
1399582119613232876	1525	1523	1517	1445
1399582119643148873	1524	1523	1517	1446
1399582119653123670	1521	1528	1517	1445
1399582119673424646	1525	1530	1517	1447
1399582119688357472	1521	1529	1517	1445
1399582119703134761	1518	1534	1517	1448
1399582119723363421	1520	1534	1517	1446
1399582119738297101	1511	1540	1517	1446
1399582119753241458	1529	1533	1517	1447
1399582119768306103	1522	1533	1516	1446
1399582119788362572	1517	1541	1516	1448
1399582119803268597	1520	1542	1516	1448
1399582119818363713	1518	1542	1516	1450
1399582119838086243	1517	1527	1515	1452
1399582119863071461	1517	1537	1515	1451
1399582119883111067	1523	1536	1515	1452
1399582119908107208	1521	1534	1514	1452
1399582119918068641	1526	1544	1514	1451
1399582119938041642	1519	1532	1514	1453
1399582119952999490	1522	1533	1514	1455
1399582119973117570	1522	1530	1513	1455
1399582119988072384	1511	1534	1513	1455
1399582120002977892	1515	1540	1513	1455
1399582120033038980	1514	1543	1513	1455
1399582120048080888	1512	1544	1513	1455
1399582120063019847	1508	1545	1513	1455
1399582120087986920	1510	1542	1513	1454
1399582120102994357	1509	1545	1513	1454
1399582120117966462	1508	1547	1513	1454
1399582120138015144	1505	1547	1513	1454
1399582120153094488	1506	1541	1513	1455
1399582120167996527	1504	1539	1513	1455
1399582120188016160	1502	1540	1512	1455
1399582120203030154	1503	1543	1512	1454
1399582120223054099	1499	1549	1512	1455
1399582120238007618	1501	1537	1512	1454
1399582120263015936	1500	1540	1512	1455
1399582120283039699	1496	1543	1512	1456
1399582120298090480	1497	1536	1512	1456
1399582120333056146	1495	1542	1511	1454
1399582120348037559	1500	1549	1511	1455
1399582120363041064	1501	1540	1511	1455
1399582120383016533	1491	1532	1510	1457
1399582120398068882	1489	1532	1510	1457
1399582120413047923	1483	1536	1510	1456
1399582120438017126	1503	1527	1509	1458
1399582120452978020	1491	1534	1509	1458
1399582120483064894	1490	1535	1509	1457
1399582120498031987	1495	1524	1509	1458
1399582120513038441	1487	1535	1508	1458
1399582120533092396	1502	1528	1508	1455
1399582120548038690	1504	1531	1508	1455
1399582120568054894	1501	1523	1508	1457
1399582120588110487	1489	1525	1507	1458
1399582120603053829	1484	1541	1507	1454
1399582120623050813	1485	1532	1507	1455
1399582120638114907	1486	1525	1507	1455
1399582120658057494	1483	1518	1506	1459
1399582120668032684	1488	1517	1506	1456
1399582120688063201	1486	1528	1506	1456
1399582120703086037	1498	1527	1506	1455
1399582120733044977	1486	1516	1506	1457
1399582120748029404	1486	1517	1506	1455
1399582120763041366	1486	1521	1506	1456
1399582120788024782	1478	1515	1506	1456
1399582120803038514	1497	1510	1506	1456
1399582120823047722	1478	1511	1506	1454
1399582120838016461	1498	1509	1506	1458
1399582120863023946	1494	1509	1506	1456
1399582120893085116	1504	1509	1506	1456
1399582120902961076	1497	1510	1506	1455
1399582120922997641	1501	1495	1506	1458
1399582120937992650	1494	1507	1507	1457
1399582120953026104	1500	1507	1507	1454
1399582120968167929	1495	1514	1507	1455
1399582120988028617	1500	1519	1507	1453
1399582121003030867	1503	1506	1507	1455
1399582121033028546	1490	1513	1508	1455
1399582121047984533	1502	1514	1508	1455
1399582121067992160	1484	1506	1508	1456
1399582121098020582	1507	1499	1509	1456
1399582121113044169	1499	1496	1509	1457
1399582121133049737	1499	1504	1509	1455
1399582121147989874	1507	1497	1509	1456
1399582121163019037	1504	1506	1509	1457
1399582121183016540	1502	1499	1510	1457
1399582121197995001	1514	1501	1510	1457
1399582121213092191	1497	1502	1510	1458
1399582121233011170	1508	1507	1510	1459
1399582121252977096	1504	1505	1511	1459
1399582121283038572	1514	1504	1511	1458
1399582121298057100	1514	1504	1512	1457
1399582121313157148	1516	1506	1512	1458
1399582121333115099	1513	1508	1513	1458
1399582121343072849	1522	1501	1513	1458
1399582121363091373	1517	1504	1513	1458
1399582121383077746	1514	1500	1514	1458
1399582121393012141	1515	1505	1514	1456
1399582121418005678	1515	1508	1515	1458
1399582121438021968	1508	1498	1515	1457
1399582121453014928	1510	1505	1515	1457
1399582121473138556	1509	1508	1515	1455
1399582121488039089	1505	1516	1515	1455
1399582121513048084	1501	1515	1515	1456
1399582121533059183	1499	1529	1515	1455
1399582121548060079	1498	1531	1515	1456
1399582121563039067	1494	1523	1515	1458
1399582121578028298	1495	1518	1515	1460
1399582121593014608	1509	1513	1515	1460
1399582121612969848	1511	1519	1515	1459
1399582121633061641	1515	1515	1515	1459
1399582121643022328	1507	1517	1515	1459
1399582121663014734	1505	1521	1515	1458
1399582121683085583	1509	1530	1515	1458
1399582121703111947	1510	1525	1514	1460
1399582121718029568	1512	1534	1514	1458
1399582121737982979	1518	1525	1514	1459
1399582121763080543	1514	1522	1513	1459
1399582121783061817	1514	1528	1513	1458
1399582121798005396	1518	1520	1513	1459
1399582121813056224	1517	1515	1512	1460
1399582121833061433	1502	1517	1512	1461
1399582121843019386	1505	1526	1511	1460
1399582121868048425	1511	1526	1511	1459
1399582121888072337	1503	1515	1510	1460
1399582121903067165	1506	1522	1510	1459
1399582121918041822	1511	1526	1510	1459
1399582121948082468	1511	1519	1509	1460
1399582121963024057	1512	1525	1509	1458
1399582121983042023	1520	1531	1509	1458
1399582122013056580	1515	1528	1508	1459
1399582122033059129	1512	1532	1508	1457
1399582122053015810	1521	1541	1508	1455
1399582122068041254	1515	1535	1508	1457
1399582122088006728	1524	1528	1508	1457
1399582122103022777	1511	1521	1508	1457
1399582122123036912	1516	1523	1508	1457
1399582122138040198	1516	1528	1508	1454
1399582122153001275	1521	1530	1508	1455
1399582122168009522	1519	1535	1508	1452
1399582122188041732	1515	1517	1508	1455
1399582122202995770	1518	1512	1508	1456
1399582122218009355	1515	1507	1508	1458
1399582122248056326	1518	1520	1509	1454
1399582122262989422	1521	1507	1509	1456
1399582122283002737	1523	1514	1509	1456
1399582122303040654	1525	1523	1509	1452
1399582122323092172	1526	1506	1509	1455
1399582122338051791	1526	1519	1510	1454
1399582122358000962	1526	1514	1510	1453
1399582122367933943	1528	1527	1510	1452
1399582122388111392	1531	1534	1511	1450
1399582122403005997	1530	1525	1511	1454
1399582122418017665	1530	1527	1511	1452
1399582122438034124	1533	1521	1512	1455
1399582122453046527	1533	1521	1512	1453
1399582122483060336	1531	1523	1512	1454
1399582122498008203	1536	1528	1513	1454
1399582122512994622	1531	1520	1513	1455
1399582122543102674	1532	1514	1513	1456
1399582122552983972	1534	1513	1514	1455
1399582122568200756	1535	1520	1514	1456
1399582122593080403	1528	1505	1515	1457
1399582122603084174	1529	1502	1515	1458
1399582122618046914	1533	1508	1516	1457
1399582122638058900	1529	1505	1516	1457
1399582122652948385	1533	1505	1517	1456
1399582122668044658	1526	1506	1517	1458
1399582122688015097	1538	1511	1517	1459
1399582122703044651	1534	1510	1518	1457
1399582122718046716	1537	1520	1518	1456
1399582122738053960	1540	1528	1518	1457
1399582122752964311	1540	1509	1519	1459
1399582122768041381	1536	1503	1519	1459
1399582122787982376	1535	1508	1519	1458
1399582122803021706	1531	1518	1519	1459
1399582122817989288	1543	1510	1519	1458
1399582122838002077	1541	1511	1519	1459
1399582122862976830	1543	1516	1519	1455
1399582122882964811	1539	1518	1519	1457
1399582122898073688	1530	1517	1519	1457
1399582122913010707	1539	1518	1519	1456
1399582122933241392	1536	1521	1519	1456
1399582122948292078	1523	1522	1519	1457
1399582122963305399	1533	1516	1518	1457
1399582122998380460	1531	1521	1518	1457
1399582123013365277	1532	1521	1518	1455
1399582123028335070	1528	1519	1517	1457
1399582123063357710	1525	1518	1517	1457
1399582123093367812	1528	1513	1516	1457
1399582123103308747	1524	1508	1516	1459
1399582123118155874	1526	1520	1515	1457
1399582123148452521	1520	1510	1515	1459
1399582123163420692	1520	1518	1514	1458
1399582123183338796	1521	1520	1514	1458
1399582123203374505	1511	1521	1513	1458
1399582123218323153	1511	1523	1513	1458
1399582123238292285	1512	1515	1513	1460
1399582123263314501	1511	1515	1513	1460
1399582123283297860	1515	1525	1512	1461
1399582123298286645	1511	1524	1512	1461
1399582123313275832	1505	1510	1512	1463
1399582123328291434	1509	1526	1512	1464
1399582123348340594	1500	1538	1512	1460
1399582123363302959	1499	1537	1512	1461
1399582123383342508	1500	1523	1511	1463
1399582123398166686	1496	1517	1511	1464
1399582123413399848	1494	1519	1511	1465
1399582123433290008	1502	1512	1510	1464
1399582123463434617	1498	1511	1510	1464
1399582123483431432	1501	1509	1510	1465
1399582123498371035	1502	1510	1509	1466
1399582123518342927	1495	1513	1509	1467
1399582123538385629	1491	1516	1509	1467
1399582123553101215	1506	1503	1509	1465
1399582123573314457	1497	1517	1509	1466
1399582123588112720	1485	1515	1509	1464
1399582123603123210	1490	1510	1509	1464
1399582123618385604	1492	1511	1509	1465
1399582123638302765	1482	1510	1508	1463
1399582123663406807	1479	1512	1508	1464
1399582123683381866	1475	1507	1508	1465
1399582123698408540	1475	1515	1508	1464
1399582123713312391	1480	1523	1508	1461
1399582123733402864	1478	1523	1509	1461
1399582123753315267	1469	1530	1508	1460
1399582123773351462	1467	1520	1508	1460
1399582123788404703	1493	1508	1509	1460
1399582123803172200	1475	1509	1509	1461
1399582123818053541	1471	1516	1509	1462
1399582123838380502	1495	1507	1509	1460
1399582123853212307	1486	1513	1509	1459
1399582123868224049	1494	1516	1509	1462
1399582123898283785	1501	1516	1509	1461
1399582123913257272	1498	1515	1509	1459
1399582123938230622	1488	1511	1509	1459
1399582123953277893	1495	1506	1509	1460
1399582123983203950	1490	1508	1510	1460
1399582123998293738	1495	1514	1510	1462
1399582124013271087	1489	1507	1510	1461
1399582124038328367	1485	1507	1510	1460
1399582124053462769	1486	1511	1511	1460
1399582124068310965	1486	1507	1511	1463
1399582124088166097	1475	1514	1511	1461
1399582124103239091	1475	1516	1511	1461
1399582124123310248	1476	1519	1511	1462
1399582124138299869	1478	1510	1511	1461
1399582124153344119	1482	1510	1511	1461
1399582124168378441	1481	1518	1511	1461
1399582124198337700	1485	1513	1511	1461
1399582124213225079	1487	1524	1511	1459
1399582124228249753	1487	1519	1511	1460
1399582124243342159	1490	1513	1511	1463
1399582124273307805	1494	1529	1511	1459
1399582124288297614	1495	1520	1510	1461
1399582124303106989	1495	1513	1510	1463
1399582124318243435	1495	1518	1510	1462
1399582124338200827	1493	1520	1509	1462
1399582124353243656	1493	1519	1509	1461
1399582124368274753	1496	1519	1508	1462
1399582124388076890	1497	1520	1508	1461
1399582124403290046	1501	1524	1507	1461
1399582124433326213	1503	1520	1507	1462
1399582124448362277	1507	1525	1506	1461
1399582124463291134	1506	1525	1506	1462
1399582124488156595	1509	1518	1505	1463
1399582124503217330	1506	1525	1505	1462
1399582124518217582	1514	1522	1505	1464
1399582124543352809	1509	1522	1504	1465
1399582124553188076	1515	1512	1504	1466
1399582124568310230	1512	1517	1504	1465
1399582124598273371	1515	1522	1504	1465
1399582124613262911	1514	1512	1504	1466
1399582124633250696	1513	1515	1504	1464
1399582124653257994	1515	1522	1504	1463
1399582124668254389	1517	1510	1504	1465
1399582124688272980	1517	1513	1504	1464
1399582124713262684	1502	1512	1504	1463
1399582124728091692	1504	1507	1504	1463
1399582124748328159	1519	1520	1504	1461
1399582124763243654	1520	1519	1504	1462
1399582124783318205	1516	1521	1505	1461
1399582124798357097	1518	1519	1505	1459
1399582124823364631	1519	1519	1505	1461
1399582124838282345	1513	1522	1506	1459
1399582124853373879	1512	1528	1506	1458
1399582124868320532	1514	1527	1506	1458
1399582124898396012	1517	1520	1507	1458
1399582124913518089	1517	1532	1507	1457
1399582124933422565	1513	1518	1508	1457
1399582124963183390	1511	1517	1508	1458
1399582124978397352	1509	1513	1508	1459
1399582124993341637	1508	1517	1508	1459
1399582125033306274	1507	1507	1508	1460
1399582125048292834	1504	1507	1508	1460
1399582125063351355	1504	1507	1508	1461
1399582125083359120	1505	1509	1508	1461
1399582125098170447	1514	1515	1508	1462
1399582125113353674	1510	1512	1508	1463
1399582125133367660	1511	1507	1508	1465
1399582125148354665	1511	1509	1508	1465
1399582125168372190	1510	1508	1507	1467
1399582125188318645	1506	1513	1507	1468
1399582125203259617	1505	1518	1507	1467
1399582125223165823	1501	1525	1507	1466
1399582125243355004	1503	1529	1506	1468
1399582125263129747	1500	1531	1506	1469
1399582125283253267	1499	1537	1505	1469
1399582125298095763	1503	1524	1505	1469
1399582125313315397	1501	1518	1505	1471
1399582125328320305	1500	1517	1504	1472
1399582125348344175	1502	1519	1504	1470
1399582125363327042	1500	1525	1503	1469
1399582125383414419	1502	1526	1503	1468
1399582125403283649	1497	1519	1502	1470
1399582125418418552	1500	1521	1502	1469
1399582125438344343	1499	1511	1501	1468
1399582125463360151	1497	1504	1501	1470
1399582125478425770	1496	1501	1500	1469
1399582125493239457	1497	1515	1500	1468
1399582125518440173	1502	1514	1499	1469
1399582125538256128	1500	1508	1499	1471
1399582125553246975	1502	1507	1499	1470
1399582125568262996	1499	1505	1498	1469
1399582125598328445	1503	1522	1498	1470
1399582125618329306	1502	1522	1498	1470
1399582125638334466	1503	1527	1499	1468
1399582125653180190	1497	1531	1499	1468
1399582125668330752	1499	1528	1499	1468
1399582125698288404	1495	1522	1500	1470
1399582125713342641	1494	1514	1500	1470
1399582125728293427	1493	1520	1500	1470
1399582125748286972	1498	1515	1501	1470
1399582125763294606	1500	1511	1501	1471
1399582125788344101	1495	1508	1502	1470
1399582125803282926	1493	1505	1503	1471
1399582125818288292	1491	1505	1503	1471
1399582125838259566	1497	1509	1504	1472
1399582125863328425	1494	1508	1505	1470
1399582125883398466	1501	1506	1505	1470
1399582125903338599	1503	1497	1506	1472
1399582125918324456	1496	1502	1507	1471
1399582125948352640	1499	1501	1508	1472
1399582125963355657	1501	1491	1508	1474
1399582125978404445	1497	1503	1509	1471
1399582125993412180	1495	1505	1510	1471
1399582126018327819	1501	1504	1511	1472
1399582126038297916	1502	1492	1511	1472
1399582126053338587	1497	1500	1512	1471
1399582126068223873	1500	1503	1512	1471
1399582126098301727	1496	1497	1513	1472
1399582126113380263	1500	1498	1513	1470
1399582126148380439	1496	1488	1515	1472
1399582126163461931	1498	1489	1515	1472
1399582126178358589	1498	1486	1515	1473
1399582126193353517	1499	1512	1516	1471
1399582126213353556	1503	1509	1516	1471
1399582126228327671	1505	1497	1517	1472
1399582126253100461	1501	1497	1517	1471
1399582126268094031	1505	1489	1518	1473
1399582126288087872	1510	1486	1518	1473
1399582126303062543	1512	1496	1518	1472
1399582126323050620	1515	1501	1518	1470
1399582126338078135	1514	1507	1518	1470
1399582126353058009	1512	1502	1518	1471
1399582126383112913	1514	1507	1518	1472
1399582126398076589	1516	1515	1518	1470
1399582126413042743	1515	1508	1518	1472
1399582126433095972	1515	1498	1518	1475
1399582126448069729	1518	1502	1517	1473
1399582126463032894	1518	1509	1517	1473
1399582126483091068	1517	1519	1517	1473
1399582126498107204	1511	1519	1516	1474
1399582126513056634	1517	1518	1516	1475
1399582126533111271	1513	1528	1515	1476
1399582126553083204	1513	1523	1515	1476
1399582126568075851	1510	1538	1514	1476
1399582126588056563	1520	1524	1514	1475
1399582126613092605	1521	1522	1514	1477
1399582126633096836	1519	1529	1513	1478
1399582126648082289	1519	1522	1513	1476
1399582126663081013	1520	1519	1512	1479
1399582126683097945	1518	1514	1512	1477
1399582126708059232	1519	1523	1512	1477
1399582126723099970	1519	1528	1511	1479
1399582126738335147	1530	1538	1511	1476
1399582126753354592	1533	1541	1511	1476
1399582126773346416	1533	1530	1511	1476
1399582126788347876	1525	1517	1510	1480
1399582126803280733	1520	1516	1510	1478
1399582126818346173	1527	1527	1510	1478
1399582126848355259	1528	1536	1510	1476
1399582126863309910	1528	1526	1510	1477
1399582126883324034	1535	1536	1510	1476
1399582126903302303	1536	1538	1510	1475
1399582126933389419	1534	1542	1510	1475
1399582126948381338	1532	1538	1510	1472
1399582126963333750	1542	1536	1510	1475
1399582126988468843	1536	1543	1510	1473
1399582127003334870	1535	1540	1510	1473
1399582127033331874	1540	1541	1510	1472
1399582127048312618	1524	1533	1511	1472
1399582127068288109	1523	1533	1511	1475
1399582127088386946	1528	1544	1512	1474
1399582127103321857	1528	1532	1512	1474
1399582127133045247	1533	1531	1513	1474
1399582127153303634	1525	1541	1513	1471
1399582127168351642	1530	1534	1514	1473
1399582127188391138	1522	1529	1514	1474
1399582127203257585	1517	1522	1514	1472
1399582127223340746	1517	1529	1515	1473
1399582127238292653	1522	1536	1515	1470
1399582127258362137	1525	1540	1515	1471
1399582127268450055	1519	1530	1516	1472
1399582127288270916	1521	1524	1516	1473
1399582127303315703	1519	1520	1516	1473
1399582127323202582	1522	1530	1516	1470
1399582127338376443	1520	1532	1516	1470
1399582127363377352	1518	1527	1516	1471
1399582127383245759	1516	1532	1516	1470
1399582127403343653	1512	1528	1516	1471
1399582127423311983	1510	1533	1516	1471
1399582127438340279	1510	1523	1516	1471
1399582127463463655	1510	1523	1516	1471
1399582127488271332	1510	1514	1516	1472
1399582127498396653	1510	1506	1516	1473
1399582127513388892	1510	1510	1515	1470
1399582127538377065	1510	1512	1515	1471
1399582127553377634	1503	1509	1514	1472
1399582127568389198	1511	1514	1514	1469
1399582127598382831	1512	1514	1514	1470
1399582127613316060	1514	1512	1513	1469
1399582127633346250	1513	1529	1513	1467
1399582127663353017	1514	1517	1512	1469
1399582127693324053	1513	1530	1512	1467
1399582127703274262	1515	1537	1512	1467
1399582127723359584	1517	1528	1512	1468
1399582127738364733	1505	1514	1511	1470
1399582127753340088	1506	1514	1511	1468
1399582127768385344	1503	1520	1511	1468
1399582127788217010	1506	1521	1511	1466
1399582127803271336	1512	1519	1510	1466
1399582127833403043	1510	1516	1510	1467
1399582127848249306	1511	1520	1510	1465
1399582127873418572	1511	1518	1510	1463
1399582127898342302	1522	1511	1510	1463
1399582127928378333	1518	1509	1509	1463
1399582127938014246	1515	1496	1509	1464
1399582127963070513	1520	1510	1509	1461
1399582127983079854	1514	1515	1508	1461
1399582127998077403	1521	1503	1508	1463
1399582128013055888	1522	1507	1508	1461
1399582128033024485	1516	1513	1508	1461
1399582128048048682	1517	1513	1508	1458
1399582128063071342	1521	1521	1508	1457
1399582128083045933	1522	1516	1508	1458
1399582128103009341	1517	1511	1508	1460
1399582128133089625	1527	1506	1508	1459
1399582128148040678	1524	1507	1508	1459
1399582128163067102	1525	1503	1508	1459
1399582128177947160	1526	1507	1508	1459
1399582128198032096	1520	1506	1507	1459
1399582128213035509	1527	1507	1508	1459
1399582128238075365	1537	1511	1508	1458
1399582128253057718	1533	1512	1508	1458
1399582128272997301	1536	1514	1508	1458
1399582128288097291	1547	1513	1508	1456
1399582128302963398	1541	1512	1508	1456
1399582128318059206	1547	1519	1508	1458
1399582128338019838	1538	1511	1508	1458
1399582128363088809	1551	1511	1508	1457
1399582128388018378	1542	1517	1508	1456
1399582128402984874	1538	1514	1508	1457
1399582128433058465	1548	1505	1508	1459
1399582128448117349	1549	1503	1508	1457
1399582128473066165	1550	1510	1508	1457
1399582128488014617	1563	1511	1509	1457
1399582128503027178	1566	1513	1509	1457
1399582128533051714	1560	1509	1509	1457
1399582128548017763	1562	1519	1509	1456
1399582128568048906	1564	1507	1509	1459
1399582128598129247	1563	1513	1509	1458
1399582128613055926	1567	1514	1508	1458
1399582128633045031	1559	1506	1509	1459
1399582128658143274	1564	1508	1508	1460
1399582128667997588	1558	1508	1508	1458
1399582128688040559	1552	1509	1508	1460
1399582128708052135	1555	1501	1508	1460
1399582128718032109	1554	1501	1508	1459
1399582128737985606	1557	1498	1507	1459
1399582128753011612	1547	1499	1507	1459
1399582128768083031	1552	1504	1507	1460
1399582128787988519	1536	1500	1507	1461
1399582128803015973	1538	1500	1506	1459
1399582128833043219	1533	1503	1506	1459
1399582128853074778	1533	1505	1506	1458
1399582128868031184	1533	1500	1506	1459
1399582128893112500	1548	1515	1506	1459
1399582128902971993	1544	1510	1506	1458
1399582128923074550	1543	1501	1506	1459
1399582128938002562	1544	1498	1505	1460
1399582128963072928	1541	1505	1505	1456
1399582128983097284	1545	1501	1505	1455
1399582129003007310	1541	1498	1506	1457
1399582129018024318	1530	1497	1506	1457
1399582129038078253	1535	1506	1506	1457
1399582129063150971	1537	1505	1506	1457
1399582129083059589	1531	1502	1506	1459
1399582129093054168	1532	1497	1506	1460
1399582129113072830	1526	1498	1506	1460
1399582129138074281	1528	1512	1507	1458
1399582129153043916	1528	1509	1507	1458
1399582129173033168	1518	1518	1507	1459
1399582129188002434	1521	1509	1507	1458
1399582129202987792	1522	1504	1508	1459
1399582129218060296	1513	1505	1508	1460
1399582129238010038	1524	1510	1508	1460
1399582129252992439	1510	1511	1508	1460
1399582129268052053	1520	1508	1508	1460
1399582129288035119	1517	1503	1509	1463
1399582129303022206	1524	1502	1509	1462
1399582129318001525	1509	1504	1509	1462
1399582129348043137	1516	1504	1510	1461
1399582129363009202	1523	1511	1510	1461
1399582129388046731	1506	1501	1511	1463
1399582129403088774	1497	1515	1511	1460
1399582129418031485	1498	1507	1511	1460
1399582129438056006	1506	1505	1512	1461
1399582129453054397	1510	1500	1512	1462
1399582129473072176	1498	1499	1512	1461
1399582129488135084	1504	1507	1513	1462
1399582129503100231	1493	1506	1513	1464
1399582129518007569	1501	1504	1514	1465
1399582129548046449	1504	1504	1514	1463
1399582129568170658	1499	1501	1515	1465
1399582129588003897	1506	1508	1515	1464
1399582129613090410	1504	1504	1516	1463
1399582129633182201	1507	1503	1516	1463
1399582129648080533	1514	1507	1516	1465
1399582129662970124	1519	1496	1516	1466
1399582129683005655	1509	1503	1516	1466
1399582129692982785	1506	1504	1516	1465
1399582129712988443	1510	1515	1516	1463
1399582129733060685	1514	1524	1517	1463
1399582129748073660	1519	1520	1517	1464
1399582129762984775	1519	1515	1516	1466
1399582129788066378	1512	1513	1516	1465
1399582129813040952	1515	1509	1516	1466
1399582129828074172	1518	1509	1516	1465
1399582129843256622	1517	1508	1516	1465
1399582129863012295	1521	1509	1516	1465
1399582129888042921	1517	1505	1516	1466
1399582129902993630	1518	1509	1516	1466
1399582129918002274	1519	1508	1516	1465
1399582129938055883	1516	1510	1516	1466
1399582129953055900	1517	1505	1516	1467
1399582129968063398	1517	1500	1516	1468
1399582129998021918	1513	1506	1516	1466
1399582130013020872	1514	1507	1516	1467
1399582130033043985	1525	1499	1516	1468
1399582130053054120	1525	1508	1516	1465
1399582130083074826	1519	1512	1516	1466
1399582130097999753	1519	1513	1516	1466
1399582130112997463	1523	1514	1517	1467
1399582130128079598	1521	1513	1517	1467
1399582130148009838	1524	1514	1517	1467
1399582130163071446	1524	1509	1516	1468
1399582130183050546	1525	1515	1516	1468
1399582130198047574	1524	1519	1516	1468
1399582130218134997	1524	1521	1516	1468
1399582130238167313	1526	1513	1516	1469
1399582130253022812	1529	1515	1516	1468
1399582130268017863	1530	1521	1516	1468
1399582130288072014	1536	1521	1516	1468
1399582130313063503	1531	1521	1516	1469
1399582130333070432	1530	1523	1516	1468
1399582130343045148	1533	1520	1515	1470
1399582130363060626	1531	1524	1515	1471
1399582130383017224	1521	1514	1515	1471
1399582130398019879	1525	1517	1515	1471
1399582130413045092	1524	1520	1514	1472
1399582130428030269	1529	1521	1514	1470
1399582130447994548	1525	1524	1514	1472
1399582130462995557	1525	1524	1514	1472
1399582130483011668	1529	1529	1514	1472
1399582130503057394	1527	1528	1514	1473
1399582130533054670	1529	1530	1513	1474
1399582130547966325	1530	1536	1513	1472
1399582130567991533	1528	1540	1513	1474
1399582130588053832	1523	1534	1513	1473
1399582130603022064	1528	1534	1512	1475
1399582130617982615	1528	1531	1512	1475
1399582130638037046	1517	1527	1512	1475
1399582130653050177	1517	1529	1512	1474
1399582130667989788	1514	1537	1512	1474
1399582130688081474	1519	1528	1512	1474
1399582130703104010	1514	1526	1512	1475
1399582130733073488	1513	1528	1512	1473
1399582130752995564	1511	1529	1512	1473
1399582130783021152	1527	1532	1512	1474
1399582130798039280	1527	1528	1512	1475
1399582130813043903	1526	1534	1511	1472
1399582130833077189	1521	1541	1511	1472
1399582130843007571	1525	1535	1511	1473
1399582130863117688	1526	1527	1511	1475
1399582130883046515	1532	1517	1511	1474
1399582130893001998	1531	1520	1511	1473
1399582130918029656	1529	1523	1511	1473
1399582130938063403	1525	1531	1511	1473
1399582130963035927	1524	1528	1511	1473
1399582130988053583	1522	1533	1511	1472
1399582131013073088	1522	1534	1511	1472
1399582131033060946	1517	1532	1511	1472
1399582131048076111	1516	1534	1511	1471
1399582131063039394	1517	1533	1511	1471
1399582131078014820	1516	1534	1511	1471
1399582131093057661	1519	1525	1512	1471
1399582131118121926	1518	1521	1512	1471
1399582131133085739	1513	1520	1512	1471
1399582131142996972	1513	1522	1512	1470
1399582131163092939	1512	1523	1512	1469
1399582131183101308	1522	1521	1512	1469
1399582131203089432	1519	1519	1513	1469
1399582131218085978	1520	1520	1513	1468
1399582131238069340	1525	1515	1513	1469
1399582131253060774	1526	1511	1513	1468
1399582131267988031	1528	1508	1513	1469
1399582131298034420	1519	1513	1513	1468
1399582131313047556	1523	1512	1514	1469
1399582131328044034	1524	1506	1514	1470
1399582131343031077	1525	1510	1514	1469
1399582131368081554	1522	1516	1514	1468
1399582131377979941	1524	1522	1514	1467
1399582131398074585	1530	1521	1514	1466
1399582131413096791	1529	1516	1515	1468
1399582131438124519	1526	1518	1515	1468
1399582131453051000	1528	1522	1515	1467
1399582131483037260	1524	1519	1515	1468
1399582131498021175	1527	1522	1515	1469
1399582131513100569	1526	1515	1515	1469
1399582131538068561	1523	1515	1515	1469
1399582131563098624	1522	1513	1515	1469
1399582131588068428	1518	1499	1516	1472
1399582131603009218	1517	1510	1515	1470
1399582131623066781	1520	1523	1516	1469
1399582131638024438	1520	1518	1516	1469
1399582131653017034	1519	1506	1516	1470
1399582131668029457	1516	1503	1516	1471
1399582131688070231	1517	1511	1516	1472
1399582131713079319	1516	1513	1516	1470
1399582131733044849	1514	1514	1516	1469
1399582131748101399	1512	1515	1516	1469
1399582131768058392	1511	1512	1516	1470
1399582131788054504	1519	1514	1516	1470
1399582131803068025	1517	1511	1516	1470
1399582131818049556	1516	1509	1516	1470
1399582131838009786	1515	1517	1516	1469
1399582131858007833	1521	1525	1516	1468
1399582131868027352	1518	1524	1516	1469
1399582131888090844	1512	1514	1515	1470
1399582131903065641	1514	1510	1516	1471
1399582131918079744	1512	1511	1515	1471
1399582131938088858	1510	1520	1515	1469
1399582131953081875	1511	1522	1515	1469
1399582131968047996	1509	1518	1515	1470
1399582131998083472	1510	1518	1515	1469
1399582132018076290	1511	1524	1515	1469
1399582132038070470	1510	1518	1515	1469
1399582132063065516	1507	1520	1514	1470
1399582132093134264	1507	1526	1514	1470
1399582132103003407	1510	1529	1513	1470
1399582132118034821	1512	1515	1513	1471
1399582132137999821	1512	1517	1513	1472
1399582132153038759	1509	1526	1512	1469
1399582132183074783	1517	1513	1512	1474
1399582132203071395	1524	1528	1511	1469
1399582132218015071	1520	1519	1510	1471
1399582132238048983	1506	1530	1510	1472
1399582132263079092	1512	1530	1509	1470
1399582132288068444	1512	1537	1508	1469
1399582132303075725	1509	1524	1508	1470
1399582132333056241	1511	1533	1507	1470
1399582132348039283	1508	1536	1506	1469
1399582132363000016	1512	1530	1506	1470
1399582132382987796	1511	1525	1505	1470
1399582132397998219	1503	1525	1504	1470
1399582132413064076	1510	1527	1504	1469
1399582132433057582	1512	1533	1503	1470
1399582132448053338	1516	1531	1503	1469
1399582132462991281	1516	1534	1502	1470
1399582132483067302	1514	1531	1501	1470
1399582132503072139	1514	1528	1501	1469
1399582132523013715	1514	1529	1500	1469
1399582132548082081	1512	1532	1500	1469
1399582132568063320	1512	1532	1499	1468
1399582132588018157	1503	1528	1499	1469
1399582132608095085	1503	1529	1499	1469
1399582132618029743	1503	1532	1498	1468
1399582132638021746	1505	1531	1498	1468
1399582132653044484	1507	1526	1498	1468
1399582132668049095	1504	1521	1498	1469
1399582132698123300	1499	1515	1498	1468
1399582132713042380	1499	1516	1498	1467
1399582132738049706	1510	1514	1498	1470
1399582132763088986	1508	1518	1498	1468
1399582132788053035	1515	1513	1498	1469
1399582132803097377	1515	1509	1498	1469
1399582132823039218	1512	1515	1498	1467
1399582132843087696	1510	1519	1498	1469
1399582132853011650	1511	1521	1498	1468
1399582132883053832	1504	1512	1498	1469
1399582132898048830	1503	1502	1498	1471
1399582132913037881	1509	1508	1498	1470
1399582132933041548	1506	1510	1498	1469
1399582132953000657	1510	1516	1498	1468
1399582132968049739	1505	1510	1498	1468
1399582132988069632	1512	1509	1498	1469
1399582133013097587	1510	1509	1498	1469
1399582133033047923	1514	1515	1498	1468
1399582133043060347	1510	1514	1498	1468
1399582133063027821	1515	1520	1498	1467
1399582133083054642	1505	1501	1498	1467
1399582133093001648	1513	1500	1498	1469
1399582133113048419	1507	1497	1499	1468
1399582133133073166	1512	1505	1499	1471
1399582133148045258	1510	1500	1499	1469
1399582133163093370	1517	1497	1500	1470
1399582133183024978	1506	1490	1500	1470
1399582133198078623	1512	1493	1500	1469
1399582133213041671	1509	1492	1501	1470
1399582133238042589	1512	1498	1501	1470
1399582133253021541	1516	1489	1502	1469
1399582133268026326	1518	1493	1502	1470
1399582133288117146	1512	1492	1502	1469
1399582133313099680	1512	1494	1503	1469
1399582133338144717	1511	1496	1504	1469
1399582133353072007	1511	1493	1504	1469
1399582133373049343	1510	1497	1505	1469
1399582133388064437	1519	1484	1505	1470
1399582133413123014	1515	1494	1506	1468
1399582133433074030	1520	1494	1507	1466
1399582133448068835	1521	1496	1508	1466
1399582133483091540	1526	1495	1509	1466
1399582133498096951	1525	1499	1510	1467
1399582133513099093	1523	1496	1511	1467
1399582133548134306	1529	1498	1512	1466
1399582133563078479	1532	1505	1512	1466
1399582133582987309	1530	1507	1513	1467
1399582133598049230	1537	1504	1514	1468
1399582133613027860	1535	1510	1514	1466
1399582133633082085	1528	1512	1515	1466
1399582133648051653	1536	1519	1515	1466
1399582133663077680	1535	1517	1516	1465
1399582133683022672	1530	1527	1516	1465
1399582133703034218	1530	1527	1516	1464
1399582133718044522	1535	1533	1517	1463
1399582133738061367	1530	1519	1517	1462
1399582133763071014	1538	1518	1518	1464
1399582133778039006	1529	1514	1518	1462
1399582133792997129	1538	1521	1518	1460
1399582133812995288	1529	1514	1518	1461
1399582133833039811	1546	1520	1518	1462
1399582133848082225	1544	1511	1518	1461
1399582133863081672	1542	1513	1518	1460
1399582133883014862	1543	1500	1519	1461
1399582133898060787	1538	1500	1518	1460
1399582133913032939	1538	1501	1518	1461
1399582133933083933	1544	1504	1518	1459
1399582133947997024	1546	1504	1518	1460
1399582133963037879	1546	1511	1518	1458
1399582133983105530	1544	1522	1518	1459
1399582133998062632	1546	1528	1518	1458
1399582134013024094	1547	1521	1518	1460
1399582134028041211	1546	1516	1518	1462
1399582134048019950	1540	1522	1518	1463
1399582134063020069	1545	1519	1517	1462
1399582134083060541	1539	1523	1517	1461
1399582134092991377	1538	1529	1517	1461
1399582134113049266	1542	1535	1517	1460
1399582134133042274	1532	1530	1517	1460
1399582134153043885	1526	1531	1517	1461
1399582134168072490	1531	1524	1517	1463
1399582134188038164	1520	1518	1517	1462
1399582134213079641	1520	1515	1517	1464
1399582134233030222	1531	1513	1517	1466
1399582134248090454	1529	1513	1517	1466
1399582134263062353	1528	1515	1517	1465
1399582134283019319	1527	1519	1517	1464
1399582134303030509	1524	1510	1517	1468
1399582134318074976	1524	1514	1517	1467
1399582134338054228	1529	1524	1517	1467
1399582134353065342	1530	1526	1517	1466
1399582134368091444	1530	1524	1517	1466
1399582134388050637	1528	1523	1517	1467
1399582134402991666	1532	1521	1517	1467
1399582134418009773	1525	1519	1517	1467
1399582134448072339	1513	1524	1517	1468
1399582134468005447	1510	1528	1517	1467
1399582134488013666	1511	1521	1517	1468
1399582134513029335	1505	1527	1517	1467
1399582134538064741	1511	1510	1517	1469
1399582134553014744	1495	1521	1517	1467
1399582134573007757	1502	1521	1517	1467
1399582134588053668	1506	1523	1517	1466
1399582134603015126	1506	1526	1517	1466
1399582134618021513	1507	1518	1517	1468
1399582134638085861	1511	1510	1517	1470
1399582134652992871	1507	1512	1516	1469
1399582134683173574	1504	1521	1516	1469
1399582134698089587	1501	1518	1516	1469
1399582134718090363	1506	1523	1515	1469
1399582134738112737	1507	1520	1515	1470
1399582134753064530	1511	1519	1515	1469
1399582134768042501	1508	1520	1514	1470
1399582134788098411	1512	1524	1514	1469
1399582134808103116	1509	1524	1513	1470
1399582134817987414	1515	1524	1513	1471
1399582134838052944	1501	1515	1513	1472
1399582134853043804	1507	1518	1513	1473
1399582134868080345	1504	1521	1513	1471
1399582134888090969	1504	1516	1512	1472
1399582134913093548	1509	1515	1512	1472
1399582134933383578	1507	1524	1512	1472
1399582134948399281	1508	1523	1511	1472
1399582134963327807	1509	1524	1511	1473
1399582134978430814	1515	1524	1511	1473
1399582134998311316	1520	1516	1511	1475
1399582135013440739	1522	1511	1511	1476
1399582135028088357	1523	1511	1511	1476
1399582135048334361	1523	1514	1511	1476
1399582135063228194	1528	1521	1511	1474
1399582135078158964	1532	1525	1511	1474
1399582135098138662	1528	1525	1511	1473
1399582135113134067	1525	1522	1511	1475
1399582135133127203	1531	1524	1511	1478
1399582135153073365	1535	1528	1512	1474
1399582135173098232	1534	1528	1511	1475
1399582135198107403	1533	1526	1512	1477
1399582135213122772	1533	1529	1512	1476
1399582135233121742	1530	1537	1512	1476
1399582135248100538	1539	1526	1512	1477
1399582135263118033	1536	1531	1512	1479
1399582135288127921	1536	1527	1512	1477
1399582135303098803	1539	1526	1512	1476
1399582135323105698	1537	1517	1512	1479
1399582135338133369	1526	1515	1512	1479
1399582135353063712	1526	1519	1512	1478
1399582135383120792	1541	1519	1512	1478
1399582135398339926	1540	1519	1512	1478
1399582135413153869	1545	1515	1512	1476
1399582135448407474	1530	1519	1512	1477
1399582135463380773	1533	1512	1512	1478
1399582135483316162	1542	1516	1512	1479
1399582135503356785	1553	1524	1513	1476
1399582135523324752	1535	1519	1513	1478
1399582135538241826	1536	1514	1513	1479
1399582135553342017	1529	1525	1513	1477
1399582135568415072	1531	1527	1513	1477
1399582135588336593	1529	1528	1513	1475
1399582135603307432	1527	1523	1513	1476
1399582135618316107	1524	1520	1513	1476
1399582135648134901	1524	1525	1513	1477
1399582135663273323	1523	1525	1514	1477
1399582135678318977	1519	1520	1514	1477
1399582135693336517	1512	1521	1514	1476
1399582135713296811	1511	1526	1514	1475
1399582135728371803	1510	1528	1513	1475
1399582135748457659	1511	1522	1513	1477
1399582135763411659	1507	1514	1514	1479
1399582135778321485	1504	1513	1514	1480
1399582135798243718	1513	1517	1514	1478
1399582135813247394	1511	1532	1514	1477
1399582135833378967	1519	1530	1514	1476
1399582135848396530	1519	1528	1514	1478
1399582135863245350	1515	1520	1515	1479
1399582135888274662	1506	1524	1515	1480
1399582135903334749	1504	1522	1515	1481
1399582135923293410	1503	1513	1515	1483
1399582135938285400	1505	1508	1516	1483
1399582135963424161	1506	1515	1516	1483
1399582135978348830	1503	1512	1516	1485
1399582135998339474	1514	1507	1516	1485
1399582136013361238	1512	1517	1516	1483
1399582136033309110	1506	1525	1516	1482
1399582136048225941	1502	1524	1516	1481
1399582136068295975	1505	1517	1516	1483
1399582136088281488	1503	1521	1516	1483
1399582136103158010	1502	1518	1516	1483
1399582136133342632	1500	1519	1516	1484
1399582136148093222	1504	1522	1516	1484
1399582136163360239	1499	1517	1516	1484
1399582136188332347	1500	1522	1516	1483
1399582136203364603	1500	1517	1515	1485
1399582136218300802	1504	1518	1515	1483
1399582136238275677	1497	1518	1515	1483
1399582136253275307	1501	1525	1514	1483
1399582136283291611	1506	1518	1514	1481
1399582136293353136	1501	1515	1513	1483
1399582136313316591	1503	1516	1513	1483
1399582136333297967	1502	1509	1513	1484
1399582136348318240	1501	1514	1512	1483
1399582136368387218	1501	1515	1511	1483
1399582136398250660	1506	1512	1511	1483
1399582136433200376	1505	1518	1509	1481
1399582136443255205	1500	1519	1509	1481
1399582136463432886	1504	1518	1508	1482
1399582136478315675	1508	1520	1508	1481
1399582136498384236	1507	1520	1507	1481
1399582136518171666	1506	1515	1506	1482
1399582136538308759	1507	1512	1506	1481
1399582136553397801	1513	1518	1505	1480
1399582136568234890	1513	1519	1505	1480
1399582136588312353	1516	1518	1505	1481
1399582136603306175	1514	1515	1505	1481
1399582136633390850	1514	1515	1505	1481
1399582136648324714	1515	1512	1505	1481
1399582136663220195	1515	1512	1505	1481
1399582136678157518	1513	1512	1505	1480
1399582136693053594	1499	1518	1504	1479
1399582136713136505	1504	1517	1505	1478
1399582136738111184	1497	1501	1505	1480
1399582136753067792	1494	1501	1505	1481
1399582136768084455	1499	1498	1505	1480
1399582136788110171	1506	1506	1505	1479
1399582136803068039	1504	1508	1505	1477
1399582136833104268	1514	1496	1506	1481
1399582136848129232	1510	1502	1506	1481
1399582136868129773	1515	1501	1506	1480
1399582136888065637	1518	1500	1507	1481
1399582136913114842	1519	1500	1507	1481
1399582136938043367	1517	1501	1508	1481
1399582136953067023	1519	1507	1508	1480
1399582136973091578	1523	1509	1508	1480
1399582136988127004	1530	1516	1508	1480
1399582137003078244	1533	1511	1509	1480
1399582137018109741	1542	1510	1509	1481
1399582137038076100	1516	1501	1509	1481
1399582137053075164	1526	1496	1509	1482
1399582137083087289	1519	1498	1509	1480
1399582137098158128	1523	1494	1509	1479
1399582137118137776	1525	1498	1509	1479
1399582137138054670	1513	1495	1509	1477
1399582137163316627	1513	1487	1509	1479
1399582137178247364	1516	1491	1508	1477
1399582137198330658	1528	1495	1508	1476
1399582137213226519	1529	1493	1508	1478
1399582137228321475	1529	1490	1508	1478
1399582137253320292	1524	1493	1508	1477
1399582137283177281	1531	1491	1507	1476
1399582137298403476	1534	1492	1508	1477
1399582137313265677	1529	1488	1507	1477
1399582137333388927	1531	1489	1507	1478
1399582137353344069	1533	1486	1507	1477
1399582137368344063	1531	1488	1507	1478
1399582137388267475	1533	1492	1507	1476
1399582137403301109	1535	1491	1506	1477
1399582137433548878	1531	1494	1506	1476
1399582137448362664	1536	1494	1506	1476
1399582137463273907	1533	1489	1506	1477
1399582137483188562	1539	1490	1506	1477
1399582137498371794	1544	1489	1506	1477
1399582137513328182	1533	1491	1506	1476
1399582137533535057	1539	1495	1506	1476
1399582137548333808	1541	1488	1506	1477
1399582137563190588	1542	1493	1506	1477
1399582137588261930	1540	1483	1506	1476
1399582137603276532	1540	1487	1506	1475
1399582137633464149	1541	1488	1506	1476
1399582137648396778	1537	1485	1506	1475
1399582137663286778	1531	1492	1506	1475
1399582137678333930	1536	1487	1506	1476
1399582137698329702	1535	1485	1506	1476
1399582137713348315	1531	1482	1506	1477
1399582137728369574	1538	1480	1506	1476
1399582137748336213	1534	1488	1506	1476
1399582137763314534	1531	1486	1506	1475
1399582137783325367	1533	1489	1507	1476
1399582137798270728	1531	1488	1507	1475
1399582137813347636	1531	1494	1507	1474
1399582137833326237	1526	1498	1507	1474
1399582137848306299	1527	1497	1507	1474
1399582137868266851	1523	1489	1507	1478
1399582137898291159	1529	1491	1507	1476
1399582137918050049	1525	1495	1508	1475
1399582137938049615	1528	1503	1508	1476
