#Time	 Roll 	 Pitch 	 Yaw 	 Thrust
1400050885840282462	1517	1519	1503	1378
1400050885870222496	1516	1519	1503	1379
1400050885885189599	1514	1518	1503	1379
1400050885900012212	1520	1517	1503	1380
1400050885915118710	1518	1518	1503	1380
1400050885930137436	1518	1517	1503	1381
1400050885950152841	1516	1516	1503	1381
1400050885969831540	1516	1518	1503	1382
1400050885979886880	1516	1516	1503	1382
1400050885999838461	1513	1521	1503	1382
1400050886019967277	1521	1521	1503	1382
1400050886044938045	1517	1518	1503	1383
1400050886054894272	1516	1521	1503	1384
1400050886074857984	1519	1518	1503	1384
1400050886089866074	1516	1517	1503	1384
1400050886109868536	1523	1517	1503	1385
1400050886124864963	1511	1520	1503	1385
1400050886149921829	1517	1519	1503	1386
1400050886169904003	1519	1520	1503	1386
1400050886184940250	1519	1519	1503	1386
1400050886199894894	1518	1518	1503	1387
1400050886229923250	1516	1518	1503	1388
1400050886239888437	1517	1514	1503	1388
1400050886254931561	1513	1519	1503	1389
1400050886275098111	1512	1514	1503	1390
1400050886289958302	1513	1517	1503	1390
1400050886305121871	1514	1514	1503	1390
1400050886334905704	1514	1517	1503	1392
1400050886355145321	1518	1524	1503	1391
1400050886375139853	1521	1519	1503	1392
1400050886400197818	1518	1516	1503	1393
1400050886420179207	1519	1512	1503	1394
1400050886435267391	1514	1511	1503	1394
1400050886465180220	1519	1516	1503	1395
1400050886475106814	1525	1521	1503	1396
1400050886490201349	1518	1517	1503	1397
1400050886510075898	1517	1520	1503	1397
1400050886525099539	1519	1522	1503	1396
1400050886540234862	1519	1515	1503	1397
1400050886554934359	1520	1521	1503	1398
1400050886585038219	1517	1519	1503	1399
1400050886600178711	1521	1520	1503	1399
1400050886635153995	1519	1523	1503	1400
1400050886650117619	1522	1522	1503	1400
1400050886665177784	1524	1520	1503	1400
1400050886680275923	1522	1520	1503	1401
1400050886705129465	1523	1513	1503	1402
1400050886725114217	1522	1514	1503	1403
1400050886740060957	1517	1518	1503	1404
1400050886755184478	1518	1517	1503	1404
1400050886775086627	1521	1521	1503	1404
1400050886790147034	1521	1517	1503	1405
1400050886805162042	1516	1519	1503	1405
1400050886825114161	1514	1512	1503	1406
1400050886839887516	1515	1515	1503	1406
1400050886870178236	1514	1517	1503	1407
1400050886885218736	1513	1523	1503	1407
1400050886900153435	1506	1519	1503	1408
1400050886925182224	1507	1522	1503	1408
1400050886940281720	1509	1518	1503	1408
1400050886955059456	1510	1516	1503	1409
1400050886980249065	1508	1514	1504	1408
1400050886990075493	1501	1518	1504	1409
1400050887005084872	1498	1512	1504	1409
1400050887035148434	1500	1519	1504	1410
1400050887050042582	1488	1519	1504	1411
1400050887070130207	1495	1518	1505	1411
1400050887085091676	1498	1520	1505	1411
1400050887100137617	1510	1526	1506	1411
1400050887125172437	1510	1524	1507	1411
1400050887139903156	1499	1522	1508	1412
1400050887165119318	1512	1534	1509	1412
1400050887190166940	1515	1533	1511	1413
1400050887205069142	1513	1527	1512	1414
1400050887225106801	1509	1523	1512	1414
1400050887240292980	1510	1525	1513	1415
1400050887260115181	1511	1520	1514	1415
1400050887275147133	1506	1520	1515	1415
1400050887290098266	1507	1525	1516	1416
1400050887305240405	1499	1519	1517	1416
1400050887335323940	1500	1513	1517	1418
1400050887350050470	1488	1514	1518	1418
1400050887370095833	1498	1514	1519	1418
1400050887390032280	1495	1516	1519	1419
1400050887405124573	1490	1515	1520	1419
1400050887425090804	1495	1513	1521	1419
1400050887440112637	1496	1513	1521	1420
1400050887455077156	1506	1516	1522	1420
1400050887475146951	1501	1516	1522	1420
1400050887495208541	1494	1522	1522	1420
1400050887505273590	1488	1534	1522	1420
1400050887525094668	1486	1533	1523	1421
1400050887540208988	1494	1520	1523	1422
1400050887570348099	1504	1537	1524	1423
1400050887585054886	1500	1546	1524	1423
1400050887600227768	1490	1530	1524	1425
1400050887635150167	1495	1536	1525	1424
1400050887650149519	1497	1522	1525	1426
1400050887665291258	1491	1530	1525	1425
1400050887690020845	1487	1529	1525	1426
1400050887715138238	1490	1531	1526	1426
1400050887740185707	1499	1530	1526	1426
1400050887770104863	1492	1531	1526	1427
1400050887790202162	1495	1530	1525	1427
1400050887804967433	1498	1534	1525	1426
1400050887825123631	1503	1531	1525	1426
1400050887840055120	1512	1536	1525	1426
1400050887855127592	1500	1540	1525	1426
1400050887884978106	1509	1536	1524	1427
1400050887915215371	1501	1526	1524	1426
1400050887935229207	1502	1521	1524	1425
1400050887950169967	1511	1527	1523	1425
1400050887970217679	1499	1534	1523	1424
1400050887985150157	1500	1530	1522	1423
1400050888000178307	1507	1538	1522	1424
1400050888025160263	1502	1526	1521	1424
1400050888040165750	1501	1542	1521	1424
1400050888055165582	1509	1523	1520	1424
1400050888085123719	1508	1526	1519	1423
1400050888100200069	1505	1531	1519	1423
1400050888125098178	1514	1530	1518	1422
1400050888140179282	1502	1528	1517	1422
1400050888160187926	1519	1523	1517	1422
1400050888175230908	1502	1525	1516	1423
1400050888190287991	1515	1514	1516	1423
1400050888204834785	1495	1522	1515	1422
1400050888224856090	1522	1513	1514	1423
1400050888239892946	1504	1520	1514	1422
1400050888269856109	1511	1523	1513	1422
1400050888284847868	1522	1518	1513	1423
1400050888304886279	1515	1527	1513	1422
1400050888324888375	1519	1522	1512	1423
1400050888349913798	1517	1527	1512	1422
1400050888375221087	1521	1525	1512	1423
1400050888390084494	1518	1523	1511	1422
1400050888405136339	1511	1533	1511	1422
1400050888435155130	1516	1522	1512	1423
1400050888450165003	1512	1518	1511	1423
1400050888470246598	1523	1521	1511	1422
1400050888480237390	1511	1517	1511	1422
1400050888500208509	1508	1528	1511	1423
1400050888520125825	1517	1516	1511	1423
1400050888535155509	1511	1517	1511	1423
1400050888550137940	1520	1508	1511	1423
1400050888570037990	1516	1513	1511	1424
1400050888590061283	1520	1511	1511	1423
1400050888605111081	1517	1507	1511	1423
1400050888625043565	1515	1508	1511	1424
1400050888639848457	1508	1500	1511	1424
1400050888655121322	1519	1503	1511	1424
1400050888675101010	1528	1513	1511	1424
1400050888690094512	1522	1514	1511	1424
1400050888705097489	1519	1513	1511	1424
1400050888725157232	1514	1509	1511	1423
1400050888739902272	1514	1514	1512	1425
1400050888760159070	1512	1514	1512	1425
1400050888785173852	1513	1508	1512	1425
1400050888805206185	1521	1509	1512	1425
1400050888825207011	1519	1504	1512	1426
1400050888839998109	1524	1511	1512	1426
1400050888870102727	1514	1506	1512	1426
1400050888900308688	1516	1501	1513	1426
1400050888920174233	1513	1507	1512	1426
1400050888935114514	1516	1505	1513	1426
1400050888950143179	1512	1505	1513	1427
1400050888970224173	1511	1491	1513	1427
1400050888985130986	1511	1495	1513	1428
1400050889005245506	1518	1502	1513	1428
1400050889025131902	1511	1502	1513	1428
1400050889040400334	1512	1502	1513	1428
1400050889055205556	1512	1500	1513	1428
1400050889075156593	1514	1502	1513	1428
1400050889090279119	1514	1509	1513	1429
1400050889105190378	1510	1514	1513	1429
1400050889125179454	1510	1513	1513	1429
1400050889140173400	1508	1511	1513	1430
1400050889155201533	1515	1509	1513	1430
1400050889175108363	1513	1509	1513	1430
1400050889190010781	1511	1507	1513	1430
1400050889205067795	1518	1509	1513	1431
1400050889224930247	1520	1512	1513	1431
1400050889250209364	1518	1514	1513	1431
1400050889270206100	1520	1518	1513	1431
1400050889300057032	1510	1517	1513	1431
1400050889320211477	1512	1517	1513	1432
1400050889340208300	1510	1517	1514	1432
1400050889370273152	1511	1511	1513	1432
1400050889385137351	1514	1511	1513	1432
1400050889400211008	1515	1512	1513	1432
1400050889415138851	1513	1513	1513	1432
1400050889435227904	1512	1519	1513	1431
1400050889450141268	1510	1515	1513	1432
1400050889470106256	1502	1513	1513	1432
1400050889485139976	1505	1511	1513	1433
1400050889505152482	1501	1522	1513	1433
1400050889524987033	1501	1527	1513	1431
1400050889540160472	1502	1513	1512	1432
1400050889570222312	1507	1529	1512	1432
1400050889590138039	1508	1532	1512	1431
1400050889605185650	1516	1521	1512	1431
1400050889625032844	1512	1524	1512	1432
1400050889640192629	1505	1524	1512	1432
1400050889660201978	1507	1529	1512	1432
1400050889675278241	1509	1522	1511	1432
1400050889690267060	1517	1531	1511	1433
1400050889705162848	1512	1529	1511	1432
1400050889725170203	1517	1529	1511	1432
1400050889750208154	1513	1531	1511	1432
1400050889770021820	1511	1533	1511	1432
1400050889785063305	1520	1529	1511	1433
1400050889820331318	1515	1528	1511	1432
1400050889835213392	1512	1521	1511	1433
1400050889850182706	1512	1523	1510	1432
1400050889865111669	1513	1529	1510	1433
1400050889880187144	1522	1529	1510	1431
1400050889900183594	1522	1529	1510	1432
1400050889920179882	1523	1524	1510	1433
1400050889930050101	1516	1525	1510	1433
1400050889950215273	1510	1523	1510	1433
1400050889975168304	1517	1530	1510	1433
1400050889990250491	1515	1524	1510	1433
1400050890005140993	1522	1521	1510	1433
1400050890025171152	1521	1530	1510	1433
1400050890040109680	1524	1527	1510	1433
1400050890055101785	1521	1516	1510	1434
1400050890075157976	1521	1515	1510	1434
1400050890100342910	1521	1516	1510	1434
1400050890125136786	1522	1512	1510	1435
1400050890140133001	1523	1514	1510	1435
1400050890155096195	1523	1507	1510	1435
1400050890174766002	1529	1506	1510	1436
1400050890190229562	1529	1504	1511	1436
1400050890220171631	1518	1507	1511	1436
1400050890235150603	1526	1502	1511	1437
1400050890255273770	1525	1502	1511	1436
1400050890274994083	1525	1505	1512	1437
1400050890290053973	1519	1503	1512	1437
1400050890305065296	1523	1500	1512	1436
1400050890325141453	1524	1505	1512	1436
1400050890350240955	1517	1503	1513	1437
1400050890375189466	1512	1510	1513	1436
1400050890390150177	1504	1503	1514	1437
1400050890409969653	1521	1496	1514	1437
1400050890425195243	1519	1495	1514	1436
1400050890450217171	1515	1502	1514	1436
1400050890470125855	1516	1502	1514	1436
1400050890485212551	1511	1498	1514	1435
1400050890500173934	1518	1504	1515	1435
1400050890520334411	1505	1501	1515	1434
1400050890540140078	1505	1499	1515	1435
1400050890555218933	1517	1505	1515	1435
1400050890575196333	1508	1502	1515	1435
1400050890590327380	1503	1502	1515	1435
1400050890605141021	1497	1503	1515	1436
1400050890625076626	1493	1505	1515	1436
1400050890645189272	1509	1499	1516	1435
1400050890655139180	1507	1502	1516	1435
1400050890675121607	1501	1498	1516	1435
1400050890690218674	1505	1498	1516	1436
1400050890710187243	1501	1502	1516	1435
1400050890735127267	1498	1502	1516	1436
1400050890750161038	1495	1503	1517	1435
1400050890775082350	1511	1498	1517	1435
1400050890790115238	1501	1500	1517	1434
1400050890805145552	1509	1499	1517	1434
1400050890825162380	1503	1506	1517	1434
1400050890840181814	1509	1500	1517	1434
1400050890855073943	1502	1504	1517	1434
1400050890880279294	1510	1505	1517	1434
1400050890890120282	1510	1508	1517	1434
1400050890910053869	1505	1501	1517	1434
1400050890925167266	1505	1505	1517	1434
1400050890940190078	1505	1500	1517	1434
1400050890970203366	1503	1505	1517	1434
1400050890985186157	1505	1503	1517	1434
1400050891000219427	1511	1505	1517	1433
1400050891020345493	1514	1510	1517	1433
1400050891035129845	1506	1510	1517	1434
1400050891050174252	1510	1507	1517	1434
1400050891065128179	1506	1507	1516	1434
1400050891080133117	1507	1510	1516	1434
1400050891100119834	1510	1510	1516	1434
1400050891120252208	1505	1510	1516	1434
1400050891130112086	1511	1507	1516	1434
1400050891150149452	1508	1507	1516	1435
1400050891170165546	1502	1517	1516	1434
1400050891190235197	1506	1520	1516	1435
1400050891220099605	1502	1514	1515	1435
1400050891235263410	1509	1513	1515	1434
1400050891255170514	1515	1523	1515	1434
1400050891285139226	1517	1516	1515	1434
1400050891300220133	1514	1514	1515	1435
1400050891315114099	1513	1518	1515	1434
1400050891340365343	1505	1519	1515	1434
1400050891354964041	1522	1525	1515	1434
1400050891385195410	1526	1513	1514	1435
1400050891400245534	1519	1518	1514	1435
1400050891424940256	1531	1525	1514	1435
1400050891440196568	1521	1519	1514	1436
1400050891455119646	1540	1522	1514	1436
1400050891475115418	1532	1527	1514	1436
1400050891490133539	1535	1518	1514	1437
1400050891520202977	1535	1516	1514	1437
1400050891535342300	1532	1515	1513	1437
1400050891550234185	1528	1515	1513	1438
1400050891565164579	1528	1516	1513	1438
1400050891585105458	1538	1518	1513	1438
1400050891600226135	1531	1519	1513	1438
1400050891620203879	1526	1521	1513	1438
1400050891635156497	1528	1517	1513	1438
1400050891650217964	1526	1518	1513	1438
1400050891670258577	1532	1525	1513	1438
1400050891685145698	1522	1520	1513	1438
1400050891700259123	1524	1521	1513	1439
1400050891720182727	1528	1520	1513	1439
1400050891739942671	1521	1523	1513	1438
1400050891755106234	1524	1522	1513	1439
1400050891785162024	1516	1524	1513	1439
1400050891800199726	1528	1515	1513	1439
1400050891820184129	1528	1517	1513	1439
1400050891830094196	1523	1522	1513	1438
1400050891850112825	1524	1530	1513	1438
1400050891870161777	1528	1522	1514	1438
1400050891895341942	1523	1517	1514	1438
1400050891905099583	1520	1518	1514	1438
1400050891925200436	1513	1515	1514	1438
1400050891940247119	1509	1518	1514	1438
1400050891970174604	1514	1521	1514	1437
1400050891985214455	1511	1519	1514	1436
1400050892000110700	1514	1522	1514	1436
1400050892034973893	1508	1518	1514	1437
1400050892050125332	1502	1515	1514	1437
1400050892069998334	1502	1514	1514	1438
1400050892079917808	1494	1519	1514	1438
1400050892104891760	1506	1512	1514	1437
1400050892125191096	1502	1523	1514	1437
1400050892140154890	1494	1527	1514	1438
1400050892155199920	1501	1517	1514	1438
1400050892175117541	1492	1515	1513	1438
1400050892190134506	1497	1510	1513	1439
1400050892205098245	1504	1523	1513	1439
1400050892224890614	1496	1513	1513	1438
1400050892249879307	1500	1513	1513	1438
1400050892269859264	1499	1513	1512	1438
1400050892284882427	1503	1509	1512	1439
1400050892299917392	1503	1515	1512	1439
1400050892324890266	1500	1515	1512	1439
1400050892339895414	1500	1510	1511	1439
1400050892354885919	1503	1508	1511	1439
1400050892375088137	1502	1511	1511	1439
1400050892390168345	1502	1514	1511	1440
1400050892405172719	1510	1511	1511	1439
1400050892425105086	1505	1509	1510	1439
1400050892440006051	1521	1507	1510	1440
1400050892470179987	1511	1508	1510	1440
1400050892485263414	1516	1512	1509	1440
1400050892500233579	1506	1506	1509	1440
1400050892515133157	1504	1502	1509	1441
1400050892530133744	1506	1505	1509	1440
1400050892555179137	1509	1505	1508	1440
1400050892575154843	1513	1504	1508	1440
1400050892595226556	1514	1513	1508	1440
1400050892605115721	1513	1510	1507	1440
1400050892625125336	1512	1507	1507	1441
1400050892640149954	1510	1504	1507	1440
1400050892655196152	1521	1507	1507	1439
1400050892675152477	1533	1506	1506	1440
1400050892690168280	1523	1511	1506	1439
1400050892720121147	1524	1513	1506	1439
1400050892735262280	1527	1511	1506	1439
1400050892755201610	1532	1511	1506	1438
1400050892775106397	1535	1511	1506	1437
1400050892790167200	1527	1506	1505	1437
1400050892805091702	1533	1505	1506	1437
1400050892830207174	1536	1498	1506	1437
1400050892840168411	1534	1505	1506	1436
1400050892854945807	1530	1504	1506	1436
1400050892874904303	1540	1503	1506	1436
1400050892899957665	1533	1503	1506	1436
1400050892919985487	1532	1508	1506	1435
1400050892934912695	1530	1504	1506	1435
1400050892954902230	1533	1511	1506	1435
1400050892974896448	1545	1513	1507	1434
1400050892989930233	1545	1512	1507	1434
1400050893004880392	1530	1515	1507	1434
1400050893024907707	1540	1523	1508	1434
1400050893039837779	1536	1523	1508	1434
1400050893064973955	1538	1521	1508	1435
1400050893084966948	1532	1518	1509	1434
1400050893099977673	1525	1523	1509	1434
1400050893119958594	1519	1516	1509	1434
1400050893134911671	1522	1520	1509	1435
1400050893149916342	1523	1515	1510	1435
1400050893169946536	1525	1515	1510	1436
1400050893189866246	1511	1518	1510	1436
1400050893219922442	1522	1521	1510	1436
1400050893234930264	1520	1521	1511	1437
1400050893249935775	1514	1514	1511	1438
1400050893269952446	1509	1510	1511	1438
1400050893279878673	1510	1518	1511	1438
1400050893299939526	1516	1512	1511	1438
1400050893319957608	1510	1511	1511	1440
1400050893340206310	1508	1504	1511	1440
1400050893360179580	1503	1519	1511	1440
1400050893375211495	1505	1515	1511	1441
1400050893389888479	1499	1516	1511	1441
1400050893420225219	1514	1518	1511	1442
1400050893435173895	1502	1521	1511	1442
1400050893470146053	1503	1520	1511	1443
1400050893485169426	1487	1525	1511	1443
1400050893500231575	1492	1515	1511	1444
1400050893515276754	1497	1521	1511	1444
1400050893535217942	1491	1522	1511	1444
1400050893550195043	1493	1523	1511	1444
1400050893565067067	1481	1531	1511	1445
1400050893590184858	1487	1518	1511	1444
1400050893605173736	1487	1522	1511	1445
1400050893625150592	1486	1517	1511	1445
1400050893640145190	1480	1517	1511	1446
1400050893655142593	1496	1523	1511	1445
1400050893685067328	1490	1521	1511	1446
1400050893700215250	1487	1525	1511	1445
1400050893720260301	1489	1522	1510	1446
1400050893730119386	1486	1527	1510	1446
1400050893750268454	1490	1519	1510	1447
1400050893765146913	1488	1523	1510	1446
1400050893784960912	1487	1527	1510	1446
1400050893800257371	1492	1526	1510	1445
1400050893815177423	1491	1533	1510	1446
1400050893835149881	1489	1528	1509	1447
1400050893850158495	1487	1516	1509	1446
1400050893875286856	1495	1519	1509	1446
1400050893890111800	1491	1520	1509	1446
1400050893905170802	1492	1527	1508	1446
1400050893935240526	1495	1521	1508	1445
1400050893950089491	1492	1524	1507	1445
1400050893970246523	1492	1530	1507	1445
1400050893990125671	1495	1524	1507	1446
1400050894005099902	1492	1526	1507	1444
1400050894025101861	1497	1524	1506	1445
1400050894040177887	1499	1531	1506	1444
1400050894055200866	1494	1530	1505	1445
1400050894075111535	1496	1525	1505	1445
1400050894090200607	1503	1528	1505	1444
1400050894104896233	1502	1529	1505	1444
1400050894124992235	1504	1529	1505	1444
1400050894150150468	1505	1528	1504	1444
1400050894175135000	1513	1528	1504	1445
1400050894200214595	1505	1526	1504	1444
1400050894220298690	1507	1524	1503	1444
1400050894250306855	1514	1523	1503	1445
1400050894265302764	1522	1521	1503	1445
1400050894280122779	1516	1523	1503	1444
1400050894305195417	1518	1529	1503	1445
1400050894320230268	1521	1527	1503	1445
1400050894340156399	1514	1525	1503	1445
1400050894370249977	1519	1525	1503	1446
1400050894390297484	1520	1517	1502	1446
1400050894420092574	1518	1528	1502	1445
1400050894440305267	1519	1514	1502	1446
1400050894454899400	1527	1526	1502	1445
1400050894475141302	1526	1529	1502	1446
1400050894490251074	1525	1529	1502	1446
1400050894505098242	1512	1522	1502	1447
1400050894530174682	1514	1518	1502	1446
1400050894540186097	1515	1522	1502	1447
1400050894555113746	1521	1519	1503	1447
1400050894575117559	1518	1520	1503	1447
1400050894590167425	1515	1522	1503	1446
1400050894605135315	1507	1523	1503	1445
1400050894625162114	1511	1524	1503	1445
1400050894640200848	1506	1517	1504	1446
1400050894670150730	1512	1517	1504	1446
1400050894685092518	1512	1514	1505	1446
1400050894699962862	1507	1515	1505	1446
1400050894720204944	1507	1511	1506	1446
1400050894735137166	1502	1511	1506	1446
1400050894750170590	1512	1511	1507	1446
1400050894770065815	1512	1507	1507	1446
1400050894785110805	1504	1506	1508	1446
1400050894799910931	1510	1510	1508	1446
1400050894819889628	1518	1512	1509	1445
1400050894834870398	1511	1508	1509	1445
1400050894849900480	1510	1502	1510	1446
1400050894869902628	1507	1504	1510	1446
1400050894889906348	1514	1505	1511	1445
1400050894904844591	1518	1493	1512	1445
1400050894924860582	1527	1498	1512	1446
1400050894940200318	1524	1509	1513	1445
1400050894970219537	1518	1488	1513	1446
1400050894995251747	1510	1495	1514	1447
1400050895005128979	1510	1490	1514	1447
1400050895025073448	1513	1491	1514	1447
1400050895040277293	1509	1484	1514	1448
1400050895070180280	1520	1496	1514	1448
1400050895090228673	1516	1492	1514	1449
1400050895120136997	1513	1496	1514	1450
1400050895139904130	1521	1499	1514	1450
1400050895185201745	1521	1493	1514	1452
1400050895200144986	1527	1503	1514	1452
1400050895215255408	1527	1504	1514	1453
1400050895230116774	1519	1509	1514	1453
1400050895250196075	1520	1483	1514	1453
1400050895265158604	1523	1487	1514	1454
1400050895290065977	1520	1494	1514	1454
1400050895310229267	1521	1499	1514	1454
1400050895325093809	1515	1506	1513	1455
1400050895355217238	1516	1506	1513	1454
1400050895375177305	1511	1504	1513	1456
1400050895390189499	1506	1501	1512	1456
1400050895420253265	1506	1506	1512	1455
1400050895439963758	1508	1510	1512	1455
1400050895455036562	1502	1508	1511	1455
1400050895475100513	1501	1513	1511	1454
1400050895489792320	1498	1517	1511	1455
1400050895510180756	1502	1521	1511	1455
1400050895525059041	1501	1525	1511	1454
1400050895540215522	1500	1529	1510	1455
1400050895555133009	1499	1522	1510	1455
1400050895575124470	1504	1521	1510	1455
1400050895590075580	1505	1526	1510	1455
1400050895605154433	1511	1514	1509	1455
1400050895625122531	1509	1524	1509	1454
1400050895650166808	1509	1528	1509	1453
1400050895670110351	1505	1521	1509	1454
1400050895685206362	1512	1530	1509	1452
1400050895700197059	1515	1531	1509	1451
1400050895730247691	1509	1533	1509	1451
1400050895740211258	1509	1533	1509	1450
1400050895755061553	1504	1522	1509	1451
1400050895775190135	1511	1527	1509	1450
1400050895790139257	1504	1519	1509	1450
1400050895805029652	1504	1536	1509	1449
1400050895835218650	1493	1531	1509	1449
1400050895850153928	1498	1527	1509	1450
1400050895875088910	1490	1527	1510	1449
1400050895900172602	1490	1536	1510	1449
1400050895920059584	1495	1533	1510	1449
1400050895935060387	1494	1534	1510	1449
1400050895950149824	1495	1535	1510	1448
1400050895980284508	1496	1536	1511	1448
1400050895990010757	1490	1543	1511	1447
1400050896005032994	1499	1542	1511	1447
1400050896025176938	1500	1543	1511	1447
1400050896040214764	1503	1542	1512	1446
1400050896069935931	1516	1537	1512	1446
1400050896085103554	1512	1538	1513	1445
1400050896099811436	1513	1538	1513	1446
1400050896120197835	1493	1530	1513	1445
1400050896140141194	1508	1531	1513	1445
1400050896154996367	1508	1520	1513	1446
1400050896175198810	1508	1512	1513	1446
1400050896189941529	1513	1521	1513	1445
1400050896215178369	1505	1524	1513	1445
1400050896224877561	1501	1521	1512	1446
1400050896239845070	1507	1513	1512	1446
1400050896254867879	1501	1520	1512	1446
1400050896274898469	1505	1520	1512	1445
1400050896289949182	1502	1518	1512	1446
1400050896304964222	1501	1516	1512	1446
1400050896324870501	1510	1517	1512	1446
1400050896339816382	1507	1515	1511	1446
1400050896369920622	1501	1522	1511	1446
1400050896384972820	1501	1516	1511	1446
1400050896399993452	1510	1509	1511	1445
1400050896415135885	1505	1517	1510	1446
1400050896430075492	1509	1512	1510	1445
1400050896460175978	1517	1518	1510	1445
1400050896475053403	1509	1521	1509	1445
1400050896490148279	1507	1519	1509	1444
1400050896504905293	1514	1519	1509	1445
1400050896524846901	1513	1507	1509	1445
1400050896540183210	1511	1507	1508	1445
1400050896555031268	1517	1507	1508	1446
1400050896575149671	1517	1506	1508	1445
1400050896590039429	1515	1507	1508	1445
1400050896605059805	1521	1505	1507	1445
1400050896624920988	1523	1501	1507	1446
1400050896640089196	1522	1499	1507	1446
1400050896670151211	1515	1505	1507	1446
1400050896684839392	1514	1502	1507	1447
1400050896715191259	1515	1498	1507	1447
1400050896724882338	1518	1497	1507	1447
1400050896740177161	1513	1497	1507	1448
1400050896760241044	1516	1495	1507	1448
1400050896775104731	1516	1500	1508	1447
1400050896790106191	1517	1499	1508	1447
1400050896805120961	1516	1504	1508	1448
1400050896835281444	1515	1496	1508	1447
1400050896850149906	1513	1503	1508	1447
1400050896870201293	1516	1499	1508	1447
1400050896900278432	1513	1500	1508	1446
1400050896920183707	1515	1497	1508	1446
1400050896935144753	1518	1502	1508	1446
1400050896950184229	1515	1503	1508	1445
1400050896970194105	1512	1498	1508	1445
1400050896980185740	1511	1501	1508	1445
1400050897000192560	1504	1496	1508	1445
1400050897020244175	1508	1494	1508	1445
1400050897035108069	1510	1498	1508	1445
1400050897050204481	1513	1496	1508	1445
1400050897070207007	1507	1500	1508	1445
1400050897085269316	1504	1498	1508	1444
1400050897100207350	1506	1498	1507	1444
1400050897120269618	1506	1496	1507	1444
1400050897135200425	1499	1496	1507	1445
1400050897150243286	1510	1494	1507	1444
1400050897165213816	1513	1498	1507	1444
1400050897185183524	1515	1500	1506	1444
1400050897199942321	1510	1499	1506	1445
1400050897214894533	1506	1506	1506	1444
1400050897239912718	1510	1499	1506	1445
1400050897254822868	1515	1500	1505	1445
1400050897274978561	1509	1496	1505	1446
1400050897289926087	1507	1497	1505	1446
1400050897304866175	1495	1492	1505	1447
1400050897324828625	1498	1495	1505	1446
1400050897349869573	1489	1496	1505	1446
1400050897369866198	1494	1497	1506	1447
1400050897379857356	1482	1494	1506	1447
1400050897399918968	1492	1506	1506	1446
1400050897419871060	1483	1506	1506	1447
1400050897434872854	1485	1510	1506	1446
1400050897449907638	1485	1518	1506	1447
1400050897469896206	1487	1509	1507	1448
1400050897484909722	1482	1515	1507	1449
1400050897499908323	1495	1499	1507	1448
1400050897524887362	1489	1511	1507	1448
1400050897539866399	1495	1506	1508	1449
1400050897554813267	1506	1507	1508	1450
1400050897574793889	1496	1509	1508	1450
1400050897589844277	1494	1514	1508	1449
1400050897609831329	1503	1514	1508	1449
1400050897624852864	1502	1511	1508	1450
1400050897639791532	1496	1520	1508	1450
1400050897670057227	1487	1515	1508	1450
1400050897695162644	1484	1519	1508	1451
1400050897704979371	1482	1524	1508	1451
1400050897725196872	1484	1521	1508	1451
1400050897740112364	1483	1523	1508	1451
1400050897760147591	1488	1521	1508	1451
1400050897775087789	1489	1524	1508	1451
1400050897790153400	1489	1524	1508	1451
1400050897820243741	1489	1510	1508	1451
1400050897834917607	1495	1517	1508	1451
1400050897849860389	1499	1505	1508	1451
1400050897874869113	1504	1508	1507	1451
1400050897899900728	1499	1515	1507	1452
1400050897919930697	1505	1515	1507	1452
1400050897929817272	1506	1514	1507	1452
1400050897949900589	1511	1510	1507	1452
1400050897969920049	1510	1504	1507	1452
1400050897984856790	1514	1505	1507	1452
1400050897999929418	1517	1505	1506	1452
1400050898019871227	1519	1507	1506	1452
1400050898039912520	1525	1507	1506	1451
1400050898054897283	1526	1502	1506	1452
1400050898074914284	1526	1505	1506	1452
1400050898089849365	1529	1507	1506	1452
1400050898104872040	1519	1508	1506	1452
1400050898124863418	1525	1507	1506	1452
1400050898139909933	1525	1501	1506	1452
1400050898154935658	1515	1522	1506	1452
1400050898179964795	1517	1520	1506	1451
1400050898189898810	1521	1523	1506	1451
1400050898204923227	1508	1529	1507	1452
1400050898224924220	1512	1519	1507	1451
1400050898239878014	1510	1528	1507	1452
1400050898259838694	1499	1519	1507	1452
1400050898274810603	1504	1517	1507	1453
1400050898289857536	1513	1518	1507	1453
1400050898310146962	1511	1517	1508	1453
1400050898325059948	1502	1519	1508	1453
1400050898340181453	1498	1524	1508	1453
1400050898360207286	1505	1521	1508	1453
1400050898375118006	1505	1526	1508	1453
1400050898390154036	1497	1525	1508	1454
1400050898415171061	1499	1515	1509	1454
1400050898424937243	1507	1515	1509	1454
1400050898440205892	1502	1517	1509	1454
1400050898460214067	1504	1511	1510	1455
1400050898474928514	1498	1520	1510	1455
1400050898489921850	1507	1516	1510	1455
1400050898519939275	1503	1503	1511	1455
1400050898534911160	1505	1506	1511	1455
1400050898549891036	1523	1524	1512	1456
1400050898569950762	1518	1516	1512	1456
1400050898584861000	1518	1519	1513	1456
1400050898604873317	1519	1516	1513	1456
1400050898624882373	1516	1514	1513	1457
1400050898640261362	1520	1521	1514	1457
1400050898655101878	1525	1522	1514	1457
1400050898675198236	1520	1525	1514	1457
1400050898695229638	1518	1518	1514	1457
1400050898710227454	1522	1524	1515	1457
1400050898724930440	1526	1531	1515	1457
1400050898750163323	1523	1523	1515	1458
1400050898770218295	1523	1527	1515	1458
1400050898785145146	1520	1522	1515	1458
1400050898800233608	1519	1517	1515	1459
1400050898820320157	1520	1515	1515	1458
1400050898850156187	1513	1511	1514	1458
1400050898870213771	1512	1512	1514	1459
1400050898890117160	1517	1510	1514	1458
1400050898905184235	1515	1513	1514	1458
1400050898925161160	1515	1508	1514	1458
1400050898940201656	1516	1508	1514	1458
1400050898955141405	1517	1510	1514	1458
1400050898975166148	1519	1512	1514	1457
1400050898990126941	1521	1509	1514	1457
1400050899020218263	1521	1518	1514	1457
1400050899035198497	1523	1521	1514	1456
1400050899055093744	1515	1510	1514	1456
1400050899075140400	1515	1513	1514	1455
1400050899100322709	1519	1511	1513	1455
1400050899120255378	1520	1518	1513	1455
1400050899129984338	1520	1515	1513	1455
1400050899150158945	1513	1501	1513	1455
1400050899170245424	1513	1504	1513	1455
1400050899185165463	1521	1510	1513	1454
1400050899200171113	1520	1501	1513	1454
1400050899220199288	1517	1495	1512	1454
1400050899235162443	1517	1495	1512	1454
1400050899250072762	1524	1492	1512	1453
1400050899270235711	1522	1503	1512	1454
1400050899290158473	1518	1496	1512	1453
1400050899305133731	1527	1499	1511	1453
1400050899325133288	1527	1496	1511	1453
1400050899340210737	1532	1496	1511	1453
1400050899355036396	1525	1493	1511	1453
1400050899375109990	1529	1499	1511	1453
1400050899395201895	1524	1500	1510	1453
1400050899405119040	1525	1496	1510	1453
1400050899425079875	1520	1491	1510	1454
1400050899445131623	1516	1498	1509	1453
1400050899460126004	1521	1497	1509	1453
1400050899475073950	1517	1498	1509	1454
1400050899490148506	1510	1494	1509	1454
1400050899505179460	1525	1494	1509	1453
1400050899525057792	1525	1496	1509	1454
1400050899540146009	1524	1501	1508	1453
1400050899555095932	1523	1503	1508	1453
1400050899575244659	1521	1503	1508	1454
1400050899590157860	1517	1495	1507	1454
1400050899605147690	1520	1492	1507	1454
1400050899635164186	1517	1492	1507	1454
1400050899650159969	1519	1485	1507	1454
1400050899665004595	1516	1490	1506	1453
1400050899690173084	1516	1490	1506	1454
1400050899710152662	1525	1493	1506	1454
1400050899735201055	1525	1493	1505	1454
1400050899755267546	1516	1494	1505	1454
1400050899775096970	1521	1495	1505	1455
1400050899800178094	1519	1502	1504	1455
1400050899820214870	1518	1505	1504	1455
1400050899840266898	1516	1511	1504	1455
1400050899870055354	1509	1510	1503	1456
1400050899885290225	1508	1513	1503	1456
1400050899900101621	1512	1512	1503	1456
1400050899920136264	1510	1513	1503	1456
1400050899935045214	1506	1510	1503	1457
1400050899950166342	1511	1512	1503	1457
1400050899970152785	1513	1518	1503	1458
1400050899990251584	1511	1516	1503	1458
1400050900005169020	1513	1518	1503	1457
1400050900035194034	1507	1521	1502	1458
1400050900050182114	1519	1512	1503	1458
1400050900065066526	1517	1513	1503	1458
1400050900089805735	1507	1513	1502	1459
1400050900104815736	1504	1506	1502	1459
1400050900124873513	1507	1510	1502	1459
1400050900139870058	1511	1515	1502	1458
1400050900154878736	1503	1511	1502	1459
1400050900174870242	1497	1503	1502	1458
1400050900189839451	1502	1512	1502	1459
1400050900209872117	1503	1521	1502	1460
1400050900224869161	1492	1517	1502	1460
1400050900240142328	1489	1514	1502	1460
1400050900259954256	1494	1517	1502	1460
1400050900275033419	1499	1521	1502	1461
1400050900290088602	1493	1519	1502	1460
1400050900305174590	1489	1516	1502	1460
1400050900340150711	1490	1516	1503	1462
1400050900355106310	1487	1523	1503	1462
1400050900380223574	1493	1517	1503	1462
1400050900390154102	1499	1514	1504	1462
1400050900405127166	1496	1519	1504	1462
1400050900425065002	1495	1518	1505	1462
1400050900440162986	1495	1520	1505	1462
1400050900469975475	1492	1509	1506	1463
1400050900490137301	1488	1507	1507	1463
1400050900505031712	1490	1503	1508	1463
1400050900535279752	1491	1507	1509	1463
1400050900555090765	1489	1511	1510	1462
1400050900575044229	1490	1510	1510	1461
1400050900590024556	1490	1509	1511	1462
1400050900620163357	1489	1510	1512	1462
1400050900645249727	1487	1508	1513	1462
1400050900660207057	1497	1510	1513	1462
1400050900675016101	1499	1515	1513	1462
1400050900699973402	1501	1513	1514	1462
1400050900719895379	1503	1516	1514	1461
1400050900734911534	1510	1523	1515	1462
1400050900754866461	1491	1511	1515	1461
1400050900774886968	1498	1515	1515	1460
1400050900789922023	1501	1515	1515	1461
1400050900804925293	1503	1508	1516	1461
1400050900824909074	1502	1508	1516	1461
1400050900845004867	1504	1505	1516	1460
1400050900854899202	1508	1510	1516	1461
1400050900874847587	1509	1508	1515	1460
1400050900889862396	1511	1506	1515	1461
1400050900904891265	1510	1506	1515	1460
1400050900924826731	1512	1511	1515	1460
1400050900939897449	1515	1511	1514	1460
1400050900954834376	1507	1517	1514	1459
1400050900974830414	1515	1515	1513	1459
1400050900999904182	1508	1521	1512	1460
1400050901024831141	1510	1516	1512	1460
1400050901039938800	1511	1522	1511	1459
1400050901054853171	1517	1519	1510	1460
1400050901084977947	1510	1520	1509	1459
1400050901099919942	1512	1519	1509	1459
1400050901119876214	1515	1519	1508	1459
1400050901134852990	1509	1524	1508	1459
1400050901149893744	1519	1522	1507	1459
1400050901164907475	1514	1522	1506	1459
1400050901184883108	1516	1526	1506	1459
1400050901199885955	1512	1510	1506	1458
1400050901219825082	1514	1510	1505	1459
1400050901239898603	1511	1516	1504	1458
1400050901269860594	1514	1511	1504	1458
1400050901289909495	1512	1508	1504	1458
1400050901304893219	1515	1519	1504	1458
1400050901324916696	1509	1514	1504	1458
1400050901339883599	1508	1516	1504	1458
1400050901354786833	1510	1512	1504	1458
1400050901374819270	1509	1515	1504	1457
1400050901394879930	1506	1509	1504	1457
1400050901409855044	1508	1504	1505	1457
1400050901424844257	1508	1507	1505	1457
1400050901439928255	1512	1505	1506	1457
1400050901469836298	1511	1501	1506	1457
1400050901484847664	1517	1504	1507	1456
1400050901499924213	1516	1512	1508	1457
1400050901519877678	1517	1500	1508	1457
1400050901534935015	1518	1504	1509	1457
1400050901549928614	1526	1507	1510	1457
1400050901564958271	1524	1500	1510	1455
1400050901589865506	1523	1502	1511	1456
1400050901604915822	1521	1496	1512	1456
1400050901624852340	1521	1496	1513	1456
1400050901639914152	1524	1495	1513	1456
1400050901654862675	1520	1490	1514	1457
1400050901674833112	1522	1493	1514	1456
1400050901699885811	1523	1495	1515	1455
1400050901719893691	1524	1491	1516	1456
1400050901739851414	1524	1496	1516	1455
1400050901754885183	1535	1490	1517	1455
1400050901774905126	1536	1498	1517	1455
1400050901789911489	1532	1502	1518	1453
1400050901819876950	1535	1490	1518	1455
1400050901834843063	1539	1491	1519	1454
1400050901850095305	1538	1488	1519	1455
1400050901865109932	1540	1491	1519	1455
1400050901885205499	1542	1487	1519	1453
1400050901900192054	1537	1505	1519	1453
1400050901920155537	1546	1498	1519	1454
1400050901935145315	1546	1488	1519	1453
1400050901955228082	1546	1495	1520	1453
1400050901975190892	1559	1496	1520	1452
1400050901990114817	1551	1497	1520	1452
1400050902005110010	1560	1496	1521	1452
1400050902025005387	1556	1495	1521	1452
1400050902040227457	1553	1487	1521	1453
1400050902055020400	1557	1499	1521	1453
1400050902075099440	1562	1497	1521	1453
1400050902090081847	1552	1486	1521	1452
1400050902109989752	1552	1495	1521	1453
1400050902125120310	1562	1498	1521	1453
1400050902140187473	1555	1490	1521	1452
1400050902155204107	1537	1502	1521	1453
1400050902175135422	1557	1503	1521	1451
1400050902200163162	1547	1509	1521	1450
1400050902220267204	1552	1509	1521	1450
1400050902235260898	1547	1521	1521	1449
1400050902254969349	1547	1514	1520	1450
1400050902275127947	1552	1520	1520	1449
1400050902290118607	1541	1518	1520	1449
1400050902305094178	1525	1518	1519	1449
1400050902324851924	1529	1517	1519	1448
1400050902344931639	1539	1521	1518	1449
1400050902354894276	1538	1523	1518	1448
1400050902374846450	1543	1528	1517	1447
1400050902399886983	1536	1519	1516	1449
1400050902419981213	1526	1526	1516	1449
1400050902449964760	1539	1524	1514	1448
1400050902470044806	1527	1530	1514	1447
1400050902484933288	1535	1530	1513	1448
1400050902504803533	1514	1538	1512	1449
1400050902524961322	1524	1537	1511	1448
1400050902539809532	1521	1540	1510	1447
1400050902554887964	1511	1532	1510	1447
1400050902584948212	1510	1539	1509	1447
1400050902599891478	1508	1528	1508	1448
1400050902619968265	1511	1533	1508	1446
1400050902634920025	1501	1519	1507	1448
1400050902655011291	1498	1535	1506	1446
1400050902674915793	1509	1531	1506	1446
1400050902689929475	1495	1537	1505	1445
1400050902704863297	1503	1526	1505	1445
1400050902734917242	1492	1535	1504	1445
1400050902749968554	1486	1543	1504	1444
1400050902769887452	1492	1545	1504	1443
1400050902779873343	1491	1540	1504	1443
1400050902799881980	1486	1542	1503	1442
1400050902820180845	1476	1549	1503	1442
1400050902840198863	1479	1545	1503	1442
1400050902860238250	1477	1542	1503	1441
1400050902875207310	1480	1543	1503	1442
1400050902900213121	1474	1540	1503	1441
1400050902920144473	1480	1544	1503	1440
1400050902935135726	1483	1546	1503	1439
1400050902955050492	1483	1532	1503	1439
1400050902974880011	1487	1542	1503	1439
1400050902990008515	1497	1537	1504	1439
1400050903004882841	1504	1529	1504	1439
1400050903024905760	1497	1533	1504	1439
1400050903044933804	1492	1529	1504	1438
1400050903054883949	1486	1533	1504	1437
1400050903074855917	1500	1529	1504	1437
1400050903089826411	1499	1521	1504	1437
1400050903104837234	1510	1526	1504	1437
1400050903125108069	1506	1526	1504	1437
1400050903140153154	1516	1521	1504	1437
1400050903155121121	1499	1521	1504	1437
1400050903185071043	1507	1517	1504	1437
1400050903205169927	1508	1514	1504	1438
1400050903224985764	1509	1521	1504	1437
1400050903250154477	1515	1517	1504	1437
1400050903265254049	1517	1517	1504	1437
1400050903285199547	1519	1513	1504	1437
1400050903300233056	1518	1510	1504	1438
1400050903315113265	1520	1517	1504	1437
1400050903335179847	1527	1521	1504	1438
1400050903360226787	1530	1509	1504	1437
1400050903375139392	1526	1513	1504	1438
1400050903389916599	1534	1517	1504	1437
1400050903405140479	1518	1514	1504	1438
1400050903425125176	1516	1519	1505	1438
1400050903440280037	1518	1519	1505	1437
1400050903455223805	1530	1510	1505	1438
1400050903485172902	1529	1512	1505	1439
1400050903515261322	1539	1510	1505	1438
1400050903525201598	1537	1502	1505	1439
1400050903540187992	1540	1512	1505	1439
1400050903555238472	1541	1510	1505	1439
1400050903575142265	1539	1512	1506	1439
1400050903589939031	1542	1506	1506	1439
1400050903605145025	1543	1511	1506	1440
1400050903625180713	1546	1506	1506	1439
1400050903650198474	1545	1509	1506	1439
1400050903670292211	1539	1511	1507	1439
1400050903685149929	1540	1508	1507	1440
1400050903704992132	1540	1520	1507	1438
1400050903725119838	1540	1516	1507	1439
1400050903755194186	1528	1513	1507	1439
1400050903785192481	1529	1517	1508	1439
1400050903805149301	1537	1517	1508	1438
1400050903835070649	1531	1512	1508	1439
1400050903850032010	1533	1509	1508	1439
1400050903875183309	1539	1513	1508	1439
1400050903890139149	1527	1511	1508	1439
1400050903905079753	1533	1512	1508	1439
1400050903935165159	1534	1514	1508	1439
1400050903950112450	1528	1518	1508	1439
1400050903970146204	1531	1515	1509	1439
1400050903980277635	1527	1515	1509	1439
1400050904000184335	1524	1521	1509	1438
1400050904015127041	1529	1525	1509	1438
1400050904035110147	1523	1529	1509	1438
1400050904050241595	1519	1528	1509	1438
1400050904070074430	1510	1526	1508	1439
1400050904085073172	1510	1521	1508	1439
1400050904100187232	1516	1520	1508	1439
1400050904120262733	1516	1521	1508	1440
1400050904135200302	1511	1517	1508	1439
1400050904150080163	1514	1521	1508	1439
1400050904170254214	1512	1526	1508	1439
1400050904200207585	1509	1526	1507	1439
1400050904220211018	1505	1524	1507	1440
1400050904235233863	1502	1528	1507	1440
1400050904250083828	1500	1529	1507	1440
1400050904270163585	1500	1530	1507	1439
1400050904280207395	1498	1529	1507	1439
1400050904300159065	1497	1534	1506	1439
1400050904320190832	1494	1533	1506	1439
1400050904340225478	1491	1538	1506	1439
1400050904355159708	1487	1531	1506	1440
1400050904375087921	1486	1528	1505	1440
1400050904390224994	1487	1534	1505	1440
1400050904405147171	1488	1530	1505	1440
1400050904424914826	1490	1537	1504	1439
1400050904449938767	1494	1538	1504	1439
1400050904469919950	1492	1534	1503	1440
1400050904494954341	1474	1539	1503	1440
1400050904504882609	1479	1542	1502	1439
1400050904529899796	1483	1543	1502	1439
1400050904539880721	1479	1539	1502	1439
1400050904554869934	1496	1541	1502	1439
1400050904575139872	1496	1544	1502	1439
1400050904590120139	1491	1544	1502	1438
1400050904605173316	1503	1539	1501	1439
1400050904625130569	1506	1538	1501	1438
1400050904640218319	1505	1538	1501	1438
1400050904655246827	1487	1537	1501	1438
1400050904675071210	1495	1537	1501	1438
1400050904690200843	1498	1539	1501	1438
1400050904705137173	1507	1535	1502	1438
1400050904730205733	1500	1532	1502	1438
1400050904739994246	1504	1535	1501	1438
1400050904770194205	1494	1535	1502	1439
1400050904785115005	1494	1526	1502	1440
1400050904800199801	1493	1534	1502	1440
1400050904820208835	1499	1534	1502	1439
1400050904835216045	1503	1534	1502	1440
1400050904855232346	1506	1534	1502	1440
1400050904875204560	1509	1529	1502	1441
1400050904890228572	1511	1527	1502	1441
1400050904905171336	1516	1527	1503	1441
1400050904925131310	1516	1522	1503	1442
1400050904950241743	1516	1527	1503	1441
1400050904970245833	1519	1530	1503	1441
1400050904980211803	1520	1521	1503	1441
1400050905000073995	1521	1524	1504	1442
1400050905020151170	1521	1524	1504	1442
1400050905030116372	1521	1521	1504	1442
1400050905050066489	1531	1516	1505	1443
1400050905070153493	1523	1516	1505	1442
1400050905085119273	1534	1505	1506	1443
1400050905100270379	1535	1514	1506	1442
1400050905125164748	1537	1514	1507	1441
1400050905140181553	1540	1511	1507	1442
1400050905155062542	1544	1512	1508	1442
1400050905185098943	1546	1516	1508	1441
1400050905200070403	1547	1521	1509	1440
1400050905230190284	1547	1512	1509	1442
1400050905240292811	1548	1514	1510	1441
1400050905255160872	1554	1514	1510	1442
1400050905275113057	1555	1525	1510	1442
1400050905290107866	1556	1523	1511	1441
1400050905304953703	1550	1524	1511	1441
1400050905335156044	1545	1523	1511	1442
1400050905350145984	1553	1528	1512	1442
1400050905375129342	1541	1518	1512	1444
1400050905400280263	1555	1509	1512	1443
1400050905420264464	1550	1510	1512	1443
1400050905435245557	1550	1508	1512	1443
1400050905465218134	1547	1513	1513	1442
1400050905485161623	1544	1517	1513	1441
1400050905500256753	1547	1520	1513	1442
1400050905520199974	1555	1522	1513	1441
1400050905535171376	1547	1522	1513	1441
1400050905550204979	1549	1506	1513	1442
1400050905569895609	1542	1512	1513	1442
1400050905590179704	1546	1518	1513	1441
1400050905605102936	1543	1512	1513	1442
1400050905635170555	1535	1510	1513	1441
1400050905655124279	1537	1513	1513	1442
1400050905675130925	1536	1513	1513	1442
1400050905699913274	1538	1517	1514	1442
1400050905719867817	1532	1516	1514	1442
1400050905729866657	1529	1519	1514	1442
1400050905749864927	1530	1525	1514	1442
1400050905769865078	1526	1524	1514	1442
1400050905784862128	1525	1519	1515	1442
1400050905804908888	1521	1511	1515	1443
1400050905819920070	1525	1514	1515	1443
1400050905834955671	1524	1512	1515	1443
1400050905849912996	1524	1513	1515	1443
1400050905875137335	1512	1507	1515	1443
1400050905900321259	1514	1519	1516	1443
1400050905920158744	1513	1515	1516	1443
1400050905930149983	1504	1518	1516	1443
1400050905950129279	1504	1518	1516	1443
1400050905980250678	1502	1519	1516	1443
1400050905990147117	1503	1513	1516	1442
1400050906005172075	1494	1522	1516	1443
1400050906025131259	1490	1518	1516	1443
1400050906040182102	1493	1516	1516	1443
1400050906055076173	1498	1522	1517	1443
1400050906075237063	1497	1514	1517	1443
1400050906100260601	1497	1523	1517	1443
1400050906120163488	1494	1519	1517	1443
1400050906140261987	1501	1525	1517	1442
1400050906155096354	1507	1529	1516	1444
1400050906175152901	1504	1529	1516	1444
1400050906190192535	1507	1527	1516	1444
1400050906205163767	1498	1519	1516	1444
1400050906224844675	1497	1521	1516	1444
1400050906239972574	1495	1522	1515	1444
1400050906255119103	1495	1516	1515	1446
1400050906275063267	1491	1517	1515	1446
1400050906290134125	1495	1504	1514	1446
1400050906305149968	1498	1512	1514	1446
1400050906335157546	1499	1511	1513	1446
1400050906350178394	1493	1516	1513	1446
1400050906370162000	1492	1520	1512	1446
1400050906390132788	1493	1512	1511	1448
1400050906405114651	1493	1520	1511	1447
1400050906425310622	1490	1525	1510	1449
1400050906445119195	1500	1523	1510	1448
1400050906455177676	1504	1521	1510	1448
1400050906475132022	1500	1514	1509	1450
1400050906490068376	1504	1511	1509	1450
1400050906505148665	1504	1510	1509	1450
1400050906525011997	1502	1516	1509	1450
1400050906540106884	1508	1518	1509	1450
1400050906560181233	1505	1513	1508	1451
1400050906575138061	1516	1502	1508	1451
1400050906590164522	1510	1504	1508	1451
1400050906620223441	1510	1505	1508	1451
1400050906635217427	1505	1505	1508	1451
1400050906650228960	1511	1499	1508	1452
1400050906665156315	1513	1494	1508	1451
1400050906684894317	1509	1500	1508	1451
1400050906700122553	1522	1498	1508	1451
1400050906715303453	1509	1502	1508	1451
1400050906735142436	1521	1503	1508	1451
1400050906750185631	1510	1499	1508	1451
1400050906770173344	1521	1500	1508	1451
1400050906790239001	1515	1499	1508	1451
1400050906805142702	1519	1498	1508	1450
1400050906825162956	1511	1494	1508	1451
1400050906840200194	1528	1501	1508	1449
1400050906855191831	1521	1498	1508	1448
1400050906875115191	1527	1492	1508	1449
1400050906890189109	1527	1495	1508	1449
1400050906915195110	1525	1491	1508	1448
1400050906935145125	1530	1495	1508	1447
1400050906950194019	1527	1497	1507	1448
1400050906965181427	1528	1498	1507	1447
1400050906985055422	1527	1485	1507	1447
1400050907000207273	1532	1492	1507	1446
1400050907025221383	1530	1492	1507	1446
1400050907040193008	1532	1492	1507	1447
1400050907055098505	1535	1495	1506	1446
1400050907085217402	1534	1492	1506	1446
1400050907100239997	1532	1496	1506	1445
1400050907125103924	1539	1498	1506	1445
1400050907140100476	1531	1498	1506	1445
1400050907155163271	1535	1496	1506	1446
1400050907175100623	1535	1494	1506	1445
1400050907190189835	1535	1506	1506	1444
1400050907205057947	1537	1508	1506	1444
1400050907225166169	1534	1503	1506	1443
1400050907240215372	1530	1513	1506	1443
1400050907260254226	1526	1506	1506	1443
1400050907275189635	1526	1504	1506	1444
1400050907290153179	1527	1501	1506	1444
1400050907320235315	1524	1500	1506	1443
1400050907335147958	1518	1506	1506	1443
1400050907355109261	1518	1502	1507	1443
1400050907375087434	1517	1503	1507	1442
1400050907390111494	1515	1509	1507	1441
1400050907405154141	1539	1512	1507	1442
1400050907425096113	1531	1511	1507	1441
1400050907445191546	1526	1505	1507	1442
1400050907455142281	1523	1508	1507	1442
1400050907475124709	1522	1506	1507	1442
1400050907490237408	1521	1509	1508	1441
1400050907510109546	1530	1514	1508	1441
1400050907535087493	1518	1513	1508	1442
1400050907550121337	1521	1512	1508	1441
1400050907570165625	1522	1507	1508	1441
1400050907590118579	1519	1515	1508	1442
1400050907605191120	1522	1517	1509	1442
1400050907625164337	1523	1512	1509	1442
1400050907640212352	1524	1513	1509	1442
1400050907655096135	1521	1515	1509	1442
1400050907680180665	1522	1516	1509	1442
1400050907690106307	1526	1522	1509	1442
1400050907705172146	1517	1519	1510	1442
1400050907725133102	1517	1516	1510	1442
1400050907740180049	1517	1511	1510	1442
1400050907760184238	1518	1525	1510	1442
1400050907785183560	1516	1519	1510	1442
1400050907805203991	1508	1524	1510	1442
1400050907825231811	1508	1533	1510	1441
1400050907840005244	1507	1527	1511	1442
1400050907855095800	1510	1521	1511	1442
1400050907874963601	1510	1520	1511	1443
1400050907890152460	1506	1520	1511	1442
1400050907920153687	1507	1527	1511	1442
1400050907935135562	1504	1523	1511	1442
1400050907950118762	1507	1525	1511	1442
1400050907970168401	1504	1529	1511	1443
1400050907985176801	1504	1520	1511	1443
1400050908005094312	1502	1528	1511	1443
1400050908025130257	1504	1530	1511	1443
1400050908040209229	1505	1530	1511	1443
1400050908069956367	1505	1532	1510	1443
1400050908085140563	1508	1536	1510	1443
1400050908105189240	1505	1536	1510	1443
1400050908125188554	1501	1536	1510	1443
1400050908150065091	1510	1532	1510	1443
1400050908165219526	1510	1536	1509	1444
1400050908185150106	1511	1538	1509	1443
1400050908200136068	1508	1534	1509	1444
1400050908220268004	1510	1530	1509	1445
1400050908230233435	1508	1530	1508	1444
1400050908250216187	1511	1526	1508	1445
1400050908270197809	1515	1523	1508	1445
1400050908300164315	1505	1528	1508	1446
1400050908320329255	1504	1533	1508	1446
1400050908340161396	1507	1522	1507	1446
1400050908370088795	1505	1517	1507	1447
1400050908385063447	1504	1514	1507	1447
1400050908400185254	1505	1509	1507	1448
1400050908415076823	1512	1526	1507	1447
1400050908435074160	1514	1529	1507	1447
1400050908450184093	1516	1533	1507	1447
1400050908470122916	1517	1533	1506	1447
1400050908485208109	1511	1534	1506	1447
1400050908505266616	1515	1526	1506	1448
1400050908525135802	1520	1526	1506	1448
1400050908540164829	1521	1526	1506	1448
1400050908570108539	1519	1522	1506	1448
1400050908585172728	1517	1517	1506	1449
1400050908604866389	1517	1514	1506	1449
1400050908625223724	1520	1510	1506	1449
1400050908640187636	1513	1511	1506	1449
1400050908660174662	1517	1515	1506	1449
1400050908675081120	1520	1518	1506	1448
1400050908690124334	1521	1520	1506	1448
1400050908710128214	1514	1513	1506	1448
1400050908725080423	1513	1510	1506	1449
1400050908750105793	1519	1504	1506	1449
1400050908770090523	1508	1509	1506	1449
1400050908785102932	1521	1513	1506	1449
1400050908804809717	1512	1503	1507	1450
1400050908825157333	1516	1500	1507	1450
1400050908840125512	1517	1509	1507	1450
1400050908855226062	1525	1512	1507	1449
1400050908875145523	1521	1514	1508	1449
1400050908895309740	1524	1513	1508	1449
1400050908904923292	1522	1518	1508	1449
1400050908924946312	1518	1511	1508	1449
1400050908945307686	1523	1505	1509	1449
1400050908954881150	1522	1500	1509	1450
1400050908985155405	1522	1509	1509	1449
1400050909000233780	1522	1512	1510	1449
1400050909020060959	1519	1508	1510	1449
1400050909035150402	1517	1507	1510	1449
1400050909050256757	1521	1504	1510	1450
1400050909069901391	1514	1501	1510	1450
1400050909085091624	1511	1505	1511	1450
1400050909105123046	1519	1510	1511	1449
1400050909135089897	1515	1509	1512	1449
1400050909149944558	1520	1510	1512	1449
1400050909165142050	1520	1509	1512	1449
1400050909185067107	1519	1507	1512	1450
1400050909210235857	1516	1511	1513	1449
1400050909225123710	1516	1512	1513	1449
1400050909240095022	1517	1507	1513	1449
1400050909270190914	1518	1512	1513	1450
1400050909285175379	1521	1516	1513	1450
1400050909300078677	1520	1518	1513	1449
1400050909315085191	1519	1520	1513	1450
1400050909330181338	1520	1517	1513	1451
1400050909355093421	1520	1526	1513	1450
1400050909375166644	1521	1522	1513	1450
1400050909390107444	1517	1520	1513	1451
1400050909410247532	1514	1510	1513	1451
1400050909425162968	1519	1513	1514	1451
1400050909440204945	1521	1515	1514	1451
1400050909455248272	1513	1515	1513	1451
1400050909475123457	1515	1521	1513	1451
1400050909500201998	1514	1515	1513	1451
1400050909519997528	1513	1516	1513	1451
1400050909540187703	1514	1514	1513	1451
1400050909555129797	1518	1521	1513	1451
1400050909585238297	1519	1521	1512	1450
1400050909600156306	1521	1520	1512	1450
1400050909615242529	1525	1522	1512	1450
1400050909635171365	1524	1520	1512	1449
1400050909650122706	1526	1519	1512	1449
1400050909665163844	1529	1526	1512	1449
1400050909680237584	1525	1528	1511	1448
1400050909700135117	1519	1534	1511	1448
1400050909720171767	1517	1534	1511	1448
1400050909735155553	1520	1526	1511	1448
1400050909750047688	1515	1522	1510	1448
1400050909770137352	1510	1528	1510	1448
1400050909785189561	1513	1532	1510	1447
1400050909800125299	1526	1528	1510	1447
1400050909815112708	1517	1534	1510	1446
1400050909835131343	1517	1540	1510	1446
1400050909850094203	1522	1539	1510	1446
1400050909870099202	1514	1544	1510	1446
1400050909884890576	1510	1543	1510	1446
1400050909899913426	1507	1534	1510	1446
1400050909919899091	1503	1538	1510	1446
1400050909934927783	1504	1540	1511	1446
1400050909949891681	1518	1539	1511	1446
1400050909969875860	1511	1535	1511	1445
1400050909989903390	1507	1544	1511	1445
1400050910004879067	1503	1546	1511	1445
1400050910025066465	1507	1535	1512	1445
1400050910040155966	1505	1534	1512	1445
1400050910054851033	1500	1535	1512	1445
1400050910075073606	1501	1528	1512	1446
1400050910090035948	1495	1531	1512	1445
1400050910105063878	1504	1534	1512	1444
1400050910125068917	1508	1536	1512	1444
1400050910140163017	1497	1533	1512	1445
1400050910170028967	1509	1524	1512	1445
1400050910184848916	1508	1524	1512	1444
1400050910205176667	1499	1537	1512	1445
1400050910235150978	1499	1534	1511	1445
1400050910255047344	1502	1534	1511	1444
1400050910275115827	1508	1537	1511	1445
1400050910290116475	1509	1535	1511	1445
1400050910305057475	1495	1537	1511	1445
1400050910335274549	1505	1533	1511	1446
1400050910350220583	1514	1535	1511	1445
1400050910380196526	1514	1527	1511	1446
1400050910389835986	1516	1526	1511	1447
1400050910405009207	1504	1524	1511	1447
1400050910425092501	1501	1523	1510	1446
1400050910440300199	1501	1520	1510	1447
1400050910455136094	1503	1520	1510	1447
1400050910475083796	1501	1518	1510	1448
1400050910500047439	1501	1518	1510	1447
1400050910524897607	1504	1506	1510	1448
1400050910539877626	1508	1509	1509	1449
1400050910554827947	1506	1512	1509	1448
1400050910584944396	1511	1506	1509	1448
1400050910614914176	1512	1504	1509	1448
1400050910624840736	1510	1503	1509	1448
1400050910639850500	1512	1498	1509	1449
1400050910654858837	1515	1500	1509	1449
1400050910675063931	1509	1493	1509	1449
1400050910690078671	1508	1498	1510	1449
1400050910705108021	1521	1499	1510	1448
1400050910735227231	1516	1500	1510	1448
1400050910750082071	1515	1509	1510	1448
1400050910770160411	1521	1504	1510	1448
1400050910785225724	1516	1509	1510	1449
1400050910800172223	1510	1512	1510	1448
1400050910820258035	1511	1511	1511	1448
1400050910830170288	1513	1517	1511	1448
1400050910850171084	1514	1510	1511	1448
1400050910870218876	1519	1512	1511	1448
1400050910885220998	1517	1519	1511	1449
1400050910900111712	1524	1509	1511	1448
1400050910920245912	1520	1510	1511	1449
1400050910935212327	1516	1510	1511	1449
1400050910955208278	1523	1496	1511	1450
1400050910975194724	1523	1503	1511	1449
1400050910990207541	1527	1505	1511	1449
1400050911005169382	1519	1509	1511	1450
1400050911035186667	1523	1503	1511	1450
1400050911050106400	1525	1507	1511	1450
1400050911065113094	1520	1509	1511	1451
1400050911080144490	1520	1505	1511	1451
1400050911105174369	1525	1508	1511	1451
1400050911124954062	1518	1517	1511	1451
1400050911140080534	1521	1517	1511	1451
1400050911155077544	1524	1513	1511	1450
1400050911175114522	1523	1521	1511	1451
1400050911200233926	1528	1460	1511	1451
1400050911220163216	1528	1470	1511	1451
1400050911235276194	1528	1477	1511	1451
1400050911255129320	1529	1483	1512	1451
1400050911275114391	1524	1492	1512	1451
1400050911290240694	1527	1499	1512	1450
1400050911319932355	1524	1493	1512	1451
1400050911334870472	1522	1491	1512	1451
1400050911349854788	1514	1492	1512	1450
1400050911369960214	1515	1489	1512	1450
1400050911384872010	1517	1485	1513	1450
1400050911399907295	1519	1489	1513	1450
1400050911419869278	1517	1479	1513	1450
1400050911434865293	1516	1468	1513	1450
1400050911449905797	1521	1463	1513	1450
1400050911470138156	1521	1456	1513	1450
1400050911490062512	1519	1434	1513	1450
1400050911505097809	1521	1445	1513	1450
1400050911525164000	1524	1436	1513	1450
1400050911550144303	1520	1391	1513	1450
1400050911570351517	1516	1393	1513	1450
1400050911584943163	1520	1388	1513	1450
1400050911600242807	1508	1402	1513	1450
1400050911619914391	1527	1405	1513	1449
1400050911634902434	1509	1423	1513	1449
1400050911649879588	1525	1468	1512	1449
1400050911669876217	1512	1488	1512	1450
1400050911684865067	1504	1491	1512	1450
1400050911699927978	1511	1550	1512	1450
1400050911724814564	1508	1569	1511	1451
1400050911739820785	1510	1603	1511	1450
1400050911754863880	1508	1675	1511	1451
1400050911774869673	1510	1699	1511	1451
1400050911790085519	1503	1699	1510	1450
1400050911805151673	1495	1699	1510	1450
1400050911825012192	1507	1699	1510	1450
1400050911845132180	1503	1696	1509	1451
1400050911855110536	1490	1699	1509	1450
1400050911875100174	1497	1699	1509	1450
1400050911890097876	1490	1699	1508	1450
1400050911905133929	1502	1645	1508	1450
1400050911925179641	1489	1640	1507	1449
1400050911950126365	1498	1548	1507	1450
1400050911970149725	1495	1517	1507	1450
1400050912000180106	1492	1598	1506	1450
1400050912015220658	1493	1565	1506	1450
1400050912035214531	1495	1529	1505	1450
1400050912050126359	1502	1478	1505	1450
1400050912065117348	1512	1466	1505	1451
1400050912085091791	1513	1451	1504	1450
1400050912105184211	1500	1484	1504	1451
1400050912125178616	1504	1471	1504	1451
1400050912140227477	1502	1467	1504	1450
1400050912155174225	1494	1474	1504	1452
1400050912184914895	1495	1477	1504	1452
1400050912200214168	1489	1475	1504	1452
1400050912220026022	1499	1484	1504	1451
1400050912235105940	1499	1492	1503	1451
1400050912250210775	1488	1528	1504	1452
1400050912265160250	1495	1522	1504	1452
1400050912280118441	1499	1527	1504	1452
1400050912300154732	1494	1580	1504	1452
1400050912320311539	1488	1587	1504	1452
1400050912340181587	1497	1601	1505	1452
1400050912359910905	1485	1641	1505	1452
1400050912375180419	1483	1639	1506	1451
1400050912390177257	1487	1642	1506	1452
1400050912405161014	1489	1562	1507	1452
1400050912425157542	1491	1550	1507	1451
1400050912450138199	1486	1526	1508	1452
1400050912470242393	1484	1500	1508	1452
1400050912485198778	1483	1500	1508	1452
1400050912500153643	1487	1426	1509	1452
1400050912515155788	1489	1410	1509	1452
1400050912530190824	1488	1387	1509	1452
1400050912550090483	1488	1378	1510	1453
1400050912565242902	1492	1376	1510	1452
1400050912589916818	1488	1357	1510	1452
1400050912604881635	1486	1399	1511	1451
1400050912624880296	1482	1388	1511	1452
1400050912639871407	1483	1396	1511	1451
1400050912654938854	1480	1419	1511	1450
1400050912684901638	1484	1428	1512	1451
1400050912704904963	1495	1473	1513	1451
1400050912724889465	1494	1486	1513	1451
1400050912749981765	1500	1519	1513	1450
1400050912765141315	1499	1520	1514	1449
1400050912779884578	1504	1539	1514	1451
1400050912805197574	1495	1532	1515	1450
1400050912825161993	1497	1545	1516	1449
1400050912840120885	1502	1544	1516	1449
1400050912854880429	1503	1559	1516	1450
1400050912875143846	1509	1553	1517	1450
1400050912890276889	1521	1536	1517	1450
1400050912905101925	1509	1489	1518	1450
1400050912925120699	1501	1463	1518	1450
1400050912940162390	1506	1445	1518	1450
1400050912955177896	1512	1404	1519	1451
1400050912985219815	1512	1383	1519	1450
1400050913005186828	1512	1352	1519	1451
1400050913025134450	1515	1332	1519	1450
1400050913040309210	1512	1332	1519	1450
1400050913070422433	1516	1350	1518	1450
1400050913090256942	1512	1361	1518	1451
1400050913100185270	1516	1380	1518	1449
1400050913120245357	1510	1399	1517	1451
1400050913140245478	1512	1415	1517	1450
1400050913155162550	1517	1469	1517	1450
1400050913175003000	1530	1508	1517	1450
1400050913200211231	1527	1583	1516	1450
1400050913220221094	1522	1622	1516	1452
1400050913240221505	1526	1672	1516	1452
1400050913255132027	1525	1666	1516	1452
1400050913275174322	1528	1696	1515	1453
1400050913290135917	1528	1699	1516	1453
1400050913320266610	1530	1699	1516	1453
1400050913330095583	1530	1699	1516	1453
1400050913350205124	1527	1699	1515	1454
1400050913370224245	1528	1695	1516	1454
1400050913385115819	1515	1699	1516	1455
1400050913400276486	1522	1652	1516	1454
1400050913420199363	1518	1645	1516	1455
1400050913440146227	1502	1649	1516	1453
1400050913455190528	1523	1662	1516	1454
1400050913474899314	1530	1637	1516	1453
1400050913490127958	1520	1616	1516	1455
1400050913505155524	1509	1552	1516	1455
1400050913530170414	1520	1523	1516	1454
