#Time	 Roll 	 Pitch 	 Yaw 	 Thrust
1399890741473199976	1525	1476	1507	1402
1399890741483126924	1521	1463	1508	1404
1399890741487973702	1524	1475	1508	1402
1399890741503079271	1525	1460	1508	1403
1399890741518160244	1519	1469	1508	1402
1399890741523315988	1513	1456	1508	1404
1399890741533173738	1524	1478	1508	1402
1399890741538102907	1523	1462	1508	1403
1399890741553082580	1514	1467	1508	1403
1399890741558072524	1515	1468	1509	1403
1399890741568059428	1517	1457	1509	1404
1399890741573003143	1518	1470	1509	1402
1399890741583106985	1520	1456	1509	1403
1399890741588067892	1512	1465	1509	1403
1399890741603095094	1510	1456	1509	1404
1399890741608028246	1513	1456	1509	1404
1399890741618110014	1517	1463	1509	1403
1399890741623059689	1514	1454	1510	1403
1399890741633205089	1519	1470	1510	1403
1399890741638156469	1520	1463	1510	1403
1399890741648239641	1518	1469	1510	1403
1399890741653069578	1524	1470	1510	1403
1399890741668100798	1524	1466	1510	1403
1399890741673022768	1518	1471	1511	1403
1399890741678097747	1515	1467	1510	1403
1399890741688172470	1513	1463	1511	1403
1399890741698106828	1527	1466	1511	1403
1399890741703067489	1515	1470	1511	1403
1399890741718083160	1517	1471	1511	1403
1399890741723072903	1524	1467	1511	1403
1399890741733171594	1524	1462	1511	1403
1399890741738042517	1519	1465	1511	1403
1399890741753178572	1509	1460	1511	1403
1399890741758038658	1518	1459	1511	1403
1399890741768156940	1521	1464	1511	1402
1399890741773066223	1502	1459	1511	1404
1399890741783066356	1516	1470	1511	1402
1399890741788122601	1521	1456	1511	1404
1399890741803137140	1516	1464	1511	1403
1399890741808089298	1522	1470	1511	1403
1399890741818213392	1512	1455	1511	1404
1399890741823052440	1525	1465	1511	1403
1399890741833123719	1512	1465	1511	1404
1399890741838154959	1504	1468	1511	1403
1399890741853211246	1520	1464	1511	1403
1399890741858104678	1519	1466	1511	1403
1399890741868203823	1517	1465	1511	1404
1399890741873082082	1511	1466	1511	1403
1399890741883217547	1515	1462	1511	1404
1399890741888154112	1511	1470	1510	1404
1399890741903234414	1512	1463	1510	1404
1399890741908206016	1526	1466	1510	1404
1399890741918241944	1525	1468	1510	1403
1399890741923086812	1519	1463	1510	1404
1399890741928091787	1513	1472	1510	1403
1399890741938158744	1508	1460	1510	1404
1399890741948111574	1521	1460	1510	1404
1399890741953134736	1514	1461	1509	1404
1399890741968133496	1509	1459	1509	1405
1399890741973098139	1518	1471	1509	1403
1399890741983174502	1515	1453	1509	1405
1399890741988094892	1519	1473	1509	1404
1399890742003159554	1515	1467	1508	1405
1399890742018109036	1522	1477	1508	1404
1399890742023151871	1518	1460	1508	1406
1399890742033235676	1526	1481	1508	1405
1399890742038081890	1526	1475	1508	1405
1399890742053154756	1521	1477	1508	1405
1399890742068131271	1526	1476	1508	1406
1399890742073085427	1526	1478	1507	1406
1399890742083129301	1527	1481	1507	1405
1399890742088097862	1517	1468	1507	1405
1399890742103152071	1518	1473	1507	1406
1399890742108116256	1515	1476	1507	1406
1399890742118112316	1524	1465	1507	1406
1399890742123080111	1526	1481	1507	1405
1399890742133097469	1525	1467	1507	1406
1399890742138010980	1523	1474	1507	1405
1399890742147962326	1521	1474	1507	1405
1399890742152967287	1515	1470	1507	1407
1399890742163017350	1529	1485	1507	1405
1399890742173169234	1521	1465	1506	1407
1399890742178145885	1529	1482	1506	1405
1399890742188092359	1525	1469	1506	1406
1399890742198060497	1527	1467	1506	1406
1399890742208057497	1528	1474	1506	1405
1399890742218081564	1531	1464	1506	1407
1399890742223028610	1535	1474	1506	1405
1399890742233129673	1529	1466	1506	1406
1399890742238082960	1530	1473	1506	1406
1399890742253072696	1530	1473	1506	1406
1399890742268062730	1525	1474	1506	1405
1399890742273085545	1532	1474	1506	1406
1399890742282781385	1531	1473	1506	1406
1399890742288071893	1543	1480	1506	1406
1399890742303017967	1545	1478	1506	1407
1399890742307976921	1542	1471	1506	1407
1399890742318044817	1544	1478	1506	1405
1399890742322977207	1543	1472	1506	1406
1399890742332978881	1538	1485	1506	1406
1399890742338160376	1554	1482	1506	1406
1399890742352969645	1547	1475	1506	1407
1399890742357998838	1552	1486	1506	1406
1399890742368118537	1545	1473	1506	1407
1399890742373136995	1552	1490	1506	1407
1399890742383178692	1548	1473	1506	1406
1399890742387993646	1544	1471	1506	1407
1399890742398016183	1554	1483	1506	1406
1399890742403132127	1556	1467	1506	1408
1399890742413046558	1549	1483	1506	1406
1399890742423049759	1549	1478	1506	1407
1399890742428087982	1555	1482	1506	1408
1399890742438060490	1559	1472	1507	1407
1399890742453087974	1554	1468	1506	1407
1399890742458056129	1559	1484	1507	1408
1399890742468085349	1557	1475	1507	1407
1399890742473139297	1557	1470	1506	1408
1399890742483124035	1570	1473	1507	1407
1399890742488060628	1562	1485	1507	1407
1399890742503153883	1559	1483	1507	1408
1399890742518133733	1556	1478	1507	1407
1399890742523012762	1575	1485	1507	1408
1399890742533123650	1551	1486	1507	1407
1399890742538067458	1556	1478	1507	1409
1399890742548084286	1565	1487	1507	1406
1399890742558063125	1571	1475	1507	1409
1399890742568021099	1547	1490	1507	1408
1399890742572976591	1573	1478	1507	1407
1399890742583028362	1567	1481	1507	1408
1399890742587991722	1571	1488	1507	1407
1399890742603040232	1564	1485	1507	1408
1399890742607963747	1574	1480	1507	1407
1399890742618069307	1580	1482	1507	1407
1399890742622996128	1557	1486	1507	1408
1399890742633055736	1573	1479	1507	1407
1399890742638098536	1572	1486	1507	1407
1399890742648161609	1560	1482	1507	1407
1399890742658077124	1574	1484	1507	1407
1399890742663012003	1562	1487	1507	1407
1399890742673033023	1563	1482	1507	1407
1399890742678018039	1573	1490	1507	1407
1399890742688007167	1552	1473	1507	1408
1399890742703137315	1557	1488	1508	1407
1399890742718099629	1562	1484	1508	1408
1399890742723100408	1556	1487	1508	1406
1399890742733201346	1553	1471	1508	1407
1399890742738058295	1545	1484	1508	1407
1399890742753076509	1550	1480	1508	1407
1399890742768193010	1559	1483	1508	1407
1399890742773125172	1547	1475	1508	1408
1399890742783046009	1554	1478	1509	1406
1399890742787992772	1541	1473	1509	1407
1399890742803049372	1546	1475	1509	1406
1399890742807985227	1558	1471	1509	1407
1399890742818059221	1539	1475	1509	1407
1399890742822996683	1553	1472	1509	1406
1399890742832955124	1560	1475	1509	1405
1399890742838088918	1564	1473	1510	1406
1399890742853075912	1567	1472	1510	1406
1399890742868069820	1566	1469	1510	1406
1399890742873131767	1563	1483	1510	1405
1399890742882910601	1551	1468	1510	1406
1399890742888117475	1558	1485	1511	1404
1399890742897803379	1559	1475	1511	1405
1399890742903007798	1556	1474	1511	1405
1399890742913066265	1559	1482	1511	1405
1399890742923079133	1553	1470	1512	1405
1399890742927966450	1549	1482	1512	1405
1399890742938091558	1546	1482	1512	1404
1399890742953128975	1541	1487	1512	1404
1399890742968142850	1547	1483	1512	1404
1399890742973074344	1543	1484	1512	1404
1399890742988046340	1545	1481	1513	1403
1399890743003112413	1543	1483	1513	1403
1399890743018069849	1543	1488	1513	1403
1399890743023009107	1535	1491	1513	1402
1399890743038313171	1551	1487	1513	1402
1399890743053128885	1547	1488	1514	1402
1399890743068217680	1550	1491	1514	1402
1399890743073143609	1551	1485	1514	1403
1399890743088138386	1551	1491	1514	1402
1399890743103099501	1547	1487	1514	1402
1399890743118057170	1546	1489	1514	1401
1399890743122988855	1544	1486	1514	1402
1399890743133129571	1538	1479	1514	1401
1399890743138068199	1537	1473	1514	1402
1399890743148127893	1542	1481	1514	1401
1399890743158274466	1542	1478	1514	1401
1399890743163074298	1534	1477	1514	1401
1399890743173213807	1540	1478	1514	1401
1399890743183136244	1529	1477	1514	1401
1399890743188117001	1533	1475	1514	1401
1399890743203150747	1528	1476	1514	1400
1399890743218087132	1532	1480	1514	1400
1399890743223100265	1535	1474	1514	1401
1399890743233120845	1533	1480	1514	1400
1399890743238153137	1527	1478	1514	1400
1399890743253135263	1525	1478	1514	1400
1399890743268177649	1526	1479	1514	1400
1399890743273061395	1525	1477	1514	1400
1399890743283006667	1522	1479	1514	1400
1399890743288026192	1520	1479	1514	1400
1399890743303233084	1523	1478	1513	1400
1399890743308048986	1515	1484	1513	1400
1399890743318326526	1521	1474	1513	1401
1399890743322989240	1523	1479	1513	1398
1399890743333246259	1520	1475	1513	1399
1399890743338051804	1518	1479	1513	1400
1399890743348166638	1522	1485	1513	1400
1399890743353046719	1518	1476	1513	1399
1399890743368056825	1517	1480	1512	1399
1399890743373046187	1520	1479	1512	1399
1399890743383093037	1532	1476	1512	1399
1399890743388005839	1524	1493	1512	1398
1399890743398168517	1519	1477	1512	1400
1399890743403059507	1527	1486	1512	1399
1399890743413076996	1532	1481	1512	1399
1399890743423000677	1526	1483	1512	1399
1399890743433105433	1520	1491	1511	1399
1399890743438057962	1518	1484	1511	1400
1399890743453129568	1522	1486	1511	1399
1399890743468172775	1519	1483	1511	1399
1399890743473091404	1518	1488	1511	1399
1399890743483081063	1527	1485	1511	1399
1399890743488068980	1522	1476	1511	1400
1399890743503173131	1522	1488	1510	1399
1399890743508022052	1530	1474	1510	1401
1399890743518057308	1523	1489	1510	1399
1399890743522963335	1515	1482	1510	1401
1399890743533192561	1523	1489	1510	1400
1399890743538141806	1515	1471	1510	1401
1399890743553071971	1518	1479	1510	1400
1399890743558051764	1516	1489	1509	1400
1399890743568108162	1514	1489	1509	1400
1399890743573041334	1517	1481	1509	1401
1399890743582969541	1520	1480	1509	1400
1399890743587964171	1514	1470	1509	1401
1399890743603077318	1522	1479	1509	1400
1399890743618090447	1521	1475	1508	1401
1399890743623027006	1517	1483	1508	1399
1399890743628096694	1522	1473	1508	1401
1399890743638196096	1529	1482	1508	1400
1399890743648215374	1519	1471	1508	1401
1399890743653079601	1524	1479	1508	1400
1399890743667954795	1516	1481	1507	1400
1399890743673061678	1514	1480	1507	1401
1399890743683185370	1517	1482	1507	1400
1399890743688043638	1518	1476	1507	1401
1399890743698127639	1519	1475	1507	1401
1399890743708082647	1521	1480	1507	1400
1399890743718265745	1517	1476	1507	1401
1399890743723086859	1518	1480	1506	1401
1399890743733142238	1520	1479	1506	1399
1399890743738055957	1520	1478	1506	1401
1399890743753075689	1522	1478	1506	1401
1399890743768222232	1520	1483	1506	1401
1399890743773113615	1521	1478	1506	1401
1399890743783064549	1525	1484	1506	1400
1399890743788081094	1525	1485	1505	1401
1399890743797970743	1529	1481	1505	1402
1399890743808078497	1533	1494	1505	1401
1399890743818169400	1524	1475	1505	1402
1399890743823021491	1527	1489	1505	1401
1399890743833193324	1525	1480	1505	1401
1399890743838149645	1523	1482	1505	1401
1399890743853224033	1526	1489	1505	1401
1399890743858130724	1522	1477	1505	1402
1399890743863057982	1528	1489	1505	1401
1399890743873195009	1525	1475	1505	1401
1399890743878045367	1525	1488	1505	1401
1399890743888029574	1524	1478	1505	1401
1399890743898184325	1517	1472	1505	1403
1399890743903087552	1527	1490	1505	1401
1399890743918280706	1514	1474	1505	1403
1399890743923107259	1518	1485	1505	1401
1399890743933110797	1523	1480	1505	1402
1399890743938054792	1518	1481	1505	1402
1399890743948103272	1528	1480	1505	1401
1399890743958113472	1520	1476	1505	1403
1399890743968114203	1521	1486	1505	1402
1399890743973148427	1522	1479	1505	1403
1399890743983081709	1527	1484	1505	1402
1399890743988132788	1529	1481	1505	1403
1399890744003111256	1525	1478	1505	1402
1399890744018099415	1524	1481	1505	1403
1399890744023128805	1526	1482	1505	1403
1399890744033169453	1527	1481	1505	1403
1399890744038181737	1527	1485	1505	1403
1399890744053175496	1526	1483	1505	1404
1399890744058063028	1527	1483	1505	1403
1399890744068207515	1531	1479	1505	1404
1399890744073081345	1526	1486	1505	1404
1399890744083093232	1532	1479	1505	1404
1399890744088118580	1526	1483	1505	1404
1399890744098106024	1529	1477	1505	1405
1399890744103019267	1533	1485	1505	1404
1399890744113155379	1527	1475	1505	1405
1399890744123103545	1530	1484	1505	1405
1399890744128022701	1527	1479	1505	1404
1399890744138094576	1531	1476	1505	1405
1399890744148133765	1527	1486	1505	1404
1399890744153118240	1530	1475	1505	1406
1399890744168133173	1528	1486	1505	1405
1399890744173079769	1527	1476	1505	1405
1399890744188069562	1529	1481	1505	1405
1399890744203030366	1528	1479	1505	1405
1399890744218206702	1530	1473	1505	1406
1399890744223080937	1528	1486	1504	1405
1399890744238160506	1525	1480	1504	1405
1399890744253192533	1527	1479	1504	1405
1399890744268115373	1529	1483	1504	1405
1399890744273072084	1521	1475	1504	1405
1399890744288158942	1529	1477	1504	1404
1399890744303169271	1528	1477	1504	1404
1399890744313214460	1526	1474	1504	1405
1399890744333171231	1530	1472	1504	1404
1399890744338007376	1536	1478	1504	1404
1399890744348047524	1525	1472	1504	1404
1399890744353065046	1533	1472	1504	1404
1399890744362967256	1530	1480	1504	1403
1399890744373071480	1529	1470	1504	1405
1399890744378092221	1531	1475	1504	1403
1399890744388166980	1533	1467	1504	1404
1399890744403103512	1533	1470	1504	1403
1399890744418096442	1535	1466	1504	1404
1399890744423078859	1532	1470	1504	1403
1399890744433039613	1535	1464	1504	1403
1399890744438299346	1536	1468	1504	1403
1399890744453157072	1535	1468	1504	1403
1399890744457851492	1539	1464	1504	1403
1399890744468219687	1534	1468	1504	1402
1399890744473143712	1537	1462	1505	1403
1399890744483114735	1540	1473	1505	1402
1399890744488063762	1540	1469	1505	1403
1399890744503053212	1540	1472	1505	1402
1399890744518189306	1542	1472	1505	1403
1399890744523001393	1541	1470	1505	1402
1399890744533209629	1540	1479	1506	1402
1399890744538069768	1543	1479	1506	1401
1399890744548073806	1540	1478	1506	1402
1399890744558085459	1542	1479	1506	1402
1399890744568110029	1541	1481	1506	1402
1399890744573003182	1543	1477	1506	1402
1399890744583042691	1536	1476	1506	1402
1399890744588046751	1531	1467	1507	1402
1399890744598011771	1539	1479	1507	1401
1399890744603039845	1532	1470	1507	1402
1399890744613182053	1541	1475	1507	1401
1399890744623041017	1533	1474	1507	1401
1399890744628162983	1534	1471	1507	1402
1399890744638176236	1533	1479	1507	1401
1399890744653122257	1530	1474	1507	1401
1399890744668117873	1524	1477	1507	1401
1399890744673083701	1536	1473	1507	1401
1399890744683085021	1522	1477	1507	1401
1399890744688015605	1528	1471	1508	1402
1399890744703085154	1522	1473	1508	1402
1399890744718129666	1529	1471	1508	1402
1399890744723046038	1518	1478	1508	1402
1399890744733107754	1522	1470	1508	1402
1399890744738005950	1511	1473	1508	1402
1399890744753062418	1525	1469	1508	1402
1399890744757996466	1515	1475	1508	1402
1399890744768008872	1516	1468	1508	1402
1399890744773105287	1519	1472	1508	1402
1399890744783069663	1515	1473	1508	1402
1399890744787980437	1517	1470	1508	1403
1399890744803037870	1518	1476	1508	1402
1399890744808017350	1514	1463	1508	1403
1399890744817984806	1517	1478	1508	1402
1399890744822980437	1511	1469	1508	1403
1399890744833090967	1530	1475	1508	1402
1399890744848109525	1527	1477	1508	1403
1399890744852816300	1525	1477	1508	1403
1399890744862751889	1523	1482	1509	1403
1399890744873076913	1521	1476	1509	1403
1399890744883068728	1526	1482	1509	1403
1399890744888136730	1528	1483	1509	1402
1399890744898110305	1521	1476	1509	1403
1399890744903124200	1527	1490	1509	1401
1399890744918158481	1522	1478	1509	1403
1399890744923125666	1523	1484	1509	1402
1399890744933154123	1538	1472	1509	1403
1399890744938004270	1536	1478	1509	1402
1399890744953032497	1538	1473	1510	1403
1399890744968085099	1540	1478	1510	1402
1399890744973009731	1536	1474	1510	1403
1399890744983196553	1541	1478	1510	1402
1399890744988061375	1544	1474	1510	1403
1399890745003000135	1548	1477	1510	1402
1399890745018018864	1550	1473	1510	1402
1399890745022978943	1551	1479	1510	1402
1399890745033034255	1517	1477	1510	1402
1399890745038110622	1520	1475	1510	1402
1399890745053197782	1522	1476	1511	1402
1399890745068042458	1527	1476	1511	1402
1399890745072874410	1532	1477	1511	1401
1399890745083188952	1525	1472	1511	1402
1399890745098037891	1522	1473	1511	1402
1399890745103107990	1521	1474	1511	1401
1399890745113071361	1525	1469	1511	1401
1399890745123047399	1524	1467	1511	1401
1399890745133051792	1524	1471	1511	1400
1399890745138015182	1524	1466	1512	1401
1399890745148038206	1522	1472	1512	1401
1399890745153062542	1522	1466	1512	1401
1399890745168103969	1519	1472	1512	1401
1399890745173154561	1520	1475	1512	1400
1399890745183111849	1521	1462	1512	1402
1399890745188099074	1516	1478	1512	1400
1399890745198104757	1516	1458	1512	1402
1399890745203123436	1519	1472	1512	1400
1399890745218073064	1511	1462	1512	1401
1399890745223049240	1512	1462	1512	1401
1399890745233033153	1524	1481	1512	1400
1399890745238072402	1518	1469	1513	1401
1399890745248125033	1520	1480	1513	1400
1399890745253075478	1518	1472	1513	1400
1399890745267978067	1523	1470	1513	1400
1399890745272816455	1523	1474	1513	1400
1399890745283009297	1524	1472	1513	1400
1399890745288092105	1525	1476	1513	1400
1399890745298115127	1523	1476	1513	1399
1399890745303035643	1526	1471	1513	1401
1399890745318033668	1525	1480	1513	1399
1399890745323059654	1525	1469	1513	1400
1399890745333075533	1523	1474	1513	1400
1399890745338040369	1527	1470	1513	1400
1399890745348036727	1531	1469	1513	1400
1399890745353034806	1533	1474	1513	1400
1399890745363170729	1527	1469	1513	1400
1399890745373099355	1527	1473	1513	1400
1399890745383176574	1528	1466	1513	1400
1399890745388051657	1532	1464	1513	1400
1399890745398085844	1530	1470	1513	1400
1399890745408077952	1532	1468	1513	1401
1399890745418036007	1531	1474	1513	1400
1399890745422998004	1534	1473	1514	1400
1399890745433074397	1520	1461	1513	1400
1399890745438056817	1527	1469	1513	1400
1399890745448029578	1521	1461	1513	1400
1399890745458035795	1524	1467	1513	1400
1399890745468066247	1526	1465	1513	1400
1399890745473083312	1524	1460	1513	1401
1399890745482990101	1525	1478	1513	1399
1399890745487860338	1518	1460	1513	1401
1399890745502992315	1527	1473	1513	1400
1399890745507985456	1525	1466	1513	1400
1399890745518094948	1519	1466	1513	1401
1399890745522995917	1528	1469	1513	1400
1399890745533017555	1530	1472	1513	1400
1399890745538060027	1531	1470	1513	1401
1399890745553057458	1536	1476	1513	1400
1399890745558060151	1534	1469	1512	1402
1399890745568176949	1537	1479	1512	1401
1399890745573092397	1538	1473	1512	1402
1399890745578161801	1535	1478	1512	1402
1399890745587850437	1540	1482	1512	1402
1399890745598064305	1543	1477	1512	1402
1399890745603089843	1545	1486	1512	1402
1399890745618138507	1541	1478	1512	1402
1399890745623012768	1547	1484	1512	1402
1399890745638462228	1544	1478	1512	1403
1399890745653190230	1548	1479	1511	1403
1399890745668194245	1548	1482	1511	1403
1399890745673145267	1550	1481	1511	1403
1399890745688100819	1539	1470	1511	1403
1399890745703232818	1539	1469	1511	1403
1399890745718166130	1545	1469	1510	1403
1399890745723060710	1536	1467	1510	1404
1399890745738157830	1530	1469	1510	1404
1399890745753195866	1532	1469	1510	1404
1399890745768132094	1531	1461	1510	1404
1399890745773169997	1525	1478	1509	1404
1399890745778180521	1528	1466	1509	1404
1399890745798163985	1537	1471	1509	1404
1399890745803190730	1534	1461	1509	1405
1399890745818206651	1540	1478	1509	1403
1399890745823087935	1533	1462	1509	1405
1399890745833100631	1539	1479	1508	1404
1399890745838075527	1535	1472	1508	1405
1399890745848169403	1531	1474	1508	1404
1399890745853088760	1541	1475	1508	1404
1399890745868123281	1532	1469	1508	1405
1399890745873045541	1537	1479	1508	1404
1399890745883047811	1543	1476	1508	1405
1399890745888042868	1542	1485	1508	1405
1399890745898128034	1541	1479	1508	1405
1399890745903122399	1538	1479	1508	1404
1399890745918282925	1535	1482	1508	1404
1399890745923132139	1529	1482	1508	1404
1399890745933060493	1539	1487	1508	1405
1399890745938118201	1533	1482	1508	1405
1399890745948061354	1542	1482	1508	1405
1399890745953064084	1538	1488	1508	1405
1399890745968096945	1536	1483	1508	1405
1399890745973051174	1541	1490	1508	1404
1399890745983034636	1545	1482	1508	1405
1399890745988073414	1545	1478	1508	1405
1399890746003092524	1543	1485	1508	1405
1399890746007984969	1543	1478	1508	1406
1399890746018086235	1544	1483	1507	1405
1399890746023028511	1547	1476	1507	1405
1399890746033125488	1547	1490	1507	1404
1399890746038094303	1549	1480	1508	1406
1399890746047816941	1550	1487	1507	1405
1399890746053006500	1548	1484	1508	1405
1399890746063067028	1546	1485	1507	1406
1399890746073102183	1552	1491	1507	1405
1399890746078152795	1545	1478	1507	1407
1399890746088045638	1545	1489	1507	1405
1399890746098112022	1543	1478	1507	1407
1399890746103086106	1540	1489	1507	1406
1399890746118130834	1539	1481	1507	1407
1399890746123012973	1543	1488	1507	1407
1399890746138095248	1531	1478	1507	1407
1399890746153146809	1532	1481	1507	1407
1399890746168157128	1531	1481	1507	1407
1399890746173090821	1530	1480	1507	1408
1399890746188141382	1525	1479	1507	1407
1399890746203357936	1526	1477	1507	1407
1399890746218186196	1522	1477	1507	1408
1399890746223004301	1523	1477	1507	1407
1399890746238249566	1521	1469	1508	1408
1399890746253192259	1518	1468	1508	1408
1399890746263107426	1523	1473	1508	1407
1399890746283143778	1517	1468	1508	1408
1399890746288075396	1517	1470	1508	1408
1399890746298055874	1514	1468	1508	1408
1399890746303100743	1517	1465	1508	1408
1399890746313047228	1515	1467	1509	1408
1399890746323061637	1517	1466	1509	1408
1399890746328075919	1509	1468	1509	1408
1399890746338126310	1524	1470	1509	1408
1399890746353133229	1517	1470	1509	1408
1399890746368055702	1523	1469	1509	1408
1399890746373037778	1513	1469	1510	1408
1399890746383100203	1527	1467	1510	1408
1399890746388056015	1531	1479	1510	1407
1399890746398088128	1524	1462	1510	1409
1399890746403077891	1528	1481	1510	1408
1399890746418053456	1522	1473	1510	1408
1399890746423047194	1525	1471	1511	1408
1399890746433063097	1532	1474	1511	1407
1399890746438044568	1529	1463	1511	1408
1399890746453111335	1536	1476	1511	1407
1399890746458042041	1531	1472	1511	1409
1399890746468076626	1528	1472	1511	1408
1399890746473052204	1535	1470	1511	1408
1399890746483058258	1531	1475	1512	1407
1399890746488008705	1526	1471	1512	1408
1399890746503158187	1526	1472	1512	1408
1399890746518146132	1531	1471	1512	1408
1399890746523101086	1528	1470	1512	1408
1399890746533047675	1524	1477	1512	1407
1399890746538064721	1521	1477	1512	1408
1399890746548055997	1522	1468	1512	1408
1399890746553035991	1528	1476	1512	1407
1399890746563064629	1519	1471	1512	1408
1399890746573142262	1524	1470	1512	1408
1399890746578075541	1523	1475	1512	1407
1399890746588038686	1523	1468	1512	1408
1399890746598118561	1527	1471	1511	1408
1399890746608123048	1520	1472	1511	1408
1399890746618150923	1522	1465	1511	1409
1399890746623100896	1528	1474	1511	1409
1399890746633376903	1522	1472	1511	1408
1399890746638242013	1520	1470	1511	1409
1399890746647817113	1519	1478	1511	1407
1399890746658064082	1522	1464	1511	1409
1399890746668236470	1524	1474	1511	1408
1399890746673058859	1522	1462	1510	1409
1399890746683025660	1516	1478	1510	1408
1399890746688136372	1518	1476	1510	1408
1399890746698264860	1514	1473	1510	1409
1399890746708206366	1521	1473	1510	1408
1399890746718169763	1518	1470	1510	1408
1399890746723117217	1525	1468	1510	1409
1399890746733109891	1526	1474	1510	1408
1399890746738124863	1515	1468	1509	1410
1399890746753105984	1519	1479	1509	1408
1399890746758107163	1518	1473	1509	1409
1399890746768161707	1519	1475	1509	1409
1399890746773112648	1518	1477	1509	1407
1399890746783061495	1525	1468	1509	1409
1399890746788078160	1526	1481	1509	1408
1399890746798137812	1521	1465	1508	1409
1399890746803028346	1519	1481	1508	1408
1399890746813110405	1518	1475	1508	1408
1399890746823033524	1515	1475	1508	1408
1399890746833139070	1525	1475	1508	1408
1399890746838220798	1524	1469	1508	1409
1399890746853143005	1535	1476	1508	1407
1399890746858110879	1535	1467	1508	1408
1399890746868083589	1534	1465	1508	1407
1399890746873036265	1534	1475	1508	1407
1399890746883071452	1523	1469	1508	1407
1399890746888089225	1527	1471	1507	1407
1399890746903105805	1530	1471	1507	1407
1399890746918124982	1527	1473	1507	1407
1399890746923073282	1527	1470	1507	1406
1399890746933155330	1530	1465	1507	1406
1399890746938071560	1534	1461	1507	1407
1399890746953144071	1530	1465	1507	1406
1399890746968097167	1532	1457	1507	1406
1399890746973076326	1536	1472	1507	1405
1399890746983052556	1533	1454	1507	1405
1399890746988052927	1534	1462	1507	1405
1399890747003083228	1533	1459	1508	1405
1399890747018076746	1535	1468	1508	1404
1399890747023090554	1532	1456	1508	1405
1399890747033207205	1533	1461	1508	1404
1399890747037824088	1535	1460	1508	1405
1399890747048162944	1540	1460	1508	1404
1399890747052975349	1542	1456	1508	1404
1399890747063140793	1540	1458	1508	1405
1399890747073099138	1542	1461	1508	1404
1399890747083071930	1543	1457	1508	1404
1399890747088137051	1544	1462	1508	1404
1399890747103181808	1549	1457	1508	1404
1399890747108079864	1542	1456	1508	1403
1399890747118180225	1545	1466	1508	1404
1399890747123058832	1541	1456	1508	1404
1399890747133049571	1538	1458	1508	1404
1399890747138095799	1536	1467	1508	1403
1399890747153137560	1535	1453	1508	1404
1399890747158094156	1537	1466	1508	1403
1399890747168095975	1537	1459	1508	1404
1399890747173123040	1536	1464	1509	1404
1399890747183086169	1536	1462	1509	1403
1399890747188078899	1536	1460	1509	1404
1399890747203107764	1531	1469	1509	1403
1399890747208132473	1532	1459	1509	1404
1399890747218111067	1535	1468	1509	1403
1399890747223014809	1533	1463	1509	1404
1399890747233086508	1534	1465	1509	1404
1399890747238039972	1536	1466	1509	1405
1399890747253216362	1538	1461	1509	1404
1399890747258058614	1540	1464	1509	1405
1399890747268118623	1540	1462	1509	1404
1399890747273044866	1540	1458	1509	1406
1399890747283020704	1546	1469	1509	1404
1399890747288075080	1543	1458	1509	1406
1399890747298019210	1541	1470	1509	1405
1399890747303026029	1543	1462	1509	1406
1399890747313044096	1544	1464	1509	1406
1399890747323030127	1548	1465	1509	1405
1399890747333042478	1540	1454	1509	1407
1399890747338006493	1543	1466	1509	1405
1399890747353064140	1540	1457	1509	1406
1399890747368046226	1542	1455	1509	1406
1399890747373134365	1537	1455	1509	1407
1399890747383133233	1543	1460	1509	1406
1399890747388024208	1536	1458	1510	1407
1399890747403101006	1539	1454	1509	1408
1399890747408036569	1543	1462	1509	1407
1399890747418132266	1539	1451	1510	1408
1399890747423116313	1542	1461	1509	1406
1399890747432927428	1541	1454	1510	1407
1399890747437937824	1542	1464	1510	1407
1399890747453099865	1543	1466	1510	1407
1399890747458009236	1543	1459	1510	1408
1399890747467971563	1544	1469	1510	1406
1399890747472943011	1542	1457	1510	1409
1399890747482951176	1539	1474	1510	1408
1399890747488034572	1540	1463	1510	1409
1399890747503118629	1537	1469	1510	1409
1399890747508059491	1541	1471	1509	1409
1399890747518113246	1533	1463	1509	1410
1399890747523110774	1541	1474	1509	1409
1399890747528122307	1538	1468	1509	1410
1399890747538077184	1541	1471	1509	1410
1399890747548047523	1537	1473	1509	1410
1399890747553074264	1542	1470	1509	1411
1399890747568024189	1539	1478	1509	1410
1399890747573108567	1538	1469	1509	1411
1399890747583111186	1538	1474	1509	1411
1399890747587775963	1539	1478	1509	1411
1399890747602856506	1535	1478	1508	1412
1399890747618080613	1534	1473	1508	1412
1399890747622990799	1536	1478	1508	1411
1399890747633190505	1540	1477	1508	1412
1399890747638104596	1536	1475	1508	1412
1399890747653160690	1533	1476	1508	1412
1399890747658079820	1536	1468	1507	1413
1399890747668017725	1536	1479	1507	1412
1399890747672972051	1530	1467	1507	1413
1399890747683048408	1537	1477	1507	1412
1399890747688007686	1536	1470	1507	1413
1399890747703049342	1534	1476	1506	1413
1399890747718048771	1531	1466	1506	1415
1399890747723023964	1533	1482	1506	1413
1399890747733074902	1546	1462	1506	1414
1399890747737953042	1543	1472	1506	1413
1399890747753010129	1543	1470	1506	1414
1399890747768094108	1542	1476	1506	1414
1399890747783128941	1537	1475	1505	1414
1399890747788040202	1537	1473	1505	1415
1399890747798121008	1535	1482	1505	1414
1399890747802986727	1539	1480	1505	1415
1399890747818080199	1535	1474	1505	1415
1399890747823225435	1539	1483	1505	1413
1399890747833123530	1537	1468	1505	1415
1399890747837988203	1538	1478	1505	1414
1399890747848031364	1536	1474	1505	1415
1399890747853162645	1534	1472	1505	1414
1399890747868006112	1537	1477	1505	1415
1399890747873028971	1534	1475	1505	1415
1399890747883144363	1536	1475	1505	1414
1399890747888107241	1535	1480	1504	1414
1399890747898045618	1538	1478	1505	1414
1399890747903070721	1534	1475	1505	1415
1399890747918211961	1532	1485	1505	1414
1399890747922999292	1530	1479	1505	1414
1399890747933089423	1528	1474	1505	1414
1399890747938005044	1533	1474	1505	1414
1399890747948081778	1526	1473	1505	1414
1399890747953088122	1533	1472	1505	1414
1399890747968056477	1527	1478	1505	1414
1399890747973079486	1527	1470	1505	1413
1399890747982808565	1540	1475	1505	1414
1399890747988042584	1529	1478	1505	1413
1399890747998026384	1536	1476	1505	1414
1399890748002964718	1535	1484	1505	1412
1399890748013028495	1531	1473	1506	1414
1399890748023038451	1537	1481	1506	1413
1399890748028088645	1532	1473	1506	1413
1399890748038004477	1535	1472	1506	1413
1399890748047850015	1543	1478	1506	1412
1399890748053094814	1535	1465	1506	1414
1399890748068164703	1538	1476	1506	1413
1399890748073055350	1539	1469	1506	1412
1399890748077912793	1540	1467	1507	1413
1399890748088064471	1540	1480	1507	1412
1399890748102839431	1535	1470	1507	1413
1399890748108171831	1543	1476	1507	1413
1399890748117853233	1537	1476	1507	1412
1399890748122813960	1541	1467	1508	1413
1399890748137829217	1540	1471	1508	1412
1399890748153165846	1539	1470	1508	1412
1399890748168183840	1539	1464	1508	1413
1399890748172776178	1541	1471	1509	1411
1399890748188180799	1538	1466	1509	1412
1399890748203078409	1538	1468	1509	1412
1399890748212769153	1540	1468	1509	1412
1399890748232872063	1545	1464	1510	1412
1399890748237807943	1543	1453	1510	1413
1399890748247951356	1544	1467	1510	1411
1399890748253198761	1545	1459	1510	1411
1399890748262938063	1538	1459	1510	1412
1399890748272864726	1545	1459	1510	1411
1399890748277807680	1546	1461	1510	1412
1399890748287785826	1547	1460	1510	1412
1399890748302908861	1546	1467	1510	1411
1399890748307760778	1548	1462	1510	1412
1399890748318154521	1552	1461	1510	1412
1399890748323051254	1553	1467	1510	1410
1399890748332823076	1546	1452	1510	1412
1399890748337844169	1547	1469	1510	1410
1399890748353180356	1545	1456	1510	1411
1399890748368150063	1544	1463	1510	1411
1399890748373345954	1550	1449	1510	1412
1399890748383131588	1554	1458	1510	1410
1399890748388061182	1553	1452	1510	1411
1399890748403104365	1550	1453	1509	1410
1399890748418122887	1545	1458	1509	1411
1399890748423044927	1548	1449	1509	1412
1399890748433049008	1548	1453	1509	1410
1399890748437988417	1551	1447	1509	1411
1399890748448079835	1556	1453	1509	1410
1399890748452975405	1552	1450	1509	1410
1399890748468102402	1553	1460	1509	1411
1399890748473001226	1553	1450	1509	1411
1399890748483083206	1550	1454	1508	1411
1399890748487996915	1552	1460	1508	1409
1399890748498131731	1556	1446	1508	1412
1399890748508127408	1560	1462	1508	1410
1399890748513205956	1554	1451	1508	1411
1399890748523100736	1553	1459	1507	1411
1399890748527967403	1560	1459	1507	1409
1399890748538179131	1559	1447	1507	1410
1399890748553190295	1564	1462	1507	1409
1399890748558019568	1560	1446	1507	1412
1399890748568148594	1558	1462	1507	1409
1399890748573115041	1567	1453	1507	1410
1399890748583084675	1561	1450	1506	1410
1399890748588042452	1565	1457	1506	1409
1399890748598211352	1562	1449	1506	1410
1399890748608243341	1566	1460	1506	1410
1399890748618187844	1566	1455	1506	1410
1399890748623078329	1564	1454	1506	1410
1399890748633270913	1571	1459	1505	1409
1399890748638545920	1566	1454	1505	1410
1399890748648069702	1552	1458	1505	1410
1399890748658147552	1559	1450	1505	1410
1399890748667999232	1568	1453	1505	1408
1399890748673051323	1574	1452	1505	1409
1399890748683051804	1562	1462	1505	1409
1399890748688090104	1557	1456	1504	1409
1399890748703109207	1565	1450	1504	1409
1399890748708095673	1566	1451	1504	1410
1399890748718151903	1558	1450	1504	1409
1399890748723073228	1563	1463	1504	1408
1399890748733178734	1564	1452	1504	1410
1399890748738165140	1571	1459	1504	1409
1399890748748045651	1562	1455	1504	1409
1399890748753050368	1562	1447	1504	1410
1399890748763041425	1573	1458	1504	1409
1399890748772972562	1560	1447	1504	1410
1399890748788153067	1556	1456	1504	1408
1399890748803059308	1562	1457	1504	1409
1399890748818104813	1555	1452	1504	1410
1399890748823022897	1554	1458	1504	1408
1399890748838132428	1562	1456	1504	1409
1399890748853127908	1565	1455	1504	1409
1399890748868159499	1563	1459	1504	1409
1399890748873248036	1556	1453	1504	1410
1399890748888077142	1568	1456	1504	1409
1399890748903141156	1560	1465	1504	1409
1399890748918168468	1562	1464	1504	1409
1399890748922967993	1566	1458	1505	1408
1399890748938149039	1554	1464	1505	1408
1399890748948151375	1557	1454	1505	1410
1399890748968116679	1557	1463	1505	1409
1399890748973131465	1557	1462	1505	1409
1399890748983081311	1564	1461	1506	1408
1399890748988038264	1561	1455	1506	1409
1399890748998187087	1556	1464	1506	1408
1399890749003038029	1556	1455	1506	1410
1399890749013167456	1553	1470	1506	1409
1399890749023125124	1554	1461	1507	1409
1399890749033073996	1560	1464	1507	1409
1399890749038038228	1559	1469	1507	1409
1399890749053187073	1560	1464	1508	1409
1399890749068185896	1560	1460	1508	1409
1399890749073038010	1560	1465	1508	1409
1399890749083086139	1561	1467	1508	1409
1399890749087988435	1557	1466	1509	1409
1399890749103113277	1556	1469	1509	1409
1399890749118100160	1552	1472	1510	1409
1399890749122997965	1553	1472	1510	1409
1399890749133139662	1545	1477	1510	1409
1399890749138045014	1547	1469	1510	1409
1399890749148089832	1550	1474	1511	1409
1399890749153022891	1544	1475	1511	1409
1399890749168216339	1545	1472	1511	1409
1399890749173076939	1544	1478	1511	1409
1399890749183092080	1547	1469	1511	1410
1399890749188096336	1548	1474	1512	1409
1399890749203084675	1548	1471	1512	1409
1399890749208006488	1542	1469	1512	1409
1399890749218076463	1548	1476	1512	1408
1399890749223128758	1549	1467	1513	1410
1399890749233082119	1540	1476	1512	1409
1399890749238039812	1544	1470	1513	1409
1399890749248004967	1540	1475	1513	1409
1399890749253170024	1541	1470	1513	1409
1399890749263066582	1544	1472	1513	1410
1399890749273032545	1538	1478	1513	1408
1399890749283090527	1541	1467	1513	1410
1399890749287980947	1536	1477	1513	1409
1399890749303079497	1539	1468	1514	1410
1399890749318137765	1535	1470	1514	1410
1399890749323129199	1540	1473	1514	1410
1399890749333131414	1546	1472	1514	1409
1399890749338150173	1543	1455	1514	1410
1399890749348157757	1545	1475	1514	1409
1399890749353105217	1546	1460	1514	1410
1399890749368119620	1536	1466	1514	1410
1399890749373029291	1540	1469	1514	1409
1399890749383085168	1542	1463	1514	1410
1399890749388102269	1549	1471	1515	1409
1399890749398135408	1547	1458	1515	1411
1399890749408246143	1545	1467	1515	1410
1399890749418150598	1541	1468	1515	1409
1399890749423041781	1539	1464	1515	1410
1399890749432922874	1550	1463	1515	1410
1399890749438823616	1546	1458	1515	1410
1399890749453141473	1546	1465	1515	1410
1399890749458089953	1546	1473	1515	1409
1399890749468204730	1548	1464	1515	1410
1399890749473003540	1542	1467	1515	1410
1399890749478043800	1548	1466	1515	1410
1399890749488057952	1540	1470	1515	1410
1399890749498061935	1543	1479	1515	1410
1399890749503142208	1544	1467	1515	1411
1399890749518109338	1542	1480	1515	1409
1399890749523200913	1539	1469	1515	1411
1399890749533102396	1545	1477	1514	1410
1399890749538098774	1544	1480	1514	1410
1399890749548090448	1542	1474	1514	1411
1399890749558031330	1540	1485	1514	1409
1399890749568253183	1541	1467	1514	1412
1399890749573036184	1545	1486	1514	1409
1399890749583160893	1535	1471	1514	1411
1399890749588042103	1541	1481	1514	1410
1399890749603049754	1548	1479	1515	1410
1399890749608046175	1534	1474	1514	1411
1399890749618135628	1543	1482	1515	1410
1399890749623068529	1544	1471	1515	1410
1399890749633523154	1539	1467	1515	1410
1399890749638119781	1533	1470	1515	1411
1399890749653142730	1534	1475	1515	1409
1399890749657787106	1538	1466	1515	1410
1399890749668059500	1532	1468	1515	1410
1399890749673024847	1536	1468	1515	1410
1399890749683062434	1520	1478	1514	1410
1399890749687968058	1517	1476	1515	1410
1399890749703066010	1526	1481	1515	1410
1399890749707922226	1526	1473	1515	1410
1399890749712912322	1520	1481	1515	1410
1399890749723012283	1522	1475	1515	1410
1399890749728100592	1526	1471	1515	1410
1399890749738221559	1522	1478	1515	1410
1399890749748173704	1512	1472	1515	1410
1399890749758164513	1525	1479	1515	1409
1399890749768243728	1513	1475	1515	1410
1399890749773196692	1516	1471	1515	1410
1399890749783105585	1525	1481	1515	1409
1399890749788205176	1524	1471	1515	1410
1399890749797838012	1529	1477	1515	1410
1399890749802929588	1531	1473	1516	1410
1399890749818038905	1518	1464	1515	1409
1399890749822945590	1518	1477	1515	1408
1399890749833004887	1518	1464	1515	1410
1399890749838085955	1522	1482	1516	1409
1399890749848197324	1530	1464	1516	1410
1399890749853079764	1525	1473	1516	1409
1399890749868187281	1536	1461	1516	1410
1399890749873021083	1521	1456	1516	1409
1399890749883097674	1521	1469	1516	1408
1399890749888033548	1521	1457	1516	1411
1399890749898046924	1534	1470	1516	1409
1399890749903098806	1526	1459	1516	1410
1399890749918378684	1524	1467	1516	1409
1399890749923047412	1526	1463	1516	1408
1399890749933118947	1526	1453	1516	1410
1399890749938060611	1539	1466	1517	1409
1399890749948084901	1537	1457	1517	1410
1399890749952938565	1529	1458	1517	1410
1399890749963113420	1534	1462	1517	1409
1399890749972990882	1535	1461	1517	1409
1399890749977964375	1531	1458	1517	1410
1399890749988045164	1527	1467	1517	1409
1399890750003042338	1521	1462	1517	1409
1399890750018089076	1508	1465	1517	1409
1399890750022998173	1527	1467	1517	1410
1399890750038125943	1525	1464	1517	1410
1399890750053113935	1511	1466	1516	1409
1399890750068207263	1511	1477	1516	1409
1399890750073134318	1528	1469	1516	1410
1399890750088213577	1516	1468	1516	1410
1399890750103115227	1519	1465	1516	1410
1399890750118225519	1512	1474	1516	1410
1399890750123116522	1517	1468	1516	1410
1399890750138162937	1524	1470	1516	1410
1399890750153117340	1522	1469	1515	1410
1399890750158297575	1523	1478	1515	1410
1399890750163057881	1527	1468	1515	1411
1399890750183138644	1525	1481	1515	1410
1399890750188075470	1525	1480	1515	1409
1399890750198160059	1526	1478	1515	1411
1399890750203097073	1522	1479	1514	1410
1399890750213165387	1526	1481	1514	1410
1399890750223097910	1524	1473	1514	1411
1399890750228123652	1530	1481	1514	1410
1399890750238066118	1524	1475	1514	1411
1399890750253111290	1532	1482	1514	1410
1399890750268229809	1534	1479	1513	1411
1399890750273070627	1541	1484	1513	1411
1399890750283059641	1527	1454	1513	1411
1399890750288094367	1533	1459	1513	1411
1399890750298145680	1531	1459	1513	1410
1399890750303055986	1527	1453	1513	1411
1399890750318098549	1534	1460	1513	1410
1399890750323106256	1524	1457	1512	1411
1399890750333156212	1534	1456	1512	1410
1399890750338101367	1535	1451	1512	1411
1399890750353192558	1537	1453	1512	1411
1399890750368143402	1540	1451	1512	1412
1399890750373136015	1540	1455	1512	1411
1399890750383188217	1532	1447	1511	1412
1399890750388113380	1537	1456	1511	1411
1399890750403141493	1532	1450	1511	1411
1399890750418134818	1541	1455	1511	1411
1399890750423098426	1534	1439	1511	1412
1399890750433198659	1540	1452	1510	1411
1399890750438124804	1532	1448	1510	1412
1399890750448190223	1534	1451	1510	1412
1399890750458175406	1537	1455	1510	1411
1399890750463012165	1531	1449	1510	1412
1399890750473188247	1535	1459	1510	1411
1399890750478004520	1530	1448	1509	1413
1399890750488145738	1538	1463	1509	1412
1399890750503101239	1535	1457	1509	1412
1399890750518149401	1532	1457	1509	1412
1399890750523047637	1538	1453	1509	1413
1399890750533159570	1550	1465	1509	1411
1399890750538071417	1546	1453	1509	1413
1399890750553056977	1545	1463	1508	1412
1399890750558034793	1546	1457	1508	1412
1399890750568178532	1543	1464	1508	1412
1399890750573082908	1553	1461	1508	1412
1399890750583067070	1546	1463	1508	1413
1399890750588014480	1559	1476	1508	1412
1399890750603129156	1549	1469	1508	1412
1399890750617996017	1551	1474	1508	1412
1399890750623051182	1549	1471	1508	1411
1399890750633315902	1546	1468	1508	1411
1399890750637766960	1546	1462	1508	1412
1399890750653216122	1550	1461	1508	1412
1399890750668171467	1554	1466	1508	1412
1399890750673049105	1553	1456	1508	1411
1399890750683131429	1549	1467	1508	1411
1399890750688056234	1553	1465	1508	1412
1399890750698157734	1545	1463	1508	1412
1399890750703077726	1548	1472	1508	1411
1399890750713048503	1542	1460	1508	1411
1399890750723151770	1553	1467	1508	1410
1399890750733162130	1551	1457	1508	1411
1399890750738134731	1549	1464	1508	1411
1399890750753123515	1552	1463	1508	1410
1399890750768113509	1542	1471	1508	1410
1399890750773218310	1543	1464	1508	1411
1399890750783081111	1539	1462	1508	1410
1399890750788133630	1553	1458	1508	1410
1399890750803105276	1548	1464	1508	1410
1399890750818110219	1542	1461	1508	1410
1399890750823055702	1535	1464	1508	1411
1399890750833013062	1557	1458	1508	1410
1399890750837997791	1565	1465	1508	1409
1399890750848142535	1562	1455	1508	1410
1399890750858189638	1561	1459	1508	1410
1399890750868068226	1556	1463	1508	1409
1399890750873087153	1558	1452	1508	1411
1399890750883137670	1562	1464	1508	1410
1399890750888119822	1564	1457	1508	1409
1399890750898051110	1565	1460	1508	1410
1399890750908089734	1561	1465	1508	1409
1399890750918207691	1570	1450	1508	1411
1399890750923027448	1570	1463	1508	1410
1399890750933133141	1554	1465	1508	1410
1399890750938035209	1545	1478	1508	1410
1399890750948068150	1556	1471	1508	1410
1399890750953026044	1563	1464	1508	1411
1399890750963039662	1560	1475	1508	1409
1399890750973151054	1556	1464	1508	1411
1399890750983167264	1545	1475	1508	1410
1399890750988033089	1547	1469	1508	1411
1399890751003035792	1558	1471	1508	1410
1399890751018075441	1550	1470	1508	1411
1399890751023141177	1551	1474	1508	1410
1399890751033057383	1543	1472	1508	1411
1399890751038128814	1547	1475	1509	1410
1399890751047778605	1549	1466	1509	1411
1399890751052892237	1550	1466	1509	1411
1399890751068066990	1552	1472	1509	1410
1399890751073166816	1549	1472	1509	1411
1399890751083166723	1539	1479	1509	1411
1399890751088029257	1536	1474	1509	1411
1399890751098134960	1540	1477	1509	1410
1399890751108150462	1543	1470	1509	1410
1399890751118109482	1545	1473	1510	1410
1399890751123078285	1550	1470	1510	1411
1399890751133123733	1533	1470	1510	1411
1399890751138078150	1536	1477	1510	1409
1399890751153121906	1535	1475	1510	1410
1399890751168113970	1544	1475	1511	1410
1399890751173085876	1540	1470	1511	1410
1399890751183126438	1550	1467	1511	1410
1399890751188034998	1545	1462	1511	1410
1399890751198126090	1541	1469	1511	1410
1399890751203042166	1540	1471	1511	1409
1399890751213079304	1540	1459	1512	1410
1399890751223093305	1544	1465	1512	1410
1399890751233108031	1541	1461	1512	1409
1399890751238123176	1555	1462	1512	1409
1399890751252998944	1557	1467	1513	1409
1399890751268014809	1557	1468	1513	1409
1399890751272983735	1556	1460	1513	1410
1399890751283157603	1559	1466	1513	1409
1399890751287998792	1560	1474	1513	1408
1399890751298017915	1557	1467	1513	1409
1399890751308054935	1560	1476	1513	1407
1399890751318084576	1561	1464	1514	1409
1399890751323006903	1558	1477	1514	1408
1399890751333060537	1555	1468	1514	1409
1399890751338064947	1551	1471	1514	1408
1399890751353126994	1554	1470	1514	1408
1399890751358056474	1552	1468	1514	1408
1399890751368083749	1560	1475	1514	1407
1399890751373009550	1552	1469	1514	1408
1399890751383200754	1561	1474	1514	1408
1399890751388034673	1561	1476	1514	1407
1399890751403018947	1557	1468	1514	1407
1399890751408011454	1565	1474	1514	1406
1399890751418159826	1554	1468	1514	1407
1399890751423107985	1563	1468	1514	1407
1399890751428149763	1564	1476	1514	1406
1399890751438070346	1557	1460	1514	1408
1399890751448112308	1559	1472	1514	1406
1399890751453089950	1555	1460	1514	1406
1399890751468055712	1557	1466	1514	1406
1399890751473118819	1566	1470	1514	1406
1399890751483023054	1555	1459	1514	1407
1399890751488042187	1554	1476	1514	1406
1399890751503108174	1556	1472	1514	1406
1399890751518110281	1555	1473	1514	1406
1399890751523060665	1553	1469	1514	1406
1399890751533021900	1551	1470	1514	1406
1399890751559918177	1553	1473	1514	1406
1399890751568091393	1556	1468	1514	1406
1399890751573033302	1549	1474	1514	1405
1399890751583206788	1553	1468	1514	1406
1399890751588067037	1554	1467	1513	1406
1399890751603095512	1551	1470	1513	1406
1399890751618185528	1553	1476	1513	1404
1399890751623181924	1551	1462	1513	1406
1399890751633300730	1548	1476	1513	1405
1399890751638149530	1541	1466	1513	1406
1399890751653204267	1548	1468	1513	1406
1399890751668141645	1543	1460	1512	1406
1399890751683192897	1552	1469	1512	1405
1399890751688153203	1550	1459	1512	1406
1399890751698124949	1549	1469	1512	1405
1399890751708124033	1548	1464	1512	1406
1399890751718184289	1547	1467	1512	1405
1399890751723049891	1546	1469	1512	1406
1399890751733193467	1543	1470	1512	1405
1399890751738093719	1544	1471	1512	1406
1399890751748185160	1541	1469	1512	1405
1399890751753001206	1542	1469	1512	1406
1399890751768044254	1542	1466	1512	1405
1399890751773018424	1542	1471	1512	1406
1399890751783177652	1544	1465	1512	1405
1399890751788112438	1549	1457	1512	1405
1399890751798202468	1540	1462	1512	1405
1399890751803052621	1549	1458	1512	1405
1399890751818160198	1545	1466	1512	1404
1399890751822808360	1547	1455	1512	1404
1399890751833135658	1555	1462	1512	1405
1399890751838063261	1548	1465	1512	1404
1399890751848086062	1544	1460	1512	1406
1399890751853060902	1551	1470	1512	1404
1399890751868133940	1544	1449	1512	1405
1399890751873127429	1542	1464	1512	1405
1399890751883294769	1545	1462	1512	1404
1399890751888211750	1540	1454	1512	1405
1399890751898160105	1545	1469	1512	1404
1399890751903096735	1540	1451	1512	1405
1399890751913114993	1543	1462	1512	1403
1399890751923122356	1540	1457	1512	1405
1399890751928085662	1541	1463	1512	1404
1399890751938057949	1536	1466	1512	1405
1399890751953156707	1531	1462	1511	1404
1399890751968131081	1534	1460	1511	1405
1399890751973044638	1538	1466	1511	1404
1399890751978103274	1530	1461	1511	1405
1399890751988191885	1528	1466	1511	1404
1399890752003195783	1529	1460	1511	1405
1399890752018211616	1534	1464	1511	1404
1399890752022934782	1528	1469	1511	1404
1399890752038159904	1523	1458	1511	1405
1399890752053192233	1531	1462	1511	1405
1399890752068132280	1525	1462	1511	1405
1399890752073056375	1523	1459	1511	1405
1399890752088219244	1525	1461	1511	1405
1399890752103154466	1530	1467	1511	1406
1399890752118146447	1526	1466	1510	1404
1399890752133197924	1530	1470	1510	1405
1399890752138096818	1532	1466	1510	1406
1399890752148105691	1532	1475	1510	1406
1399890752158107334	1530	1471	1510	1406
1399890752163050478	1526	1465	1510	1407
1399890752173146172	1529	1479	1510	1406
1399890752178091525	1529	1472	1510	1407
1399890752188110664	1543	1481	1510	1405
1399890752198089198	1545	1463	1510	1407
1399890752208181111	1541	1474	1509	1406
1399890752218169483	1542	1469	1509	1408
1399890752223057746	1544	1478	1509	1407
1399890752233135817	1532	1462	1509	1407
1399890752238037660	1535	1465	1509	1407
1399890752253169606	1532	1464	1509	1408
1399890752267985859	1540	1471	1509	1407
1399890752273141462	1533	1456	1508	1410
1399890752283207808	1544	1469	1508	1407
1399890752287760813	1545	1457	1508	1409
1399890752298065178	1548	1462	1508	1409
1399890752302827101	1544	1465	1508	1409
1399890752318118922	1537	1462	1508	1410
1399890752322768054	1541	1468	1507	1409
1399890752333176242	1531	1459	1507	1410
1399890752338051850	1533	1468	1507	1409
1399890752348078910	1533	1457	1507	1410
1399890752353054578	1533	1468	1507	1410
1399890752367808032	1534	1462	1506	1411
1399890752373077283	1534	1466	1506	1411
1399890752382837586	1533	1462	1506	1411
1399890752388120891	1534	1463	1506	1411
1399890752398092356	1536	1467	1506	1411
1399890752408080880	1531	1457	1506	1412
1399890752413140221	1535	1470	1505	1411
1399890752423057112	1535	1459	1505	1412
1399890752428110995	1540	1463	1505	1411
1399890752438098321	1534	1465	1505	1412
1399890752448088101	1534	1463	1505	1413
1399890752458068955	1539	1468	1504	1412
1399890752468217608	1534	1465	1504	1413
1399890752473228138	1536	1471	1504	1412
1399890752483029568	1537	1466	1504	1414
1399890752488060585	1532	1470	1504	1412
1399890752503117824	1538	1464	1504	1414
1399890752508064663	1538	1469	1504	1413
1399890752518087789	1536	1470	1504	1413
1399890752523156375	1542	1471	1503	1414
1399890752533103487	1530	1469	1503	1413
1399890752538080230	1535	1470	1503	1414
1399890752548102919	1530	1475	1503	1414
1399890752558128213	1528	1472	1503	1414
1399890752568096279	1532	1477	1503	1414
1399890752573099727	1526	1468	1503	1415
1399890752583092832	1532	1473	1503	1414
1399890752588113201	1521	1466	1503	1414
1399890752598086640	1527	1471	1503	1414
1399890752603082146	1527	1468	1502	1414
1399890752618051624	1531	1473	1502	1413
1399890752622981698	1527	1466	1502	1415
1399890752632844861	1540	1473	1502	1413
1399890752638103033	1537	1466	1502	1414
1399890752648029312	1538	1471	1503	1414
1399890752653046929	1535	1471	1502	1413
1399890752663216603	1540	1462	1503	1414
1399890752673130587	1536	1476	1503	1414
1399890752683074250	1537	1459	1503	1414
1399890752688052119	1540	1468	1503	1413
1399890752703156980	1537	1466	1503	1414
1399890752718077536	1535	1466	1503	1414
1399890752722932015	1538	1465	1503	1413
1399890752733030438	1538	1466	1503	1414
1399890752738020713	1532	1468	1503	1413
1399890752753019576	1538	1464	1503	1414
1399890752757944532	1535	1466	1503	1413
1399890752768120375	1534	1466	1504	1413
1399890752773044984	1538	1465	1504	1413
1399890752783061758	1541	1459	1504	1413
1399890752787981098	1539	1456	1504	1413
1399890752798071924	1546	1460	1504	1412
1399890752808068479	1534	1455	1505	1413
1399890752818193308	1549	1462	1505	1412
1399890752823027542	1539	1454	1505	1413
1399890752833236690	1540	1462	1505	1412
1399890752838116788	1545	1455	1505	1412
1399890752848145910	1539	1459	1506	1412
1399890752858261018	1542	1460	1506	1411
1399890752868218641	1539	1454	1506	1413
1399890752873169062	1540	1462	1506	1411
1399890752883100860	1539	1454	1506	1413
1399890752888077353	1536	1460	1506	1411
1399890752898064330	1540	1457	1507	1412
1399890752903095184	1537	1456	1507	1412
1399890752913028986	1534	1460	1507	1411
1399890752923032043	1541	1449	1507	1412
1399890752933078602	1537	1460	1507	1411
1399890752938035116	1540	1452	1508	1412
1399890752948007405	1544	1462	1508	1411
1399890752958021885	1544	1457	1508	1412
1399890752967919792	1543	1456	1509	1412
1399890752973105323	1545	1459	1509	1411
1399890752982800662	1544	1455	1509	1412
1399890752987999560	1549	1461	1509	1411
1399890753003110776	1545	1456	1510	1412
1399890753018089523	1545	1451	1510	1411
1399890753022937948	1550	1456	1510	1412
1399890753033057126	1546	1454	1510	1411
1399890753038081665	1546	1456	1510	1412
1399890753053117710	1544	1456	1511	1412
1399890753068112605	1548	1457	1511	1411
1399890753073090093	1536	1452	1511	1412
1399890753083218404	1542	1456	1511	1411
1399890753088100593	1540	1447	1511	1412
1399890753103140444	1534	1448	1512	1412
1399890753108100803	1541	1455	1512	1411
1399890753118114447	1534	1445	1512	1412
1399890753122966271	1547	1450	1512	1411
1399890753133054661	1538	1457	1512	1412
1399890753137994156	1539	1457	1513	1412
1399890753147995035	1535	1457	1513	1412
1399890753158026129	1537	1457	1513	1413
1399890753163135237	1537	1455	1513	1413
1399890753173069516	1529	1459	1513	1412
1399890753183066870	1541	1450	1513	1413
1399890753188079613	1539	1448	1513	1412
1399890753198114014	1545	1456	1513	1412
1399890753208127798	1539	1452	1513	1413
1399890753218142534	1542	1455	1514	1412
1399890753223059359	1540	1455	1513	1413
1399890753233211550	1531	1454	1514	1412
1399890753238091484	1535	1454	1514	1413
1399890753253104908	1528	1453	1513	1413
1399890753258031431	1535	1453	1513	1412
1399890753268094206	1533	1455	1513	1412
1399890753273027588	1537	1455	1514	1413
1399890753283056146	1533	1446	1513	1412
1399890753288086502	1539	1453	1513	1413
1399890753298150132	1540	1452	1513	1412
1399890753303099768	1531	1445	1513	1414
1399890753318136691	1537	1454	1513	1412
1399890753323169503	1529	1442	1513	1413
1399890753333132107	1532	1456	1513	1412
1399890753338080095	1536	1452	1513	1412
1399890753348096957	1532	1458	1513	1413
1399890753353130573	1542	1455	1513	1412
1399890753368072099	1527	1449	1513	1413
1399890753373058405	1533	1458	1512	1411
1399890753378181755	1532	1450	1512	1412
1399890753388072370	1534	1461	1512	1411
1399890753398144803	1541	1453	1512	1412
1399890753403127835	1536	1459	1512	1411
1399890753418162210	1535	1459	1512	1412
1399890753423028081	1537	1454	1512	1412
1399890753433131937	1537	1465	1512	1411
1399890753438124997	1533	1446	1512	1412
1399890753448127844	1540	1469	1511	1410
1399890753458016697	1537	1453	1511	1411
1399890753468111586	1533	1466	1511	1411
1399890753473177740	1533	1464	1511	1411
1399890753483134064	1527	1457	1511	1412
1399890753488174762	1527	1464	1511	1411
1399890753498158692	1531	1446	1510	1412
1399890753508107406	1530	1460	1510	1411
1399890753518102664	1536	1449	1510	1412
1399890753523081038	1534	1457	1510	1411
1399890753533118279	1539	1454	1510	1411
1399890753538047532	1533	1452	1510	1411
1399890753553063497	1533	1455	1509	1411
1399890753558056157	1534	1453	1509	1411
1399890753568115161	1535	1461	1509	1410
1399890753573009672	1531	1449	1509	1411
1399890753583125728	1539	1463	1509	1410
1399890753588051112	1526	1458	1508	1411
1399890753603203992	1532	1460	1508	1410
1399890753613048203	1532	1455	1508	1410
1399890753623078200	1537	1460	1508	1409
1399890753628190661	1530	1458	1507	1411
1399890753638235186	1540	1471	1507	1410
1399890753648136761	1535	1458	1507	1411
1399890753653137977	1540	1468	1507	1410
1399890753668128569	1539	1458	1507	1410
1399890753673067326	1535	1468	1506	1409
1399890753683192048	1526	1471	1506	1409
1399890753688123479	1528	1467	1506	1410
1399890753703107868	1529	1475	1506	1410
1399890753718121374	1530	1478	1506	1409
1399890753723123629	1529	1465	1506	1410
1399890753733134554	1533	1472	1506	1409
1399890753738119443	1527	1470	1506	1410
1399890753753165770	1530	1474	1506	1409
1399890753758083366	1521	1473	1506	1409
1399890753768086881	1530	1468	1506	1409
1399890753773166775	1524	1476	1506	1409
1399890753783075865	1531	1465	1506	1409
1399890753787942532	1529	1469	1506	1409
1399890753803193796	1524	1469	1506	1409
1399890753818091299	1526	1466	1506	1410
1399890753823076265	1521	1473	1506	1409
1399890753833120151	1527	1463	1506	1410
1399890753838026765	1530	1463	1506	1410
1399890753848109847	1527	1462	1506	1410
1399890753868170327	1532	1468	1506	1410
1399890753873023096	1536	1466	1507	1410
1399890753878048968	1527	1468	1507	1410
1399890753888155272	1527	1464	1507	1410
1399890753898163962	1531	1457	1507	1411
1399890753903128250	1530	1458	1507	1411
1399890753913145389	1536	1459	1507	1410
1399890753923162351	1528	1456	1507	1411
1399890753933124290	1538	1466	1508	1411
1399890753938142728	1539	1455	1508	1412
1399890753948136134	1534	1467	1508	1411
1399890753953113308	1537	1463	1508	1411
1399890753968225763	1534	1462	1509	1412
1399890753973090075	1537	1466	1509	1411
1399890753983074469	1535	1453	1509	1412
1399890753988099847	1546	1465	1509	1411
1399890753998113681	1536	1453	1510	1412
1399890754003094514	1540	1459	1510	1412
1399890754018142817	1538	1458	1510	1411
1399890754023093020	1541	1457	1510	1412
1399890754033111408	1538	1482	1511	1412
1399890754038126342	1541	1470	1511	1413
1399890754048143574	1541	1479	1511	1412
1399890754053067338	1537	1471	1511	1413
1399890754068130622	1541	1472	1512	1413
1399890754072996913	1539	1478	1512	1413
1399890754083137313	1550	1473	1512	1413
1399890754088057711	1552	1483	1513	1413
1399890754098063527	1546	1474	1513	1414
1399890754103080843	1555	1478	1513	1413
1399890754113165602	1541	1482	1514	1413
1399890754123125698	1545	1469	1514	1414
1399890754128121468	1549	1484	1514	1414
1399890754138263350	1548	1465	1514	1414
1399890754148164386	1554	1480	1515	1413
1399890754153073628	1552	1475	1515	1414
1399890754168195585	1550	1474	1515	1414
1399890754173072676	1552	1483	1515	1413
1399890754183097014	1543	1467	1516	1415
1399890754188217881	1543	1486	1516	1413
1399890754197953625	1544	1472	1516	1415
1399890754208049933	1541	1479	1516	1414
1399890754218071707	1548	1482	1516	1414
1399890754222963168	1546	1466	1517	1415
1399890754233059429	1554	1468	1517	1413
1399890754237948396	1557	1459	1517	1416
1399890754252753618	1547	1467	1517	1415
1399890754268050777	1549	1462	1517	1415
1399890754272950886	1554	1468	1517	1415
1399890754282941936	1543	1453	1517	1415
1399890754288070663	1551	1460	1518	1416
1399890754303005497	1544	1458	1518	1416
1399890754317976042	1549	1456	1518	1415
1399890754322900557	1549	1446	1518	1416
1399890754333060309	1552	1468	1518	1416
1399890754338076900	1547	1470	1518	1416
1399890754348078376	1554	1460	1518	1417
1399890754353095298	1551	1472	1518	1415
1399890754363129091	1546	1456	1518	1417
1399890754373064298	1555	1469	1518	1416
1399890754378169158	1551	1463	1518	1417
1399890754388135528	1562	1455	1518	1418
1399890754402815361	1555	1467	1518	1417
1399890754412948260	1571	1467	1518	1417
1399890754423241104	1559	1466	1518	1418
1399890754438155202	1558	1465	1518	1418
1399890754453176563	1560	1463	1518	1418
1399890754468143535	1565	1461	1518	1419
1399890754473086157	1561	1464	1518	1419
1399890754488163692	1566	1459	1518	1418
1399890754503142852	1570	1459	1518	1419
1399890754518075324	1566	1457	1518	1420
1399890754523118004	1577	1455	1518	1418
1399890754538129590	1568	1456	1518	1420
1399890754548126603	1569	1453	1518	1420
1399890754568138306	1567	1454	1518	1420
1399890754573092384	1573	1447	1517	1420
1399890754583102090	1572	1456	1517	1419
1399890754588125272	1564	1455	1517	1420
1399890754598212293	1568	1447	1517	1421
1399890754603124259	1575	1457	1517	1421
1399890754613233093	1559	1460	1517	1420
1399890754623123888	1572	1441	1517	1421
1399890754638203434	1574	1457	1517	1420
1399890754652879989	1574	1451	1516	1420
1399890754668006356	1565	1442	1516	1421
1399890754672894201	1585	1460	1516	1419
1399890754688177428	1559	1451	1516	1420
1399890754703191151	1569	1448	1515	1421
1399890754718087913	1561	1456	1515	1421
1399890754723022512	1566	1456	1515	1420
1399890754738172451	1565	1448	1515	1420
1399890754753175638	1564	1447	1515	1420
1399890754768115167	1563	1459	1515	1419
1399890754773058067	1561	1446	1515	1421
1399890754788187968	1560	1452	1514	1419
1399890754798074373	1558	1455	1514	1419
1399890754818277852	1561	1453	1514	1419
1399890754823019458	1561	1458	1514	1418
1399890754833109956	1554	1448	1514	1419
1399890754838066604	1557	1458	1514	1419
1399890754848044815	1559	1455	1514	1419
1399890754852996795	1557	1459	1514	1419
1399890754863157480	1557	1450	1514	1419
1399890754873187615	1549	1457	1513	1419
1399890754883092810	1571	1449	1513	1419
1399890754888057883	1564	1445	1513	1418
1399890754898016011	1569	1448	1513	1418
1399890754903006342	1572	1447	1513	1419
1399890754918179611	1562	1442	1513	1418
1399890754923087502	1567	1445	1513	1418
1399890754943184944	1563	1448	1513	1418
1399890754948038861	1563	1452	1513	1418
1399890754953039128	1561	1445	1513	1418
1399890754968114807	1559	1445	1513	1418
1399890754973088019	1562	1453	1513	1417
1399890754983220743	1557	1439	1513	1418
1399890754988153076	1563	1454	1513	1416
1399890755003148883	1562	1449	1512	1417
1399890755018122442	1556	1455	1512	1417
1399890755023028649	1554	1445	1512	1417
1399890755033156436	1564	1459	1512	1416
1399890755038021356	1564	1449	1512	1417
1399890755053031157	1560	1459	1512	1416
1399890755057946613	1558	1449	1512	1416
1399890755068209398	1556	1455	1512	1416
1399890755073113788	1556	1454	1512	1416
1399890755077833365	1558	1448	1512	1416
1399890755087876355	1556	1450	1512	1415
1399890755097898233	1554	1441	1512	1416
