#Time	 Roll 	 Pitch 	 Yaw 	 Thrust
1399421853789025706	1520	1516	1101	1105
1399421853889331940	1520	1516	1101	1105
1399421853989632744	1520	1516	1101	1105
1399421854089904441	1520	1516	1101	1105
1399421854190210676	1520	1516	1101	1105
1399421854290491183	1520	1516	1101	1105
1399421854390772870	1520	1516	1101	1105
1399421854491063842	1520	1516	1101	1105
1399421854591408762	1520	1516	1101	1105
1399421854691700394	1520	1516	1101	1105
1399421854791989441	1520	1516	1101	1105
1399421854892277123	1520	1516	1101	1105
1399421854992668089	1520	1516	1101	1105
1399421855092955458	1520	1516	1101	1105
1399421855193288225	1520	1516	1101	1105
1399421855293585279	1520	1516	1101	1105
1399421855393871326	1520	1516	1101	1105
1399421855494156241	1520	1516	1101	1105
1399421855594439297	1520	1516	1101	1105
1399421855694711236	1520	1516	1101	1105
1399421855795006147	1520	1516	1101	1105
1399421855895281923	1520	1516	1101	1105
1399421855995526160	1520	1516	1101	1105
1399421856095801671	1520	1516	1101	1105
1399421856196074732	1520	1516	1101	1105
1399421856296408654	1520	1516	1101	1105
1399421856396711025	1520	1516	1101	1105
1399421856496996610	1520	1516	1101	1105
1399421856597262831	1520	1516	1101	1105
1399421856697548847	1520	1516	1101	1105
1399421856797820650	1520	1516	1513	1105
1399421862125711652	1520	1516	1926	1105
1399421862225971828	1520	1516	1926	1105
1399421862326219901	1520	1516	1513	1105
1399421891113587563	1520	1516	1926	1105
1399421891213822462	1520	1516	1926	1105
1399421891314061897	1520	1516	1926	1105
1399421891414273755	1520	1516	1926	1105
1399421891514474107	1520	1516	1926	1105
1399421891614686610	1520	1516	1926	1105
1399421891714904582	1520	1516	1926	1105
1399421891815135682	1520	1516	1513	1105
1399421901058437500	1518	1468	1514	1378
1399421901073498614	1519	1468	1514	1378
1399421901088443103	1519	1468	1514	1378
1399421901108474943	1518	1468	1514	1378
1399421901133454290	1518	1469	1514	1378
1399421901153689598	1518	1469	1514	1378
1399421901173387690	1518	1469	1514	1378
1399421901203326462	1519	1468	1514	1378
1399421901223379722	1519	1468	1514	1378
1399421901238339457	1518	1468	1514	1378
1399421901258313541	1519	1467	1514	1378
1399421901273286049	1519	1467	1514	1378
1399421901288318561	1518	1467	1514	1378
1399421901308310590	1518	1467	1514	1378
1399421901328333469	1518	1468	1514	1378
1399421901338244408	1518	1468	1514	1378
1399421901358304490	1519	1468	1514	1378
1399421901378301846	1518	1468	1514	1378
1399421901388285388	1518	1468	1514	1378
1399421901408291987	1518	1468	1514	1378
1399421901423311772	1518	1468	1514	1378
1399421901438287422	1519	1468	1514	1378
1399421901458305089	1518	1467	1514	1378
1399421901473349542	1517	1469	1514	1378
1399421901488295403	1517	1468	1514	1378
1399421901508565022	1517	1468	1514	1378
1399421901523174345	1518	1468	1514	1378
1399421901538267478	1518	1467	1514	1377
1399421901563554814	1518	1468	1514	1426
1399421901583518184	1517	1467	1514	1426
1399421901598435758	1517	1466	1514	1426
1399421901623478632	1518	1467	1514	1427
1399421901638468729	1517	1467	1514	1427
1399421901658486473	1517	1467	1514	1427
1399421901673506986	1516	1468	1514	1427
1399421901703381531	1516	1466	1514	1427
1399421901723522524	1518	1467	1514	1427
1399421901753423002	1516	1466	1514	1427
1399421901768601582	1516	1466	1514	1427
1399421901783424721	1515	1462	1514	1427
1399421901798470795	1516	1460	1514	1427
1399421901813543823	1515	1457	1514	1426
1399421901833333308	1517	1452	1514	1426
1399421901853367334	1516	1450	1514	1426
1399421901863209760	1516	1450	1514	1425
1399421901883259396	1517	1441	1514	1425
1399421901903274239	1517	1442	1514	1426
1399421901913298713	1517	1440	1514	1425
1399421901933338633	1514	1435	1513	1426
1399421901948310426	1514	1434	1513	1425
1399421901963343551	1511	1434	1513	1425
1399421901983301173	1513	1427	1513	1424
1399421901998288356	1514	1426	1513	1423
1399421902013255031	1513	1425	1513	1421
1399421902038256937	1514	1422	1513	1422
1399421902058317077	1512	1422	1513	1421
1399421902078341049	1517	1449	1513	1420
1399421902088313724	1514	1446	1513	1420
1399421902108328938	1514	1446	1513	1421
1399421902123295050	1514	1449	1513	1422
1399421902138280983	1513	1446	1513	1419
1399421902173337825	1513	1450	1513	1418
1399421902203316147	1509	1449	1513	1420
1399421902223323631	1508	1450	1513	1418
1399421902238250686	1507	1446	1513	1416
1399421902258280562	1508	1445	1513	1416
1399421902273315852	1502	1439	1513	1415
1399421902288287805	1502	1439	1513	1416
1399421902313318496	1502	1438	1513	1415
1399421902338270164	1505	1435	1513	1415
1399421902358219755	1505	1436	1513	1415
1399421902383256265	1503	1423	1513	1413
1399421902398357910	1505	1424	1513	1414
1399421902423314257	1503	1421	1513	1414
1399421902453502868	1501	1421	1513	1415
1399421902463543191	1501	1419	1513	1413
1399421902483366674	1497	1414	1513	1414
1399421902498421878	1498	1414	1513	1412
1399421902513196278	1497	1412	1513	1412
1399421902533529994	1496	1418	1513	1415
1399421902558229290	1497	1416	1513	1414
1399421902588442600	1495	1418	1513	1414
1399421902608515965	1496	1418	1513	1414
1399421902623522751	1500	1424	1513	1414
1399421902653593192	1498	1424	1513	1415
1399421902673603681	1505	1428	1513	1416
1399421902703494024	1507	1429	1513	1417
1399421902733646864	1505	1433	1513	1416
1399421902748583997	1506	1435	1513	1418
1399421902763277008	1505	1434	1513	1417
1399421902788314883	1507	1440	1513	1419
1399421902808300624	1507	1440	1513	1419
1399421902823323234	1510	1437	1513	1420
1399421902848332085	1511	1434	1513	1419
1399421902863247798	1509	1436	1513	1420
1399421902883257179	1502	1426	1512	1419
1399421902898272464	1501	1429	1512	1422
1399421902923327997	1501	1416	1512	1420
1399421902938514851	1500	1416	1512	1422
1399421902958645064	1500	1417	1512	1422
1399421902973634812	1499	1419	1512	1421
1399421902988591851	1499	1419	1512	1422
1399421903013469848	1501	1419	1512	1422
1399421903033534263	1501	1418	1512	1423
1399421903048519457	1502	1419	1512	1424
1399421903068668483	1502	1416	1512	1423
1399421903083502744	1503	1417	1512	1423
1399421903098497884	1503	1418	1512	1423
1399421903123280414	1510	1421	1512	1424
1399421903153386064	1511	1423	1512	1425
1399421903173527924	1510	1420	1512	1425
1399421903203452880	1512	1422	1512	1425
1399421903213566799	1512	1422	1512	1425
1399421903233472644	1511	1429	1512	1425
1399421903248580074	1511	1430	1512	1425
1399421903263533602	1512	1431	1512	1426
1399421903283552891	1517	1430	1512	1426
1399421903303528582	1519	1429	1512	1425
1399421903313276838	1520	1431	1512	1426
1399421903333509654	1511	1434	1512	1426
1399421903348498523	1510	1435	1512	1426
1399421903363516771	1511	1435	1512	1426
1399421903383542511	1511	1436	1512	1426
1399421903398484749	1512	1436	1512	1425
1399421903413483132	1513	1438	1512	1426
1399421903438446763	1508	1441	1512	1427
1399421903458572493	1508	1440	1512	1426
1399421903473420846	1510	1437	1512	1426
1399421903488527575	1510	1438	1512	1426
1399421903513507446	1511	1439	1512	1427
1399421903533506617	1511	1434	1512	1426
1399421903548523010	1511	1435	1512	1426
1399421903573631909	1518	1430	1512	1428
1399421903603624961	1517	1433	1512	1428
1399421903623570973	1516	1428	1512	1428
1399421903638578567	1516	1427	1512	1427
1399421903658487657	1519	1428	1512	1427
1399421903673672844	1521	1430	1511	1429
1399421903688543432	1521	1429	1511	1428
1399421903708441860	1520	1429	1511	1428
1399421903723595388	1528	1427	1511	1429
1399421903748291140	1527	1427	1511	1429
1399421903763249375	1527	1427	1511	1429
1399421903783588408	1529	1432	1511	1430
1399421903798538436	1529	1431	1511	1429
1399421903823598442	1523	1435	1511	1429
1399421903858512594	1524	1437	1511	1430
1399421903873504215	1525	1436	1511	1429
1399421903888494787	1524	1446	1511	1429
1399421903908285796	1523	1446	1511	1430
1399421903923502388	1519	1451	1511	1430
1399421903938259048	1520	1453	1511	1430
1399421903958418087	1521	1454	1511	1432
1399421903973511412	1518	1458	1511	1432
1399421903988375475	1518	1457	1511	1431
1399421904008411136	1518	1460	1511	1431
1399421904023460125	1519	1460	1511	1431
1399421904038390538	1519	1460	1511	1431
1399421904058465844	1521	1462	1511	1431
1399421904088531184	1519	1460	1511	1431
1399421904108528544	1520	1461	1511	1432
1399421904138583830	1520	1459	1511	1432
1399421904173589974	1524	1449	1511	1432
1399421904188433522	1524	1448	1511	1431
1399421904208433649	1525	1448	1511	1431
1399421904223561457	1527	1440	1511	1432
1399421904238674340	1526	1438	1511	1431
1399421904263573586	1526	1437	1511	1432
1399421904273404923	1530	1432	1511	1432
1399421904303546535	1529	1431	1511	1431
1399421904313503160	1529	1431	1511	1432
1399421904333714280	1529	1427	1511	1431
1399421904348368175	1529	1427	1511	1431
1399421904363548112	1528	1425	1511	1430
1399421904383534217	1527	1421	1511	1429
1399421904398565470	1526	1422	1511	1431
1399421904418604009	1525	1424	1511	1431
1399421904433620291	1526	1424	1511	1431
1399421904448498666	1525	1424	1511	1432
1399421904463507811	1524	1424	1511	1431
1399421904483512140	1524	1425	1511	1432
1399421904508489641	1522	1424	1511	1431
1399421904523521146	1514	1446	1511	1431
1399421904538513794	1514	1446	1511	1431
1399421904558362749	1514	1446	1511	1432
1399421904588513293	1513	1453	1511	1430
1399421904613515114	1512	1454	1511	1431
1399421904633577186	1511	1466	1511	1431
1399421904653552879	1511	1466	1511	1430
1399421904663533710	1510	1466	1511	1430
1399421904683398103	1512	1471	1511	1430
1399421904698481496	1511	1472	1511	1430
1399421904713532761	1510	1472	1511	1430
1399421904733588222	1518	1476	1511	1430
1399421904753516136	1518	1476	1511	1430
1399421904773393518	1518	1472	1511	1430
1399421904788345843	1517	1473	1511	1429
1399421904808281490	1517	1472	1511	1429
1399421904838641343	1511	1465	1511	1429
1399421904858606649	1512	1465	1511	1430
1399421904873588202	1510	1453	1511	1429
1399421904898563243	1509	1452	1511	1430
1399421904913363061	1509	1451	1511	1431
1399421904933588622	1515	1429	1511	1431
1399421904948526374	1514	1429	1511	1430
1399421904973552858	1516	1416	1511	1430
1399421904988452735	1516	1416	1511	1431
1399421905008526545	1515	1414	1511	1432
1399421905023673936	1516	1398	1511	1433
1399421905048546426	1516	1395	1511	1432
1399421905063596448	1515	1394	1511	1432
1399421905083649833	1515	1396	1511	1432
1399421905098516263	1514	1395	1511	1434
1399421905113519576	1515	1396	1511	1434
1399421905133307804	1514	1395	1511	1435
1399421905153632540	1506	1402	1511	1435
1399421905163441276	1506	1403	1511	1435
1399421905183632314	1506	1410	1511	1435
1399421905198630364	1504	1409	1511	1436
1399421905213366713	1505	1409	1511	1435
1399421905238248846	1504	1426	1511	1437
1399421905258512914	1505	1425	1511	1436
1399421905288629646	1507	1449	1512	1437
1399421905308545311	1505	1449	1512	1437
1399421905338334213	1507	1452	1512	1438
1399421905358632006	1508	1465	1512	1438
1399421905388581045	1509	1476	1512	1438
1399421905408533194	1508	1478	1512	1438
1399421905423484074	1508	1477	1512	1438
1399421905438559663	1510	1478	1512	1438
1399421905458601266	1511	1478	1512	1439
1399421905473477334	1511	1478	1512	1440
1399421905493550431	1510	1477	1512	1440
1399421905508515135	1511	1476	1512	1439
1399421905533304967	1511	1477	1512	1438
1399421905548337865	1507	1459	1512	1439
1399421905563651702	1510	1459	1512	1439
1399421905583548414	1510	1449	1512	1438
1399421905598607879	1508	1448	1512	1437
1399421905613352974	1507	1448	1512	1437
1399421905633523545	1504	1433	1512	1437
1399421905648533377	1505	1433	1512	1437
1399421905663602099	1505	1429	1512	1436
1399421905683520891	1505	1409	1512	1437
1399421905698606983	1503	1409	1511	1437
1399421905713591817	1501	1407	1511	1436
1399421905738675189	1501	1404	1511	1436
1399421905758504067	1503	1397	1511	1436
1399421905788449650	1498	1386	1511	1435
1399421905808378843	1499	1385	1511	1436
1399421905838533812	1501	1390	1511	1436
1399421905858586072	1504	1390	1511	1435
1399421905873557388	1503	1398	1511	1435
1399421905888506342	1504	1400	1511	1436
1399421905908320935	1505	1399	1511	1436
1399421905923516115	1504	1399	1511	1436
1399421905938248342	1504	1400	1511	1436
1399421905963388383	1507	1420	1511	1436
1399421905983581101	1510	1442	1511	1437
1399421905998463012	1509	1443	1511	1436
1399421906023651023	1514	1470	1511	1436
1399421906053482440	1517	1474	1511	1436
1399421906073522813	1516	1497	1511	1436
1399421906103521949	1518	1501	1511	1437
1399421906148598193	1517	1504	1511	1436
1399421906163527046	1518	1507	1511	1437
1399421906183517382	1517	1498	1511	1437
1399421906198512659	1517	1500	1511	1437
1399421906213472709	1518	1501	1511	1435
1399421906233485255	1511	1465	1511	1436
1399421906253567250	1511	1468	1511	1436
1399421906273650780	1510	1451	1511	1436
1399421906303548702	1510	1451	1511	1438
1399421906323321205	1509	1451	1511	1437
1399421906353732036	1498	1404	1511	1437
1399421906383639484	1496	1397	1511	1438
1399421906398532738	1496	1394	1511	1439
1399421906413537560	1497	1393	1511	1438
1399421906433588186	1508	1363	1511	1438
1399421906448557439	1508	1362	1511	1438
1399421906463547629	1507	1360	1511	1438
1399421906483581457	1510	1362	1511	1438
1399421906498633337	1511	1362	1511	1439
1399421906513570689	1512	1361	1511	1439
1399421906533543439	1512	1362	1511	1440
1399421906558553319	1517	1408	1511	1440
1399421906573410339	1516	1425	1511	1441
1399421906618599742	1525	1460	1511	1441
1399421906633602723	1525	1459	1511	1441
1399421906648434092	1526	1461	1511	1440
1399421906663555978	1526	1465	1511	1442
1399421906683590662	1526	1495	1511	1442
1399421906698553910	1526	1495	1511	1443
1399421906723416080	1527	1497	1511	1442
1399421906748301800	1520	1519	1511	1442
1399421906773496550	1522	1523	1511	1442
1399421906798600144	1524	1505	1511	1441
1399421906813558924	1523	1508	1511	1442
1399421906833554216	1521	1501	1511	1441
1399421906853477376	1522	1502	1511	1441
1399421906863494342	1520	1502	1511	1441
1399421906883542798	1515	1439	1511	1441
1399421906898554850	1513	1439	1511	1441
1399421906913581735	1514	1440	1511	1441
1399421906933528047	1515	1414	1511	1440
1399421906958549339	1515	1414	1511	1440
1399421906973584773	1515	1412	1511	1439
1399421906988631058	1514	1412	1511	1440
1399421907008627292	1514	1410	1511	1438
1399421907023585459	1514	1401	1511	1438
1399421907038571564	1514	1402	1511	1439
1399421907058503013	1514	1401	1511	1439
1399421907073582004	1528	1442	1511	1439
1399421907088596007	1526	1443	1511	1438
1399421907108556996	1526	1443	1511	1438
1399421907123584465	1526	1442	1511	1437
1399421907138543295	1526	1460	1511	1438
1399421907158563449	1525	1460	1511	1437
1399421907178569947	1529	1487	1511	1437
1399421907188541663	1529	1487	1511	1438
1399421907208558420	1529	1487	1511	1437
1399421907223537686	1531	1500	1511	1437
1399421907253536999	1530	1503	1511	1438
1399421907273561186	1528	1490	1511	1436
1399421907303595622	1527	1488	1511	1435
1399421907323548808	1526	1489	1511	1435
1399421907368670611	1519	1455	1511	1434
1399421907383562506	1517	1455	1511	1435
1399421907398521680	1518	1454	1511	1434
1399421907413558220	1517	1457	1511	1435
1399421907433581866	1513	1424	1511	1434
1399421907453550349	1512	1423	1510	1435
1399421907468537762	1510	1420	1510	1435
1399421907483510330	1509	1419	1510	1435
1399421907498519434	1508	1417	1510	1434
1399421907513354057	1508	1416	1510	1434
1399421907533418613	1517	1433	1510	1434
1399421907553571861	1516	1430	1510	1435
1399421907563471096	1515	1429	1510	1436
1399421907583357035	1515	1427	1510	1436
1399421907598485160	1515	1426	1510	1435
1399421907613413345	1514	1425	1510	1434
1399421907633328747	1517	1443	1510	1434
1399421907648616357	1517	1443	1510	1434
1399421907663569481	1518	1443	1510	1435
1399421907683565284	1522	1460	1510	1435
1399421907703587105	1522	1459	1510	1436
1399421907723830922	1525	1475	1510	1436
1399421907738606659	1525	1473	1510	1436
1399421907758628434	1524	1473	1510	1437
1399421907788505018	1525	1473	1510	1436
1399421907798464319	1525	1473	1510	1436
1399421907813443571	1526	1474	1510	1437
1399421907833373109	1519	1461	1510	1437
1399421907848465596	1519	1460	1510	1438
1399421907863535528	1519	1460	1509	1439
1399421907883559922	1520	1453	1509	1439
1399421907898548641	1518	1452	1509	1439
1399421907913707551	1517	1451	1509	1439
1399421907933480674	1510	1413	1509	1439
1399421907948541360	1510	1412	1509	1440
1399421907963577794	1508	1411	1509	1440
1399421907983597600	1508	1408	1509	1442
1399421907998554976	1507	1406	1509	1442
1399421908023368690	1507	1409	1509	1441
1399421908038511888	1506	1411	1509	1442
1399421908058526966	1506	1412	1509	1443
1399421908073584635	1505	1415	1509	1442
1399421908088453990	1506	1415	1509	1443
1399421908108502749	1505	1414	1509	1442
1399421908123272357	1504	1442	1509	1443
1399421908138587783	1503	1441	1509	1442
1399421908158577187	1503	1442	1509	1443
1399421908173563870	1506	1457	1509	1443
1399421908193575681	1506	1457	1509	1442
1399421908208383488	1506	1459	1509	1443
1399421908238515593	1508	1467	1509	1442
1399421908263353679	1508	1468	1509	1442
1399421908283301517	1512	1465	1509	1442
1399421908298245522	1511	1466	1509	1442
1399421908313192149	1509	1467	1509	1442
1399421908333243100	1512	1462	1509	1442
1399421908348521398	1512	1461	1509	1441
1399421908363521474	1511	1461	1508	1442
1399421908383544720	1513	1439	1508	1442
1399421908398532043	1512	1438	1508	1441
1399421908413369264	1511	1438	1508	1441
1399421908433437515	1512	1418	1508	1442
1399421908448422856	1512	1419	1508	1442
1399421908463504371	1512	1419	1508	1442
1399421908488560070	1506	1400	1508	1441
1399421908508328623	1505	1400	1508	1442
1399421908523493220	1508	1400	1508	1442
1399421908548478649	1507	1398	1508	1442
1399421908563552246	1507	1399	1508	1442
1399421908583545767	1503	1405	1508	1442
1399421908598550207	1503	1407	1508	1441
1399421908613469552	1503	1407	1508	1442
1399421908633474404	1503	1422	1508	1443
1399421908648217099	1503	1421	1508	1443
1399421908673518295	1500	1454	1508	1442
1399421908703401540	1500	1455	1508	1441
1399421908723444709	1502	1469	1508	1442
1399421908753424029	1503	1471	1508	1443
1399421908773336984	1504	1483	1508	1443
1399421908788491829	1504	1484	1507	1442
1399421908808378577	1504	1487	1507	1442
1399421908823491805	1504	1489	1507	1443
1399421908838471298	1504	1489	1507	1443
1399421908858483397	1503	1490	1507	1442
1399421908873435258	1506	1454	1507	1441
1399421908898577658	1508	1455	1507	1441
1399421908913330063	1509	1455	1507	1441
1399421908933529736	1507	1435	1507	1441
1399421908948561437	1507	1436	1507	1441
1399421908963543324	1508	1438	1507	1442
1399421908988526255	1508	1424	1507	1442
1399421908998522651	1509	1423	1507	1441
1399421909013541986	1508	1425	1507	1441
1399421909038575178	1507	1408	1507	1441
1399421909058488086	1507	1407	1507	1441
1399421909073561077	1503	1406	1507	1441
1399421909088440593	1503	1407	1507	1441
1399421909108405552	1503	1407	1507	1441
1399421909123622560	1505	1417	1506	1442
1399421909143622759	1504	1418	1506	1442
1399421909158550387	1504	1419	1506	1441
1399421909173602650	1505	1454	1506	1442
1399421909193519903	1504	1453	1506	1443
1399421909208538365	1506	1453	1506	1442
1399421909233498776	1504	1478	1506	1442
1399421909248611518	1503	1479	1506	1443
1399421909263688501	1504	1478	1506	1443
1399421909283564045	1504	1482	1506	1442
1399421909298535289	1504	1483	1506	1441
1399421909313557343	1503	1483	1506	1441
1399421909333568568	1504	1471	1506	1440
1399421909348566136	1504	1471	1506	1441
1399421909363526533	1503	1471	1506	1441
1399421909383514800	1508	1462	1506	1441
1399421909403484629	1508	1463	1506	1441
1399421909423530759	1510	1440	1506	1441
1399421909453605440	1509	1438	1506	1441
1399421909473593694	1510	1426	1506	1441
1399421909503286635	1510	1424	1506	1442
1399421909513384329	1511	1423	1506	1442
1399421909533512507	1511	1402	1506	1442
1399421909553555042	1510	1401	1506	1443
1399421909563404326	1510	1400	1506	1443
1399421909583638520	1506	1399	1506	1443
1399421909598552813	1505	1399	1506	1443
1399421909613462822	1504	1398	1506	1444
1399421909638562168	1499	1418	1506	1444
1399421909658489305	1498	1415	1506	1444
1399421909673576416	1498	1426	1506	1445
1399421909703506455	1498	1423	1507	1446
1399421909723532497	1497	1448	1507	1446
1399421909753581766	1496	1449	1506	1447
1399421909773569674	1495	1465	1506	1447
1399421909788275730	1494	1466	1506	1447
1399421909808607408	1495	1467	1506	1447
1399421909823271142	1496	1488	1506	1448
1399421909848555337	1495	1488	1506	1449
1399421909863368721	1495	1485	1506	1449
1399421909883617670	1499	1487	1506	1449
1399421909898381022	1500	1487	1506	1448
1399421909913422244	1500	1488	1506	1448
1399421909933621360	1505	1472	1506	1450
1399421909948625165	1504	1470	1506	1451
1399421909973545360	1504	1445	1506	1450
1399421909988551813	1505	1444	1506	1450
1399421910008554378	1505	1444	1506	1450
1399421910023533317	1509	1429	1506	1450
1399421910053539269	1509	1428	1506	1449
1399421910063535623	1509	1427	1506	1450
1399421910083583257	1510	1424	1506	1449
1399421910098647316	1518	1387	1506	1451
1399421910113614666	1518	1384	1506	1449
1399421910133329639	1517	1384	1506	1449
1399421910153510161	1517	1385	1506	1449
1399421910163538353	1517	1382	1506	1448
1399421910183539882	1511	1383	1506	1449
1399421910208532345	1512	1383	1506	1448
1399421910223442181	1509	1394	1506	1448
1399421910238576105	1509	1394	1506	1449
1399421910258534964	1511	1392	1506	1447
1399421910273590000	1511	1393	1506	1448
1399421910288584491	1508	1395	1506	1449
1399421910308506604	1499	1440	1506	1447
1399421910323544952	1495	1449	1506	1447
1399421910338339491	1496	1451	1506	1448
1399421910358540885	1496	1451	1506	1449
1399421910383521997	1490	1469	1506	1447
1399421910398488446	1490	1471	1506	1449
1399421910423552160	1485	1484	1506	1448
1399421910438597153	1486	1488	1506	1448
1399421910458547008	1485	1489	1506	1448
1399421910473425291	1485	1488	1506	1448
1399421910488291160	1483	1489	1506	1448
1399421910508459375	1489	1484	1506	1448
1399421910523519675	1494	1479	1506	1447
1399421910538572565	1492	1479	1505	1446
1399421910558623415	1492	1481	1505	1446
1399421910573305781	1500	1458	1505	1447
1399421910588584658	1502	1459	1505	1447
1399421910608580423	1502	1458	1505	1447
1399421910633580094	1513	1437	1505	1446
1399421910648529930	1514	1436	1505	1447
1399421910673389362	1516	1435	1505	1446
1399421910688394046	1531	1401	1505	1446
1399421910708549841	1531	1401	1505	1447
1399421910723562570	1536	1387	1505	1447
1399421910738625551	1536	1386	1505	1447
1399421910758553432	1537	1385	1505	1447
1399421910773518888	1533	1379	1505	1447
1399421910788463821	1535	1378	1505	1448
1399421910808481692	1536	1379	1505	1448
1399421910828510260	1525	1385	1505	1447
1399421910838554338	1525	1387	1505	1448
1399421910858545816	1525	1385	1505	1448
1399421910878599396	1526	1384	1505	1448
1399421910888530512	1527	1385	1505	1448
1399421910908350781	1507	1418	1505	1448
1399421910923542479	1501	1436	1505	1447
1399421910938554373	1501	1438	1505	1448
1399421910958551479	1501	1440	1505	1448
1399421910973800035	1498	1455	1505	1449
1399421910988463794	1496	1455	1505	1449
1399421911008489088	1496	1454	1505	1449
1399421911023505811	1477	1500	1505	1449
1399421911038739993	1478	1502	1505	1448
1399421911058530710	1476	1502	1505	1448
1399421911073340560	1475	1504	1505	1448
1399421911098390345	1473	1508	1505	1449
1399421911123251823	1471	1510	1505	1449
1399421911143349890	1471	1510	1505	1449
1399421911158440531	1477	1496	1505	1448
1399421911173281808	1482	1487	1505	1448
1399421911198429512	1481	1487	1505	1448
1399421911223589772	1505	1459	1505	1448
1399421911253618081	1504	1460	1505	1449
1399421911268523824	1506	1459	1505	1448
1399421911283567056	1525	1429	1505	1447
1399421911298327579	1525	1430	1505	1449
1399421911313310547	1527	1427	1504	1449
1399421911333303862	1536	1405	1504	1448
1399421911353379925	1536	1403	1504	1449
1399421911363264131	1537	1402	1504	1448
1399421911383279259	1534	1396	1504	1448
1399421911398296991	1536	1396	1504	1448
1399421911423274235	1533	1375	1504	1449
1399421911438260968	1533	1374	1504	1448
1399421911458316888	1534	1373	1504	1448
1399421911488316224	1523	1376	1504	1448
1399421911508333054	1525	1376	1504	1448
1399421911523552887	1513	1401	1504	1448
1399421911538282815	1513	1402	1504	1448
1399421911558322785	1512	1401	1504	1448
1399421911573309419	1499	1438	1504	1449
1399421911598289575	1498	1440	1503	1448
1399421911613274133	1496	1440	1503	1448
1399421911638287094	1493	1454	1503	1447
1399421911658283819	1491	1456	1503	1447
1399421911688297684	1475	1488	1503	1447
1399421911723291419	1465	1498	1503	1447
1399421911748286111	1463	1502	1503	1447
1399421911763332694	1463	1503	1503	1447
1399421911783317363	1463	1507	1503	1447
1399421911798335209	1461	1507	1503	1447
1399421911823324494	1466	1497	1503	1446
1399421911843275683	1464	1498	1503	1447
1399421911858324202	1465	1497	1502	1447
1399421911888367609	1487	1481	1502	1447
1399421911908273530	1488	1481	1502	1447
1399421911938326088	1499	1464	1502	1447
1399421911958388220	1500	1463	1502	1447
1399421911973327948	1531	1413	1502	1446
1399421911988273674	1535	1414	1502	1447
1399421912008313797	1535	1413	1502	1448
1399421912033311279	1541	1402	1502	1448
1399421912048278508	1541	1399	1502	1447
1399421912063285152	1543	1398	1502	1447
1399421912083287373	1546	1369	1502	1449
1399421912098381754	1545	1366	1502	1449
1399421912123340614	1541	1365	1502	1448
1399421912138280104	1543	1363	1502	1450
1399421912158290619	1544	1360	1502	1449
1399421912173300341	1530	1371	1502	1449
1399421912203354006	1530	1371	1502	1449
1399421912233368381	1523	1379	1502	1449
1399421912248316313	1521	1380	1502	1449
1399421912263266264	1520	1376	1502	1449
1399421912288295365	1481	1433	1502	1450
1399421912313313845	1482	1435	1502	1450
1399421912338292888	1452	1474	1502	1450
1399421912358250412	1451	1475	1502	1450
1399421912373282650	1441	1490	1502	1451
1399421912403277082	1441	1493	1502	1451
1399421912423326826	1442	1503	1501	1451
1399421912438273737	1441	1505	1501	1451
1399421912458270916	1439	1505	1501	1451
1399421912473256064	1458	1498	1501	1450
1399421912488259652	1458	1500	1501	1452
1399421912508324676	1457	1499	1501	1452
1399421912523330194	1501	1445	1501	1451
1399421912538265047	1500	1447	1501	1452
1399421912558360084	1500	1446	1501	1452
1399421912588284412	1520	1429	1501	1452
1399421912608281549	1523	1428	1501	1452
1399421912638283085	1557	1370	1501	1452
1399421912658317850	1559	1368	1501	1451
1399421912688320202	1562	1358	1501	1451
1399421912708304068	1568	1357	1501	1450
1399421912738288972	1540	1369	1500	1450
1399421912758296618	1543	1368	1500	1450
1399421912773260244	1533	1377	1500	1449
1399421912798300447	1535	1376	1500	1450
1399421912813285615	1537	1375	1500	1448
1399421912833277460	1482	1436	1500	1449
1399421912853350900	1479	1437	1500	1447
1399421912873345306	1470	1464	1500	1449
1399421912903478692	1471	1464	1500	1448
1399421912923540565	1467	1480	1500	1448
1399421912948539340	1468	1481	1500	1448
1399421912963507068	1468	1482	1500	1448
1399421912983595922	1464	1489	1500	1446
1399421912998457351	1464	1489	1500	1446
1399421913023512172	1506	1435	1500	1446
1399421913038437193	1507	1434	1500	1446
1399421913058529420	1506	1437	1500	1446
1399421913078514861	1536	1392	1500	1445
1399421913088544355	1538	1392	1500	1446
1399421913108546531	1537	1395	1500	1447
1399421913133517864	1547	1375	1500	1446
1399421913148481590	1549	1375	1500	1446
1399421913168621355	1536	1386	1500	1447
1399421913183521873	1538	1385	1500	1447
1399421913198584161	1540	1381	1500	1446
1399421913213524590	1539	1380	1500	1446
1399421913233512505	1528	1407	1500	1447
1399421913258535818	1530	1408	1500	1447
1399421913273478340	1519	1426	1500	1447
1399421913298340053	1521	1427	1500	1447
1399421913323617170	1511	1445	1500	1448
1399421913348498158	1513	1445	1499	1447
1399421913363262282	1512	1444	1499	1447
1399421913383280506	1495	1464	1499	1447
1399421913403250025	1494	1465	1499	1447
1399421913423246801	1499	1455	1499	1446
1399421913448231204	1499	1453	1499	1446
1399421913463232247	1500	1453	1499	1445
1399421913483310013	1499	1455	1499	1446
1399421913498400330	1530	1403	1499	1445
1399421913513317114	1528	1406	1499	1447
1399421913538234446	1533	1394	1499	1446
1399421913558284233	1533	1395	1499	1447
1399421913583259909	1541	1390	1499	1447
1399421913603303559	1541	1390	1499	1447
1399421913623302660	1544	1387	1499	1447
1399421913653284636	1545	1387	1499	1446
1399421913688330045	1528	1425	1499	1446
1399421913708296645	1527	1426	1499	1446
1399421913723298018	1524	1435	1499	1447
1399421913738299720	1524	1434	1499	1446
1399421913758245732	1523	1434	1499	1446
1399421913778264687	1514	1444	1499	1445
1399421913788266762	1512	1446	1499	1445
1399421913808247560	1513	1445	1499	1444
1399421913823294545	1508	1449	1499	1445
1399421913838309673	1507	1450	1499	1445
1399421913858505900	1507	1452	1498	1445
1399421913873580901	1506	1452	1498	1444
1399421913888274600	1505	1453	1498	1444
1399421913908536092	1514	1435	1498	1444
1399421913923406557	1516	1432	1498	1444
1399421913938539868	1516	1432	1498	1445
1399421913958493392	1514	1433	1498	1443
1399421913973679868	1522	1420	1498	1444
1399421913988618139	1523	1422	1498	1444
1399421914008516310	1522	1424	1498	1444
1399421914023600120	1529	1417	1498	1443
1399421914048305650	1527	1418	1498	1444
1399421914063584653	1527	1417	1498	1444
1399421914083332141	1527	1418	1498	1444
1399421914108543188	1529	1413	1498	1443
1399421914123540519	1521	1427	1498	1444
1399421914143554623	1520	1428	1498	1443
1399421914158521616	1520	1430	1497	1444
1399421914173482711	1522	1433	1497	1444
1399421914188373370	1522	1434	1497	1444
1399421914208273953	1522	1433	1497	1444
1399421914223524533	1516	1451	1497	1444
1399421914238558873	1515	1451	1497	1443
1399421914258548954	1515	1454	1497	1444
1399421914283568592	1515	1452	1497	1443
1399421914303496016	1508	1470	1497	1443
1399421914313342735	1507	1472	1497	1443
1399421914333404583	1507	1471	1497	1444
1399421914353580000	1507	1470	1497	1444
1399421914373552787	1508	1466	1497	1444
1399421914403504167	1508	1468	1497	1444
1399421914418467806	1512	1440	1497	1443
1399421914433428198	1514	1438	1497	1444
1399421914448484512	1515	1439	1497	1444
1399421914463469686	1514	1438	1497	1444
1399421914483219779	1522	1419	1497	1444
1399421914498249830	1523	1419	1497	1443
1399421914513512082	1522	1419	1497	1444
1399421914533536577	1528	1413	1497	1444
1399421914548463159	1527	1412	1497	1444
1399421914563430044	1528	1414	1496	1445
1399421914583281657	1530	1415	1496	1445
1399421914598561679	1530	1413	1496	1446
1399421914613428705	1532	1414	1496	1447
1399421914633459070	1528	1428	1496	1446
1399421914653303251	1530	1428	1496	1447
1399421914663194466	1529	1426	1496	1446
1399421914683355051	1519	1452	1496	1446
1399421914698309717	1520	1451	1496	1446
1399421914713247913	1520	1452	1496	1447
1399421914738278646	1514	1465	1496	1447
1399421914763253063	1515	1464	1496	1448
1399421914783291044	1512	1466	1496	1449
1399421914798268060	1515	1466	1496	1449
1399421914813225937	1514	1464	1496	1449
1399421914833315584	1514	1465	1496	1449
1399421914848331977	1514	1465	1496	1449
1399421914863346917	1516	1465	1496	1449
1399421914888295837	1518	1457	1496	1450
1399421914908281847	1519	1455	1496	1450
1399421914923323204	1526	1442	1496	1449
1399421914938230989	1526	1442	1496	1449
1399421914958269749	1528	1443	1496	1450
1399421914973281149	1534	1432	1496	1451
1399421914993269355	1536	1431	1495	1450
1399421915008299882	1537	1429	1495	1451
1399421915023293229	1540	1424	1495	1450
1399421915043273929	1540	1423	1495	1449
1399421915058348193	1541	1422	1495	1449
1399421915073348919	1541	1416	1495	1449
1399421915088283093	1543	1415	1495	1450
1399421915108363840	1544	1414	1495	1450
1399421915123279936	1541	1417	1495	1449
1399421915138244604	1540	1416	1495	1450
1399421915158340803	1541	1414	1495	1450
1399421915173265450	1529	1425	1495	1449
1399421915188269588	1528	1425	1495	1449
1399421915208303184	1529	1423	1495	1448
1399421915223342731	1526	1429	1495	1448
1399421915238290564	1527	1429	1495	1448
1399421915258292486	1528	1429	1495	1448
1399421915273326060	1521	1442	1495	1449
1399421915298262606	1520	1442	1495	1448
1399421915313335728	1520	1441	1495	1448
1399421915338280051	1517	1450	1495	1448
1399421915358280933	1515	1449	1495	1447
1399421915373294668	1514	1453	1495	1447
1399421915388251728	1516	1452	1495	1447
1399421915408274160	1516	1451	1495	1448
1399421915423359079	1518	1445	1495	1448
1399421915438229124	1517	1445	1495	1447
1399421915463269293	1517	1444	1495	1447
1399421915483304450	1532	1438	1495	1447
1399421915498296746	1530	1438	1495	1447
1399421915523316049	1535	1429	1495	1447
1399421915553306893	1534	1427	1495	1445
1399421915573283012	1536	1425	1495	1446
1399421915603321422	1537	1427	1495	1447
1399421915623365249	1537	1412	1495	1446
1399421915648348244	1535	1411	1495	1447
1399421915663284560	1534	1409	1495	1446
1399421915683251425	1534	1401	1495	1445
1399421915708288773	1534	1399	1494	1447
1399421915723353187	1531	1406	1494	1445
1399421915743276632	1529	1407	1494	1446
1399421915758328319	1529	1405	1494	1445
1399421915773269566	1525	1404	1494	1447
1399421915788238975	1525	1402	1494	1448
1399421915808283199	1525	1401	1494	1446
1399421915823295679	1515	1406	1494	1448
1399421915838251680	1514	1406	1494	1447
1399421915858321415	1513	1408	1494	1447
1399421915873330919	1512	1415	1494	1447
1399421915888282359	1513	1415	1494	1447
1399421915908310271	1511	1417	1494	1448
1399421915923277915	1511	1436	1494	1449
1399421915938291969	1511	1436	1494	1450
1399421915963242552	1509	1436	1493	1450
1399421915983277347	1509	1444	1493	1449
1399421915998235297	1510	1446	1493	1451
1399421916013270813	1509	1445	1493	1450
1399421916033270750	1515	1443	1493	1449
1399421916058460795	1514	1445	1493	1450
1399421916073297963	1518	1437	1493	1451
1399421916103308802	1518	1439	1493	1450
1399421916118280398	1529	1432	1493	1451
1399421916133242442	1530	1435	1493	1451
1399421916148189731	1529	1435	1492	1451
1399421916163296944	1530	1435	1492	1452
1399421916183316829	1533	1432	1492	1451
1399421916198290632	1535	1431	1492	1450
1399421916223309624	1533	1428	1492	1451
1399421916253426241	1533	1430	1492	1451
1399421916273289822	1534	1417	1492	1451
1399421916288237611	1533	1417	1492	1451
1399421916308247037	1534	1416	1492	1450
1399421916338233469	1530	1416	1492	1450
1399421916358280102	1528	1417	1492	1450
1399421916373343099	1521	1404	1492	1450
1399421916388320065	1521	1404	1492	1450
1399421916408331982	1521	1403	1492	1449
1399421916423306667	1513	1407	1492	1449
1399421916448309487	1513	1408	1492	1448
1399421916463259687	1513	1408	1492	1448
1399421916483294443	1507	1425	1492	1448
1399421916503339494	1506	1426	1492	1447
1399421916513259290	1505	1426	1492	1447
1399421916533299416	1507	1431	1492	1446
1399421916553295175	1507	1431	1492	1446
1399421916573301865	1504	1439	1492	1446
1399421916603337048	1504	1442	1492	1445
1399421916618318870	1510	1445	1492	1445
1399421916633317804	1511	1447	1492	1445
1399421916648366263	1511	1448	1492	1445
1399421916663333013	1511	1449	1492	1446
1399421916683284555	1517	1451	1492	1445
1399421916698325883	1520	1452	1492	1446
1399421916713270952	1519	1452	1492	1445
1399421916738297403	1521	1449	1492	1446
1399421916758304794	1522	1449	1492	1446
1399421916788313325	1527	1447	1492	1446
1399421916808311057	1528	1449	1492	1446
1399421916838327495	1526	1441	1492	1447
1399421916873244251	1532	1432	1492	1447
1399421916888279862	1532	1433	1492	1448
1399421916908527056	1532	1432	1492	1448
1399421916923588796	1527	1418	1492	1448
1399421916948425573	1528	1422	1492	1449
1399421916973490023	1520	1416	1492	1449
1399421916998494687	1520	1413	1492	1449
1399421917013493295	1519	1413	1492	1449
1399421917033546547	1515	1404	1492	1449
1399421917053474375	1515	1403	1491	1450
1399421917073578000	1507	1411	1491	1451
1399421917108554868	1505	1410	1491	1452
1399421917123301143	1502	1420	1491	1453
1399421917138323522	1502	1419	1491	1453
1399421917158544811	1502	1420	1491	1453
1399421917173478420	1501	1432	1491	1454
1399421917188480185	1502	1432	1491	1455
1399421917208495020	1501	1430	1491	1455
1399421917238347356	1506	1444	1491	1455
1399421917258496630	1504	1444	1491	1455
1399421917288613891	1510	1455	1491	1456
1399421917308561585	1510	1455	1491	1458
1399421917333627230	1507	1470	1491	1457
1399421917348557593	1508	1469	1491	1458
1399421917363595108	1509	1469	1491	1459
1399421917383527310	1510	1473	1491	1458
1399421917398496681	1511	1474	1491	1457
1399421917423364447	1523	1464	1491	1458
1399421917438431441	1524	1464	1491	1458
1399421917458484066	1524	1466	1491	1457
1399421917473455268	1531	1459	1491	1458
1399421917503502714	1532	1460	1491	1458
1399421917523465160	1536	1434	1491	1458
1399421917553337270	1536	1433	1491	1458
1399421917573330022	1537	1424	1491	1458
1399421917598308607	1538	1422	1491	1457
1399421917608256582	1538	1422	1491	1457
1399421917623282330	1530	1403	1491	1458
1399421917648420281	1530	1402	1491	1457
1399421917663375735	1530	1403	1491	1457
1399421917688374311	1527	1397	1491	1457
1399421917708279828	1528	1397	1491	1457
1399421917738317300	1530	1400	1491	1458
1399421917763295536	1530	1398	1491	1457
1399421917783314957	1526	1417	1490	1458
1399421917803301867	1526	1417	1490	1458
1399421917823338643	1520	1432	1490	1458
1399421917848336432	1521	1432	1490	1459
1399421917863511225	1520	1431	1490	1458
1399421917883610857	1515	1444	1490	1458
1399421917898527866	1516	1446	1490	1458
1399421917923547085	1511	1450	1490	1458
1399421917943572605	1512	1451	1490	1457
1399421917958564517	1513	1452	1490	1457
1399421917973424634	1524	1470	1490	1459
1399421917988458760	1525	1470	1490	1459
1399421918008421180	1523	1469	1489	1460
1399421918038361445	1526	1468	1489	1459
1399421918058326466	1525	1467	1489	1458
1399421918073307314	1532	1467	1489	1459
1399421918088245764	1532	1467	1489	1459
1399421918108282453	1534	1467	1489	1460
1399421918123295419	1529	1459	1489	1460
1399421918138223224	1530	1459	1489	1461
1399421918158227724	1530	1458	1489	1461
1399421918178276968	1532	1434	1489	1461
1399421918188320786	1534	1432	1489	1460
1399421918208277906	1534	1434	1489	1459
1399421918223301525	1534	1429	1489	1459
1399421918238364623	1536	1429	1489	1460
1399421918258328543	1536	1428	1488	1461
1399421918283328064	1539	1401	1488	1460
1399421918298288444	1537	1400	1488	1460
1399421918313287681	1539	1398	1488	1460
1399421918333366241	1538	1395	1488	1460
1399421918348273279	1538	1394	1488	1460
1399421918363244319	1538	1391	1488	1460
1399421918383294406	1537	1390	1488	1460
1399421918398294806	1538	1388	1488	1459
1399421918423326569	1538	1386	1488	1459
1399421918453408161	1539	1392	1488	1457
1399421918473240103	1532	1404	1488	1458
1399421918503332854	1533	1403	1488	1457
1399421918523325218	1535	1421	1489	1457
1399421918553302681	1536	1421	1489	1457
1399421918583259016	1539	1436	1489	1455
1399421918598325311	1542	1437	1489	1455
1399421918613317364	1541	1438	1489	1454
1399421918633313480	1543	1452	1489	1454
1399421918648204692	1543	1455	1489	1454
1399421918673234463	1543	1463	1489	1453
1399421918693300906	1543	1464	1489	1452
1399421918708281373	1544	1464	1489	1451
1399421918723393125	1536	1470	1489	1451
1399421918738322605	1536	1470	1490	1451
1399421918758353408	1534	1470	1490	1451
1399421918788334434	1529	1465	1490	1450
1399421918823461764	1526	1468	1490	1449
1399421918838569544	1521	1450	1490	1449
1399421918858453322	1521	1451	1490	1450
1399421918873624009	1520	1448	1490	1449
1399421918888450787	1519	1448	1490	1448
1399421918908454895	1518	1448	1490	1447
1399421918923583494	1523	1426	1490	1447
1399421918938550202	1522	1425	1490	1447
1399421918958509368	1521	1424	1490	1448
1399421918983599115	1522	1419	1490	1447
1399421918998288739	1522	1419	1490	1448
1399421919013394309	1522	1417	1490	1446
1399421919033359094	1521	1417	1490	1447
1399421919053591660	1525	1382	1490	1445
1399421919063595916	1526	1383	1490	1447
1399421919083493229	1531	1381	1490	1447
1399421919098287691	1531	1380	1490	1448
1399421919113312283	1531	1380	1490	1447
1399421919133352951	1548	1398	1490	1447
1399421919153578362	1549	1397	1490	1447
1399421919173605624	1550	1406	1490	1447
1399421919198571427	1550	1404	1490	1447
1399421919223288809	1550	1405	1490	1447
1399421919248593678	1553	1432	1490	1448
1399421919273775327	1554	1438	1490	1447
1399421919288676374	1553	1440	1490	1448
1399421919308591216	1553	1441	1490	1449
1399421919323611051	1546	1466	1490	1449
1399421919348779557	1545	1466	1490	1448
1399421919363562943	1545	1468	1490	1449
1399421919383643402	1535	1474	1490	1450
1399421919398505787	1533	1475	1490	1450
1399421919413274226	1532	1476	1490	1450
1399421919433378439	1509	1474	1490	1450
1399421919448470116	1509	1475	1490	1450
1399421919463385303	1509	1475	1489	1450
1399421919483299625	1504	1455	1489	1451
1399421919498254502	1504	1456	1489	1451
1399421919518283747	1506	1433	1489	1451
1399421919538218578	1504	1433	1489	1452
1399421919558260794	1503	1433	1489	1451
1399421919583317550	1505	1407	1489	1452
1399421919598258296	1506	1406	1489	1452
1399421919618313575	1504	1406	1489	1452
1399421919633306855	1519	1387	1489	1452
1399421919648326092	1519	1387	1489	1454
1399421919663241621	1519	1387	1489	1454
1399421919688308870	1543	1406	1488	1454
1399421919708284486	1543	1404	1488	1454
1399421919723272840	1548	1414	1488	1455
1399421919753271809	1547	1413	1488	1453
1399421919773319449	1535	1455	1488	1454
1399421919788263205	1534	1456	1488	1453
1399421919808332366	1534	1456	1488	1452
1399421919823315973	1534	1475	1488	1453
1399421919838266072	1535	1476	1488	1453
1399421919858321171	1536	1476	1488	1453
1399421919888287613	1516	1472	1488	1451
1399421919908328725	1517	1471	1488	1451
1399421919938304544	1509	1465	1488	1450
1399421919958500969	1510	1466	1488	1450
1399421919988630752	1500	1416	1488	1449
1399421920008681832	1501	1416	1488	1448
1399421920023596841	1501	1417	1488	1449
1399421920038359424	1499	1394	1488	1447
1399421920058551721	1499	1393	1487	1448
1399421920073559098	1509	1413	1487	1448
1399421920088429756	1509	1411	1487	1448
1399421920108556371	1509	1410	1487	1447
1399421920133520032	1508	1406	1487	1447
1399421920148435803	1508	1405	1487	1447
1399421920163470196	1508	1404	1487	1447
1399421920183567898	1515	1431	1487	1446
1399421920198561323	1514	1431	1487	1447
1399421920213265514	1514	1430	1487	1447
1399421920233476256	1520	1440	1487	1448
1399421920248596074	1520	1440	1487	1448
1399421920263409022	1520	1438	1487	1448
1399421920283538671	1521	1455	1487	1447
1399421920298551735	1520	1454	1487	1447
1399421920313551789	1519	1453	1487	1448
1399421920333464866	1513	1459	1487	1449
1399421920348466431	1512	1456	1487	1447
1399421920363550475	1513	1455	1487	1447
1399421920388273699	1509	1453	1487	1447
1399421920408491313	1509	1453	1487	1447
1399421920438556560	1495	1415	1487	1447
1399421920458424273	1495	1416	1487	1447
1399421920488503499	1497	1409	1486	1447
1399421920508431668	1497	1408	1486	1447
1399421920523485407	1507	1406	1486	1447
1399421920538444231	1510	1406	1486	1448
1399421920563567845	1508	1404	1486	1447
1399421920583368647	1504	1400	1486	1447
1399421920598564654	1505	1398	1486	1446
1399421920623540388	1503	1402	1486	1447
1399421920638508527	1502	1400	1486	1447
1399421920658492920	1503	1398	1486	1446
1399421920673505961	1502	1394	1486	1446
1399421920698508894	1503	1392	1486	1447
1399421920713381062	1503	1391	1486	1446
1399421920733587649	1503	1397	1486	1447
1399421920748566184	1503	1397	1486	1447
1399421920763382532	1503	1396	1486	1447
1399421920783515115	1509	1406	1486	1448
1399421920798488992	1510	1404	1486	1447
1399421920813266094	1509	1406	1486	1448
1399421920833448219	1513	1425	1486	1448
1399421920853632896	1515	1424	1486	1448
1399421920863268002	1516	1424	1486	1448
1399421920883507560	1521	1432	1486	1447
1399421920898523981	1522	1433	1486	1447
1399421920913484252	1521	1432	1486	1447
1399421920933597230	1522	1437	1486	1447
1399421920948470147	1522	1436	1486	1447
1399421920963467626	1524	1437	1486	1447
1399421920983569247	1524	1422	1486	1447
1399421921008630803	1525	1422	1486	1447
1399421921038534496	1524	1391	1486	1447
1399421921058487830	1526	1390	1486	1446
1399421921073513652	1523	1381	1486	1446
1399421921088590236	1522	1379	1486	1445
1399421921108489018	1523	1379	1486	1445
1399421921138520154	1524	1376	1486	1445
1399421921158539597	1524	1374	1486	1445
1399421921188548200	1518	1387	1486	1444
1399421921208523412	1519	1388	1486	1445
1399421921238328685	1516	1399	1486	1444
1399421921258317103	1518	1399	1486	1445
1399421921288260927	1517	1424	1486	1444
1399421921308389499	1518	1425	1486	1443
1399421921323360124	1522	1441	1486	1443
1399421921343328051	1524	1440	1486	1443
1399421921358316328	1525	1442	1486	1444
1399421921373254503	1535	1433	1486	1444
1399421921388560404	1535	1435	1486	1443
1399421921408585960	1535	1435	1486	1442
1399421921423588834	1538	1440	1486	1443
1399421921438571159	1541	1441	1486	1443
1399421921458492529	1538	1442	1486	1443
1399421921473530907	1542	1420	1486	1443
1399421921488481776	1541	1420	1486	1443
1399421921508529780	1541	1421	1486	1442
1399421921533639145	1537	1410	1486	1442
1399421921548490869	1539	1410	1486	1442
1399421921563540479	1536	1412	1486	1442
1399421921583516944	1535	1400	1486	1441
1399421921603519592	1534	1400	1486	1441
1399421921623312692	1534	1403	1486	1442
1399421921653542134	1524	1393	1486	1442
1399421921673536838	1518	1394	1486	1441
1399421921703526997	1517	1395	1486	1442
1399421921733609818	1514	1403	1486	1442
1399421921748335589	1512	1403	1485	1442
1399421921763582745	1512	1404	1485	1442
1399421921783538166	1514	1420	1485	1442
1399421921798255602	1512	1422	1485	1441
1399421921823579186	1519	1439	1485	1442
1399421921853535991	1519	1441	1485	1443
1399421921863547802	1518	1442	1485	1442
1399421921883513941	1527	1452	1485	1441
1399421921898480073	1527	1455	1485	1442
1399421921913375125	1526	1456	1485	1441
1399421921933513480	1539	1459	1485	1441
1399421921948572868	1540	1459	1485	1442
1399421921968587567	1545	1446	1485	1442
1399421921983601536	1544	1447	1485	1443
1399421921998589837	1543	1447	1485	1442
1399421922013297365	1543	1447	1485	1442
1399421922033496959	1539	1433	1485	1441
1399421922048489058	1537	1436	1485	1440
1399421922073507293	1535	1437	1485	1442
1399421922098517129	1534	1438	1485	1443
1399421922113502537	1534	1438	1484	1443
1399421922145058163	1528	1430	1484	1443
1399421922158479552	1527	1430	1484	1443
1399421922173540962	1525	1423	1484	1445
1399421922188547506	1524	1424	1484	1444
1399421922218642398	1519	1425	1484	1444
1399421922233497657	1518	1426	1484	1444
1399421922248576005	1518	1426	1484	1445
1399421922263301958	1518	1427	1484	1444
1399421922283395385	1512	1423	1484	1444
1399421922298511184	1511	1423	1484	1444
1399421922313563144	1511	1424	1484	1445
1399421922333444487	1508	1428	1484	1445
1399421922348541728	1507	1429	1484	1446
1399421922363499680	1507	1428	1484	1445
1399421922383329568	1510	1431	1484	1444
1399421922398443152	1509	1431	1484	1445
1399421922418401035	1520	1442	1484	1446
1399421922433497888	1519	1442	1484	1446
1399421922448527983	1519	1441	1483	1446
1399421922468589260	1519	1441	1483	1447
1399421922483416973	1522	1438	1483	1447
1399421922498586339	1521	1437	1483	1446
1399421922523544844	1525	1440	1483	1446
1399421922538483061	1525	1441	1483	1446
1399421922558544159	1525	1441	1483	1447
1399421922578613375	1526	1439	1483	1448
1399421922603554243	1525	1439	1483	1447
1399421922613414765	1525	1438	1483	1446
1399421922638472021	1522	1438	1483	1447
1399421922658531664	1522	1438	1483	1446
1399421922688397042	1519	1438	1483	1448
1399421922708523446	1518	1439	1483	1449
1399421922723296502	1519	1440	1483	1450
1399421922738550899	1519	1439	1483	1448
1399421922758399909	1518	1439	1483	1448
1399421922773552121	1510	1441	1483	1448
1399421922788317541	1509	1440	1483	1447
1399421922808576703	1510	1441	1483	1449
1399421922838479424	1507	1439	1483	1449
1399421922858467419	1508	1440	1483	1450
1399421922888514218	1511	1436	1482	1449
1399421922908509230	1511	1437	1482	1450
1399421922923621872	1517	1439	1482	1449
1399421922938510183	1517	1438	1482	1449
1399421922958462347	1517	1438	1482	1448
1399421922973480220	1523	1441	1482	1449
1399421922988246115	1523	1440	1482	1449
1399421923008592802	1523	1440	1482	1449
1399421923023484133	1522	1440	1482	1448
1399421923038414760	1522	1440	1482	1449
1399421923058451248	1523	1439	1482	1449
1399421923083529098	1523	1440	1482	1449
1399421923098625209	1523	1440	1482	1449
1399421923113468342	1524	1440	1482	1449
1399421923133523814	1519	1437	1482	1449
1399421923148420105	1520	1437	1482	1449
1399421923163436513	1520	1436	1482	1449
1399421923183203989	1515	1433	1482	1449
1399421923198443060	1515	1433	1482	1449
1399421923213505485	1515	1432	1482	1449
1399421923233467530	1511	1428	1482	1450
1399421923248558532	1511	1428	1482	1449
1399421923263521392	1511	1428	1482	1448
1399421923283459216	1507	1423	1482	1449
1399421923298451526	1507	1423	1482	1449
1399421923313515498	1507	1422	1482	1449
1399421923338496656	1509	1424	1482	1449
1399421923358578898	1509	1424	1482	1449
1399421923388542078	1509	1423	1483	1449
1399421923408514656	1511	1426	1483	1449
1399421923423595997	1512	1426	1483	1449
1399421923438683804	1512	1427	1483	1450
1399421923458562626	1513	1426	1483	1450
1399421923473513367	1513	1426	1483	1451
1399421923488496274	1524	1434	1483	1452
1399421923508477728	1524	1434	1483	1451
1399421923538508820	1529	1435	1482	1451
1399421923558522767	1530	1435	1482	1452
1399421923573395713	1530	1435	1482	1451
1399421923588618642	1529	1437	1482	1451
1399421923613463977	1529	1436	1482	1453
1399421923633592203	1528	1433	1482	1451
1399421923648535307	1529	1433	1482	1453
1399421923663588379	1530	1432	1482	1453
1399421923683585422	1529	1428	1482	1455
1399421923698392857	1530	1427	1482	1454
1399421923713312734	1530	1427	1482	1454
1399421923733382412	1528	1422	1482	1454
1399421923758540590	1529	1422	1482	1456
1399421923773627140	1529	1421	1482	1454
1399421923788523237	1527	1420	1482	1455
1399421923808674784	1526	1419	1482	1455
1399421923823618345	1519	1416	1482	1456
1399421923838436171	1519	1415	1482	1455
1399421923858565018	1520	1416	1482	1456
1399421923888551931	1518	1418	1482	1455
1399421923908300578	1519	1417	1482	1456
1399421923923491697	1518	1420	1482	1454
1399421923938494825	1518	1421	1482	1455
1399421923958542591	1519	1421	1482	1455
1399421923973398956	1519	1420	1482	1456
1399421923988382132	1525	1428	1482	1457
1399421924008540940	1524	1427	1482	1457
1399421924023429847	1527	1435	1482	1456
1399421924048457450	1528	1434	1482	1456
1399421924063523530	1528	1434	1482	1455
1399421924083601816	1530	1438	1482	1456
1399421924103517346	1530	1437	1482	1456
1399421924123587581	1533	1437	1482	1456
1399421924153464246	1533	1436	1482	1455
1399421924163462899	1533	1436	1482	1454
1399421924183629028	1533	1436	1482	1454
1399421924198537006	1527	1430	1481	1454
1399421924213437805	1528	1431	1481	1454
1399421924233445006	1529	1425	1481	1454
1399421924248535746	1529	1425	1481	1454
1399421924273566440	1527	1416	1481	1453
1399421924298556570	1527	1416	1481	1453
1399421924313462017	1527	1415	1481	1452
1399421924333538746	1528	1407	1481	1452
1399421924348582151	1529	1407	1481	1452
1399421924363519460	1529	1407	1481	1453
1399421924383264010	1527	1402	1481	1453
1399421924398543106	1527	1402	1481	1453
1399421924413383585	1527	1401	1481	1452
1399421924433503469	1527	1405	1481	1452
1399421924448497873	1527	1404	1481	1451
1399421924463446071	1527	1405	1481	1452
1399421924483510979	1528	1410	1481	1452
1399421924498437347	1527	1410	1481	1452
1399421924513492723	1527	1410	1481	1452
1399421924533441322	1523	1415	1480	1452
1399421924548426657	1523	1415	1480	1451
1399421924563496969	1523	1415	1480	1451
1399421924583599641	1522	1426	1480	1451
1399421924598222870	1521	1426	1480	1451
1399421924618221387	1524	1428	1480	1451
1399421924633352658	1524	1428	1480	1452
1399421924648514331	1524	1428	1480	1451
1399421924663535382	1524	1428	1480	1451
1399421924683471463	1528	1433	1480	1451
1399421924698514795	1527	1433	1480	1451
1399421924713632270	1526	1433	1480	1450
1399421924738413609	1529	1434	1480	1451
1399421924758641916	1528	1435	1480	1450
1399421924773344339	1528	1435	1480	1450
1399421924803340412	1529	1437	1480	1449
1399421924823348299	1527	1434	1480	1450
1399421924853223385	1527	1435	1480	1449
1399421924868334855	1528	1435	1480	1449
1399421924883234971	1529	1435	1480	1449
1399421924898271245	1528	1436	1480	1449
1399421924918283196	1527	1436	1480	1448
1399421924933554214	1529	1427	1480	1449
1399421924948341923	1529	1427	1480	1449
1399421924973636116	1528	1428	1480	1448
1399421924988527015	1533	1415	1480	1449
1399421925008567089	1533	1415	1480	1449
1399421925023614378	1534	1407	1480	1450
1399421925038464833	1534	1406	1480	1449
1399421925058544565	1533	1406	1480	1447
1399421925073499627	1529	1404	1480	1447
1399421925088490208	1529	1405	1480	1448
1399421925108516739	1529	1405	1480	1448
1399421925123521233	1527	1402	1480	1450
1399421925153510077	1526	1402	1480	1449
1399421925183545889	1525	1408	1480	1449
1399421925198405638	1525	1409	1480	1451
1399421925213398480	1524	1408	1480	1449
1399421925233521483	1529	1418	1480	1449
1399421925248545766	1528	1418	1480	1449
1399421925263460189	1528	1418	1480	1449
1399421925283350028	1527	1424	1480	1450
1399421925298473502	1526	1425	1480	1451
1399421925313512197	1526	1424	1480	1449
1399421925333542280	1525	1427	1480	1450
1399421925348532060	1524	1428	1480	1449
1399421925363525533	1525	1428	1480	1448
1399421925383652425	1525	1428	1480	1450
1399421925398562741	1524	1427	1480	1449
1399421925423368054	1518	1434	1480	1448
1399421925438575157	1518	1434	1480	1449
1399421925458522191	1517	1435	1480	1450
1399421925488469297	1518	1434	1480	1449
1399421925508474698	1517	1433	1480	1448
1399421925523401653	1519	1436	1480	1448
1399421925553491363	1519	1436	1480	1449
1399421925573367301	1521	1437	1480	1447
1399421925588440717	1521	1437	1480	1448
1399421925608467949	1520	1437	1480	1448
1399421925623392578	1524	1434	1480	1449
1399421925638322610	1523	1434	1480	1448
1399421925658429267	1523	1434	1480	1448
1399421925673419616	1520	1420	1480	1448
1399421925688608535	1521	1421	1480	1448
1399421925708340145	1519	1420	1480	1447
1399421925733314840	1519	1414	1480	1448
1399421925748304522	1519	1413	1480	1447
1399421925773409872	1515	1412	1480	1448
1399421925803371014	1515	1412	1480	1446
1399421925823299097	1510	1412	1480	1447
1399421925853304109	1510	1412	1480	1448
1399421925863304719	1510	1412	1480	1448
1399421925883295754	1512	1414	1480	1447
1399421925898278989	1512	1414	1480	1446
1399421925913263132	1511	1414	1480	1446
1399421925933282103	1511	1424	1480	1447
1399421925948262247	1510	1424	1480	1447
1399421925963249726	1510	1426	1480	1449
1399421925983350405	1509	1438	1480	1448
1399421925998312905	1508	1438	1480	1448
1399421926013253981	1508	1438	1480	1447
1399421926038291702	1509	1443	1480	1447
1399421926058253679	1508	1444	1480	1448
1399421926073276115	1500	1451	1480	1447
1399421926088271047	1500	1452	1480	1447
1399421926108358149	1500	1453	1480	1447
1399421926123301357	1498	1450	1480	1447
1399421926138293834	1498	1450	1480	1447
1399421926163314321	1497	1451	1480	1447
1399421926183277097	1503	1452	1480	1447
1399421926198281317	1503	1452	1480	1448
1399421926213442836	1503	1453	1480	1448
1399421926238565885	1508	1444	1480	1447
1399421926258432164	1508	1445	1480	1449
1399421926288541409	1516	1436	1480	1448
1399421926308481443	1516	1435	1479	1448
1399421926338363364	1517	1419	1479	1448
1399421926358373644	1518	1419	1479	1449
1399421926373349157	1514	1411	1479	1448
1399421926398558869	1515	1411	1479	1449
1399421926413514384	1514	1410	1479	1447
1399421926433513237	1512	1414	1479	1448
1399421926453512013	1512	1413	1479	1448
1399421926473471824	1510	1411	1479	1448
1399421926498457923	1511	1411	1479	1449
1399421926523497739	1508	1421	1478	1449
1399421926553399991	1508	1421	1478	1448
1399421926573519935	1503	1436	1478	1449
1399421926588520235	1504	1435	1478	1449
1399421926608529422	1504	1435	1478	1449
1399421926623588135	1498	1455	1478	1449
1399421926638405765	1498	1456	1478	1450
1399421926658562209	1498	1455	1478	1450
1399421926678539616	1505	1453	1478	1450
1399421926688488819	1505	1453	1478	1451
1399421926708426066	1506	1453	1478	1452
1399421926723528979	1511	1450	1478	1452
1399421926738471580	1511	1450	1478	1452
1399421926758244616	1511	1449	1478	1451
1399421926773528105	1511	1449	1478	1452
1399421926788379475	1512	1444	1478	1452
1399421926808431762	1512	1444	1478	1452
1399421926823500766	1507	1426	1478	1452
1399421926838487948	1508	1426	1478	1453
1399421926868304924	1506	1419	1478	1453
1399421926883270588	1506	1418	1478	1453
1399421926898230106	1506	1418	1478	1453
1399421926913294777	1507	1418	1478	1453
1399421926933308264	1504	1410	1478	1453
1399421926948293105	1504	1411	1478	1454
1399421926963278664	1504	1411	1478	1455
1399421926983308704	1505	1418	1478	1455
1399421926998270181	1505	1418	1478	1455
1399421927013264203	1505	1417	1478	1454
1399421927033329330	1511	1441	1478	1453
1399421927053315591	1512	1442	1478	1454
1399421927073365986	1512	1456	1478	1454
1399421927103327659	1513	1456	1478	1455
1399421927113307674	1514	1456	1478	1455
1399421927133289122	1517	1460	1478	1453
1399421927158304755	1518	1461	1478	1455
1399421927173304317	1520	1445	1478	1454
1399421927198263123	1520	1445	1478	1453
1399421927223334040	1514	1421	1478	1453
1399421927258341386	1515	1421	1478	1453
1399421927273325097	1511	1409	1478	1451
1399421927288291335	1512	1409	1477	1452
1399421927308287783	1512	1409	1478	1452
1399421927323344921	1512	1401	1477	1452
1399421927338465740	1513	1400	1477	1452
1399421927358472721	1514	1400	1477	1451
1399421927383562916	1511	1411	1477	1451
1399421927398362858	1513	1410	1477	1451
1399421927423536791	1519	1418	1477	1451
1399421927438506918	1520	1418	1477	1451
1399421927458482708	1519	1417	1477	1450
1399421927473556953	1524	1433	1477	1451
1399421927488493343	1525	1433	1477	1450
1399421927508547203	1525	1432	1477	1449
1399421927533548073	1525	1440	1477	1448
1399421927548507945	1526	1440	1477	1449
1399421927563460385	1525	1439	1477	1448
1399421927583485015	1519	1451	1477	1448
1399421927598515573	1520	1450	1477	1448
1399421927613545789	1520	1451	1477	1448
1399421927633521957	1518	1453	1477	1448
1399421927653547048	1519	1452	1477	1447
1399421927663372098	1518	1453	1477	1446
1399421927683463126	1524	1426	1477	1445
1399421927698604113	1524	1427	1477	1446
1399421927713490874	1525	1427	1477	1447
1399421927733589731	1527	1423	1477	1447
1399421927758490506	1527	1422	1477	1446
1399421927773507635	1533	1404	1477	1446
1399421927803655073	1533	1403	1477	1445
1399421927813507218	1533	1403	1477	1445
1399421927833548935	1534	1394	1477	1446
1399421927858460357	1535	1392	1477	1446
1399421927873507237	1535	1394	1477	1445
1399421927888481025	1535	1394	1477	1446
1399421927913563812	1536	1394	1477	1447
1399421927933597901	1531	1400	1477	1446
1399421927948387455	1532	1399	1477	1446
1399421927973496900	1532	1411	1477	1446
1399421928008575884	1532	1411	1476	1447
1399421928023404279	1530	1433	1476	1448
1399421928038604789	1530	1431	1476	1447
1399421928058513600	1530	1431	1476	1447
1399421928073579832	1532	1436	1476	1447
1399421928088602350	1533	1435	1476	1446
1399421928108582693	1534	1435	1476	1445
1399421928123729076	1535	1427	1476	1446
1399421928148364806	1535	1427	1476	1447
1399421928163274660	1535	1428	1476	1446
1399421928183281658	1534	1422	1476	1445
1399421928198241673	1534	1423	1476	1446
1399421928213292386	1534	1422	1476	1446
1399421928238367522	1530	1422	1476	1446
1399421928258286346	1530	1422	1476	1446
1399421928288291092	1533	1419	1476	1445
1399421928308210197	1533	1418	1477	1446
1399421928323316509	1533	1419	1477	1446
1399421928338282299	1540	1403	1477	1446
1399421928358271118	1539	1404	1477	1447
1399421928373272255	1537	1401	1477	1447
1399421928388245539	1537	1402	1477	1448
1399421928408236410	1537	1401	1477	1446
1399421928438310684	1536	1402	1477	1447
1399421928458473316	1536	1402	1477	1448
1399421928473583016	1530	1411	1477	1448
1399421928503534877	1532	1411	1477	1447
1399421928513446597	1531	1412	1477	1449
1399421928533313551	1530	1412	1477	1449
1399421928553584449	1532	1422	1477	1448
1399421928563314370	1532	1422	1477	1448
1399421928583277207	1530	1424	1477	1449
1399421928598527202	1530	1424	1477	1449
1399421928613433996	1530	1424	1477	1450
1399421928638306526	1535	1434	1477	1449
1399421928663301596	1534	1434	1477	1449
1399421928683392270	1536	1434	1478	1449
1399421928703287361	1535	1435	1478	1450
