#Time	 Roll 	 Pitch 	 Yaw 	 Thrust
1399090796625411831	1520	1516	1926	1105
1399090796725602059	1520	1516	1926	1105
1399090796825808001	1520	1516	1513	1105
1399090809941883216	1509	1527	1514	1378
1399090809951788585	1509	1526	1514	1378
1399090809971870413	1508	1527	1514	1378
1399090809976796499	1508	1526	1514	1378
1399090809981790729	1507	1527	1514	1378
1399090809991803365	1508	1527	1514	1378
1399090810001817883	1507	1526	1514	1378
1399090810006805635	1508	1526	1514	1378
1399090810016810358	1508	1527	1514	1379
1399090810026861633	1508	1526	1514	1378
1399090810031853076	1508	1527	1514	1378
1399090810051802899	1508	1526	1514	1378
1399090810061888973	1508	1527	1514	1378
1399090810076968606	1508	1527	1514	1378
1399090810081846161	1508	1527	1514	1378
1399090810096852630	1508	1526	1514	1378
1399090810111938065	1508	1526	1514	1378
1399090810116898387	1508	1526	1514	1378
1399090810126764363	1508	1526	1514	1378
1399090810141823783	1508	1526	1514	1378
1399090810151831601	1509	1526	1514	1378
1399090810156861390	1508	1526	1514	1378
1399090810166903430	1508	1527	1514	1378
1399090810176826090	1508	1527	1514	1378
1399090810181878924	1508	1526	1514	1378
1399090810191896524	1508	1526	1514	1378
1399090810211981937	1508	1527	1514	1378
1399090810216887818	1508	1527	1514	1378
1399090810226915054	1509	1527	1514	1378
1399090810231845069	1508	1526	1514	1378
1399090810241881491	1509	1526	1514	1378
1399090810251814855	1508	1526	1514	1378
1399090810261789550	1508	1527	1514	1378
1399090810266737418	1509	1525	1514	1378
1399090810276794620	1508	1527	1514	1379
1399090810281790134	1509	1527	1514	1378
1399090810291909418	1508	1527	1514	1378
1399090810301857449	1509	1527	1514	1378
1399090810311790948	1509	1526	1514	1378
1399090810316834642	1508	1527	1514	1378
1399090810331851676	1509	1527	1514	1378
1399090810341857313	1509	1526	1514	1378
1399090810361800594	1509	1527	1514	1378
1399090810366844604	1509	1527	1514	1378
1399090810376879367	1508	1526	1514	1378
1399090810391845484	1508	1526	1514	1378
1399090810411838407	1508	1526	1514	1378
1399090810416821931	1509	1525	1514	1377
1399090810431875977	1508	1526	1514	1378
1399090810442090318	1508	1526	1514	1434
1399090810452117238	1508	1526	1514	1427
1399090810462135124	1509	1526	1514	1427
1399090810467092978	1508	1526	1514	1427
1399090810477064093	1508	1526	1514	1428
1399090810487055683	1508	1526	1514	1427
1399090810492038197	1507	1526	1514	1427
1399090810502107104	1508	1526	1514	1428
1399090810512116538	1508	1526	1514	1428
1399090810517076085	1508	1526	1514	1428
1399090810526888308	1508	1525	1514	1428
1399090810531816385	1509	1525	1514	1428
1399090810542043251	1509	1525	1514	1428
1399090810552021785	1508	1526	1514	1428
1399090810561927686	1509	1525	1514	1428
1399090810567005183	1508	1526	1514	1428
1399090810577049630	1508	1527	1514	1429
1399090810592093940	1508	1526	1514	1429
1399090810611864228	1508	1526	1514	1429
1399090810626882598	1508	1526	1514	1429
1399090810641863241	1508	1526	1514	1429
1399090810661803358	1508	1526	1514	1429
1399090810666810044	1508	1527	1514	1429
1399090810676817964	1509	1525	1514	1429
1399090810681750576	1508	1527	1514	1429
1399090810706960410	1509	1526	1514	1429
1399090810711867581	1508	1524	1514	1429
1399090810716846895	1509	1527	1514	1430
1399090810726940352	1509	1523	1514	1429
1399090810731853730	1509	1526	1514	1430
1399090810751873993	1509	1524	1514	1429
1399090810761881915	1509	1523	1514	1429
1399090810767023893	1508	1524	1514	1430
1399090810777092038	1507	1522	1514	1429
1399090810781938045	1507	1522	1514	1430
1399090810796950623	1508	1522	1514	1429
1399090810812039486	1507	1522	1514	1430
1399090810826843862	1507	1522	1514	1430
1399090810842101764	1508	1521	1514	1430
1399090810852080590	1510	1522	1514	1429
1399090810862067363	1509	1522	1514	1429
1399090810877058588	1511	1522	1514	1429
1399090810892091533	1514	1520	1514	1429
1399090810912151760	1515	1520	1514	1429
1399090810917056129	1515	1519	1514	1429
1399090810926868884	1522	1517	1514	1429
1399090810931833679	1519	1517	1514	1429
1399090810941875386	1521	1516	1514	1429
1399090810956853895	1519	1516	1514	1429
1399090810961816342	1520	1515	1514	1430
1399090810966812776	1519	1515	1514	1428
1399090810976856516	1522	1510	1514	1429
1399090810981805949	1521	1510	1514	1429
1399090810991831944	1520	1509	1514	1429
1399090811001791812	1522	1509	1514	1429
1399090811011778383	1520	1508	1514	1429
1399090811016812139	1521	1507	1514	1429
1399090811031836763	1523	1501	1514	1428
1399090811041852298	1525	1499	1514	1428
1399090811061858273	1525	1499	1514	1428
1399090811076868840	1522	1492	1514	1428
1399090811082066558	1521	1491	1514	1428
1399090811097140550	1523	1491	1514	1428
1399090811112079023	1521	1490	1514	1428
1399090811117111778	1522	1491	1514	1428
1399090811127107444	1521	1490	1514	1428
1399090811132001098	1523	1484	1514	1428
1399090811142009583	1523	1483	1514	1429
1399090811152037409	1523	1483	1514	1429
1399090811156914629	1524	1483	1514	1428
1399090811166997637	1523	1483	1514	1429
1399090811176915057	1525	1479	1514	1428
1399090811187052599	1525	1479	1514	1429
1399090811192088654	1526	1479	1514	1429
1399090811202102936	1527	1480	1514	1429
1399090811207085190	1526	1478	1514	1429
1399090811227055500	1528	1479	1514	1429
1399090811242063385	1529	1478	1514	1429
1399090811252135108	1528	1478	1514	1429
1399090811267075553	1528	1478	1514	1429
1399090811277084323	1527	1477	1514	1429
1399090811292109139	1525	1475	1514	1429
1399090811311948942	1525	1474	1514	1429
1399090811317047427	1525	1473	1514	1428
1399090811327093709	1520	1475	1514	1429
1399090811342030814	1521	1473	1514	1428
1399090811361875847	1520	1474	1514	1428
1399090811367046132	1520	1473	1514	1428
1399090811377083508	1520	1474	1514	1428
1399090811382010471	1518	1473	1514	1428
1399090811392100112	1520	1471	1514	1427
1399090811402007091	1518	1470	1514	1427
1399090811407039675	1518	1472	1514	1428
1399090811427027585	1517	1473	1514	1428
1399090811431999853	1518	1474	1514	1428
1399090811452122494	1517	1472	1514	1428
1399090811462031177	1517	1470	1514	1426
1399090811477150131	1517	1478	1514	1427
1399090811482099052	1517	1478	1514	1428
1399090811502200746	1517	1477	1514	1427
1399090811512115219	1517	1475	1514	1426
1399090811527093381	1520	1479	1514	1427
1399090811533245845	1521	1479	1514	1426
1399090811542033410	1521	1480	1514	1427
1399090811562104677	1521	1478	1514	1426
1399090811567054413	1520	1477	1514	1425
1399090811577007581	1521	1474	1514	1427
1399090811592088377	1521	1472	1514	1426
1399090811602055563	1520	1472	1514	1426
1399090811612013040	1521	1471	1514	1425
1399090811616944679	1520	1470	1514	1426
1399090811626972525	1515	1474	1514	1425
1399090811632036935	1514	1473	1514	1427
1399090811641972663	1515	1473	1514	1426
1399090811662064001	1515	1470	1514	1426
1399090811667139852	1515	1470	1514	1426
1399090811686945568	1515	1464	1514	1427
1399090811691826252	1515	1462	1514	1427
1399090811701912904	1516	1462	1514	1425
1399090811711892580	1516	1461	1514	1426
1399090811717004667	1515	1464	1514	1427
1399090811736814540	1515	1461	1514	1427
1399090811742000218	1515	1461	1514	1426
1399090811751958080	1516	1463	1514	1428
1399090811761974366	1516	1461	1514	1426
1399090811766943420	1515	1462	1514	1428
1399090811777020732	1515	1462	1514	1427
1399090811782046000	1515	1460	1514	1426
1399090811797042602	1519	1466	1514	1427
1399090811812002455	1519	1468	1514	1427
1399090811816987414	1518	1467	1514	1427
1399090811827045242	1522	1468	1514	1428
1399090811831960563	1523	1470	1514	1428
1399090811841848206	1522	1468	1514	1428
1399090811851994561	1522	1469	1514	1428
1399090811856994949	1521	1467	1514	1427
1399090811877012259	1522	1467	1514	1427
1399090811892176047	1519	1475	1514	1428
1399090811902081173	1517	1474	1514	1428
1399090811911991930	1519	1474	1514	1427
1399090811917158152	1518	1472	1514	1426
1399090811927013075	1515	1479	1514	1428
1399090811932024348	1515	1478	1514	1428
1399090811941994477	1516	1478	1514	1427
1399090811951960123	1515	1479	1514	1427
1399090811956922130	1515	1478	1514	1428
1399090811966901069	1515	1478	1514	1427
1399090811977028830	1512	1480	1514	1429
1399090811981970092	1511	1480	1514	1427
1399090811991806877	1514	1478	1514	1427
1399090812001952433	1512	1482	1514	1428
1399090812012062447	1512	1479	1514	1427
1399090812017006827	1511	1481	1514	1429
1399090812032059885	1510	1479	1514	1427
1399090812041998890	1510	1480	1514	1429
1399090812062049866	1510	1481	1514	1428
1399090812066937705	1510	1481	1514	1429
1399090812076967510	1508	1482	1514	1429
1399090812091966203	1505	1481	1514	1429
1399090812112047515	1505	1481	1514	1429
1399090812116964865	1505	1483	1514	1430
1399090812127026224	1505	1479	1514	1430
1399090812132028969	1503	1479	1514	1430
1399090812141803674	1504	1479	1514	1430
1399090812151960365	1501	1477	1514	1429
1399090812162092021	1503	1479	1514	1430
1399090812166984162	1502	1478	1514	1430
1399090812176988280	1504	1479	1514	1431
1399090812181992362	1502	1480	1514	1431
1399090812191920923	1501	1478	1514	1431
1399090812212107547	1500	1475	1514	1431
1399090812222078422	1500	1475	1514	1431
1399090812227094899	1505	1474	1514	1432
1399090812232144649	1504	1476	1514	1433
1399090812241945945	1505	1474	1514	1432
1399090812252023010	1503	1475	1514	1433
1399090812261966883	1504	1474	1514	1432
1399090812267027016	1502	1474	1514	1432
1399090812277072222	1502	1474	1514	1433
1399090812292080865	1503	1471	1514	1433
1399090812302016005	1504	1472	1514	1433
1399090812312039653	1504	1473	1514	1435
1399090812327076925	1503	1473	1514	1434
1399090812332018466	1504	1473	1514	1434
1399090812342061911	1504	1471	1514	1434
1399090812352037756	1504	1473	1514	1435
1399090812356810745	1503	1473	1514	1434
1399090812366988599	1503	1475	1514	1436
1399090812377091662	1507	1478	1514	1435
1399090812392014671	1507	1477	1514	1435
1399090812402095068	1507	1476	1514	1436
1399090812412070622	1505	1478	1514	1436
1399090812417019112	1507	1476	1514	1435
1399090812426966829	1507	1480	1514	1436
1399090812432032318	1506	1479	1514	1436
1399090812442035972	1508	1480	1514	1437
1399090812452068381	1508	1479	1514	1436
1399090812462020731	1507	1479	1514	1436
1399090812467095907	1506	1477	1514	1436
1399090812477069526	1507	1478	1514	1436
1399090812481853068	1506	1478	1514	1436
1399090812497018475	1512	1480	1514	1436
1399090812512019275	1512	1480	1514	1436
1399090812516850211	1512	1480	1514	1437
1399090812526761616	1513	1479	1514	1437
1399090812532157116	1514	1479	1514	1437
1399090812542158287	1513	1478	1514	1436
1399090812562162842	1513	1478	1514	1437
1399090812567138363	1512	1479	1514	1438
1399090812577045169	1516	1478	1514	1437
1399090812592027069	1516	1478	1514	1437
1399090812601745399	1517	1479	1514	1437
1399090812611763589	1517	1479	1514	1438
1399090812616975565	1518	1479	1514	1437
1399090812626806521	1515	1475	1514	1438
1399090812642138465	1515	1475	1514	1437
1399090812651758815	1517	1476	1514	1437
1399090812661775399	1516	1474	1514	1437
1399090812667040114	1517	1475	1514	1437
1399090812676874869	1517	1474	1514	1437
1399090812687089292	1513	1477	1514	1438
1399090812691934831	1513	1478	1514	1438
1399090812702064237	1513	1476	1514	1438
1399090812712045087	1513	1478	1514	1438
1399090812716984666	1514	1476	1514	1438
1399090812731753690	1514	1476	1514	1438
1399090812742017928	1514	1477	1514	1439
1399090812752074857	1514	1476	1514	1438
1399090812762044108	1514	1477	1514	1439
1399090812767001113	1514	1477	1514	1438
1399090812782033064	1511	1475	1514	1439
1399090812792073409	1510	1475	1514	1438
1399090812802021938	1511	1476	1514	1439
1399090812812086686	1512	1476	1514	1438
1399090812816973187	1512	1476	1514	1439
1399090812827026453	1511	1478	1514	1439
1399090812842180325	1512	1479	1514	1439
1399090812852056331	1512	1479	1514	1439
1399090812862042968	1513	1479	1514	1439
1399090812876914200	1512	1479	1514	1439
1399090812881807697	1511	1481	1514	1439
1399090812891844973	1511	1483	1514	1439
1399090812902033498	1511	1482	1514	1439
1399090812907015463	1511	1482	1514	1439
1399090812921996211	1511	1483	1514	1439
1399090812927052356	1510	1484	1514	1440
1399090812931998366	1510	1486	1514	1439
1399090812942083118	1510	1484	1514	1439
1399090812952048162	1510	1486	1514	1440
1399090812961926126	1510	1485	1514	1439
1399090812967067156	1510	1486	1514	1440
1399090812976952730	1510	1485	1514	1438
1399090812982015172	1512	1486	1514	1440
1399090812992023096	1510	1486	1514	1439
1399090813002048592	1511	1486	1514	1439
1399090813012046393	1510	1487	1514	1439
1399090813027062109	1511	1484	1514	1439
1399090813031812876	1511	1484	1514	1438
1399090813041959765	1511	1485	1514	1439
1399090813052129894	1511	1485	1514	1439
1399090813062048990	1512	1485	1514	1439
1399090813077079779	1511	1485	1514	1439
1399090813082264232	1508	1484	1514	1439
1399090813092177265	1507	1484	1514	1438
1399090813102037822	1507	1485	1514	1438
1399090813112058557	1507	1485	1514	1439
1399090813116990517	1507	1486	1514	1439
1399090813127035021	1508	1485	1514	1439
1399090813132094466	1509	1487	1514	1439
1399090813142046256	1508	1485	1514	1439
1399090813152016707	1509	1487	1514	1439
1399090813162006654	1509	1486	1514	1439
1399090813167151065	1509	1487	1514	1439
1399090813177066463	1513	1486	1514	1438
1399090813182007507	1513	1486	1514	1439
1399090813192042237	1513	1486	1514	1439
1399090813202115709	1513	1486	1514	1439
1399090813212153598	1513	1487	1514	1440
1399090813216990308	1514	1486	1514	1439
1399090813226989628	1512	1485	1514	1439
1399090813232077593	1514	1485	1514	1439
1399090813247078058	1513	1484	1514	1439
1399090813262001018	1514	1484	1514	1439
1399090813276979014	1514	1485	1514	1440
1399090813281940832	1513	1482	1514	1440
1399090813292072236	1514	1484	1514	1440
1399090813312083498	1514	1483	1514	1440
1399090813316842701	1514	1482	1514	1439
1399090813327067850	1516	1481	1514	1440
1399090813332128130	1515	1480	1514	1439
1399090813342048414	1516	1481	1514	1440
1399090813352009233	1515	1481	1514	1440
1399090813357039147	1516	1480	1514	1440
1399090813367053480	1516	1482	1514	1440
1399090813377139432	1516	1482	1514	1440
1399090813387069368	1515	1481	1514	1441
1399090813392071330	1515	1482	1514	1441
1399090813402040015	1516	1482	1514	1441
1399090813411873903	1515	1482	1514	1441
1399090813417042102	1516	1482	1514	1442
1399090813427085416	1515	1481	1514	1441
1399090813432079189	1513	1484	1514	1442
1399090813442109748	1513	1483	1514	1442
1399090813452027580	1512	1483	1514	1441
1399090813461884134	1514	1483	1514	1442
1399090813466975121	1513	1483	1514	1442
1399090813482092267	1512	1483	1514	1442
1399090813492046690	1513	1483	1514	1442
1399090813502045154	1513	1483	1514	1442
1399090813511833091	1512	1484	1514	1441
1399090813516997175	1513	1482	1514	1442
1399090813526867429	1512	1484	1514	1442
1399090813542071074	1509	1484	1514	1443
1399090813552046637	1508	1484	1514	1443
1399090813561802899	1509	1484	1514	1443
1399090813577174904	1508	1486	1514	1443
1399090813592176209	1507	1486	1514	1444
1399090813602068690	1507	1486	1514	1444
1399090813612032524	1507	1486	1514	1444
1399090813617069088	1508	1487	1514	1444
1399090813632031452	1507	1487	1514	1444
1399090813647012283	1507	1487	1514	1444
1399090813652026980	1506	1489	1514	1445
1399090813657007506	1506	1488	1514	1444
1399090813667186438	1507	1488	1514	1445
1399090813677022585	1506	1489	1514	1444
1399090813681919878	1507	1488	1514	1445
1399090813691868880	1507	1490	1514	1444
1399090813702006013	1506	1488	1514	1445
1399090813717037074	1507	1490	1514	1445
1399090813727018913	1506	1489	1514	1445
1399090813731963315	1506	1489	1514	1444
1399090813741837081	1508	1489	1514	1446
1399090813762005347	1507	1489	1514	1445
1399090813777086725	1507	1489	1514	1445
1399090813782048506	1508	1489	1514	1446
1399090813791883722	1507	1489	1514	1445
1399090813812027266	1507	1489	1514	1445
1399090813817095547	1508	1489	1514	1446
1399090813827173971	1510	1488	1514	1445
1399090813842064490	1511	1488	1514	1445
1399090813852263978	1511	1488	1514	1445
1399090813862070281	1511	1488	1514	1445
1399090813866735903	1510	1488	1514	1445
1399090813876985743	1514	1488	1514	1445
1399090813881982821	1511	1487	1514	1445
1399090813892092651	1513	1488	1514	1445
1399090813902070599	1512	1488	1514	1445
1399090813912107964	1513	1488	1514	1445
1399090813916896731	1512	1487	1514	1445
1399090813927075199	1514	1487	1514	1445
1399090813931975958	1515	1487	1514	1445
1399090813942008028	1515	1487	1514	1445
1399090813951917735	1515	1487	1514	1445
1399090813962157560	1515	1487	1514	1445
1399090813967104463	1515	1487	1514	1445
1399090813982089096	1513	1484	1514	1445
1399090813992077383	1513	1484	1514	1445
1399090814012048262	1514	1485	1514	1445
1399090814017006553	1515	1485	1514	1443
1399090814026926994	1514	1485	1514	1445
1399090814041885356	1516	1483	1514	1444
1399090814062158054	1516	1483	1514	1444
1399090814077029894	1516	1483	1514	1444
1399090814082012221	1516	1484	1514	1444
1399090814092108253	1517	1485	1514	1444
1399090814102032335	1518	1483	1514	1443
1399090814111744459	1518	1484	1514	1444
1399090814117037333	1518	1483	1514	1443
1399090814127072957	1519	1484	1514	1444
1399090814136992532	1519	1484	1514	1443
1399090814141978079	1519	1484	1514	1443
1399090814152104358	1519	1485	1514	1444
1399090814162037430	1519	1484	1514	1443
1399090814167051238	1520	1485	1514	1443
1399090814177068094	1519	1487	1514	1442
1399090814182083980	1519	1487	1514	1442
1399090814192165648	1519	1487	1514	1442
1399090814201952790	1519	1488	1514	1443
1399090814212133783	1518	1488	1514	1443
1399090814226857658	1516	1492	1514	1443
1399090814242073828	1517	1492	1514	1442
1399090814251866632	1517	1492	1514	1441
1399090814262051408	1518	1494	1514	1443
1399090814277081657	1512	1498	1514	1442
1399090814282089866	1512	1498	1514	1442
1399090814292003631	1513	1498	1514	1442
1399090814312043890	1513	1499	1514	1441
1399090814317101085	1512	1499	1514	1441
1399090814327166745	1508	1501	1514	1440
1399090814332081535	1509	1501	1514	1440
1399090814342149576	1508	1500	1514	1440
1399090814351899926	1509	1501	1514	1441
1399090814357059509	1508	1501	1514	1440
1399090814372057761	1508	1502	1514	1440
1399090814377114508	1508	1497	1514	1440
1399090814382068547	1507	1499	1514	1440
1399090814392102828	1508	1499	1514	1439
1399090814402087955	1507	1498	1514	1440
1399090814407028928	1509	1499	1514	1440
1399090814417043047	1508	1498	1514	1439
1399090814427073700	1510	1495	1514	1440
1399090814432101218	1507	1494	1514	1440
1399090814442034562	1509	1495	1514	1441
1399090814452087100	1509	1495	1514	1439
1399090814462024814	1509	1495	1514	1440
1399090814477141596	1508	1496	1514	1440
1399090814481983349	1509	1490	1514	1441
1399090814492096316	1511	1490	1514	1440
1399090814512029649	1510	1492	1514	1439
1399090814527172335	1511	1492	1514	1440
1399090814542236194	1512	1491	1514	1440
1399090814552182817	1512	1490	1514	1439
1399090814557125941	1511	1491	1514	1440
1399090814567097641	1510	1491	1514	1440
1399090814577121235	1509	1488	1514	1440
1399090814582084365	1509	1488	1514	1439
1399090814592078832	1509	1489	1514	1440
1399090814602060167	1510	1487	1514	1439
1399090814612113588	1509	1488	1514	1440
1399090814617003435	1510	1488	1514	1439
1399090814627066325	1507	1487	1514	1440
1399090814632019221	1508	1488	1514	1440
1399090814642088870	1507	1486	1514	1439
1399090814652084988	1507	1487	1514	1440
1399090814662039429	1509	1487	1514	1440
1399090814667073636	1508	1487	1514	1440
1399090814677105385	1508	1488	1514	1440
1399090814681815362	1507	1485	1514	1441
1399090814692086385	1508	1487	1514	1440
1399090814702106482	1507	1485	1514	1439
1399090814712045667	1507	1487	1514	1440
1399090814727171893	1508	1484	1514	1440
1399090814742079358	1508	1483	1514	1440
1399090814762136699	1507	1483	1514	1440
1399090814777035590	1507	1481	1514	1440
1399090814781997005	1508	1481	1514	1441
1399090814792079727	1506	1480	1514	1440
1399090814802090301	1509	1480	1514	1441
1399090814807067980	1507	1479	1514	1439
1399090814827111085	1509	1479	1514	1440
1399090814842135143	1509	1480	1514	1441
1399090814852163228	1508	1479	1514	1440
1399090814871992470	1508	1479	1514	1441
1399090814877126845	1508	1480	1514	1441
1399090814881973465	1512	1478	1514	1441
1399090814892074156	1511	1480	1514	1441
1399090814902105147	1512	1479	1514	1441
1399090814917105588	1511	1479	1514	1441
1399090814927127074	1514	1483	1514	1442
1399090814932083772	1515	1482	1514	1441
1399090814941947591	1515	1482	1514	1441
1399090814952125137	1514	1482	1514	1442
1399090814962028843	1515	1482	1514	1442
1399090814977112616	1511	1488	1514	1442
1399090814992080904	1510	1487	1514	1442
1399090815002104950	1510	1487	1514	1442
1399090815011937448	1511	1487	1514	1443
1399090815017075711	1511	1486	1514	1442
1399090815027093611	1512	1491	1514	1442
1399090815032093477	1512	1492	1514	1443
1399090815042132499	1512	1491	1514	1443
1399090815062149639	1512	1491	1514	1443
1399090815077108687	1513	1491	1514	1443
1399090815082073229	1514	1491	1514	1444
1399090815092095541	1510	1490	1514	1443
1399090815102045738	1510	1489	1514	1443
1399090815107066588	1510	1491	1514	1444
1399090815121989464	1509	1489	1514	1444
1399090815127086688	1513	1490	1514	1444
1399090815132068832	1512	1488	1514	1444
1399090815142063940	1513	1489	1514	1445
1399090815152168691	1512	1489	1514	1443
1399090815162085827	1513	1488	1514	1445
1399090815167071144	1511	1489	1514	1444
1399090815176898937	1514	1488	1514	1445
1399090815181880502	1512	1489	1514	1445
1399090815192013390	1513	1487	1514	1445
1399090815212142326	1513	1487	1514	1445
1399090815227140763	1511	1484	1514	1445
1399090815242126068	1511	1484	1514	1446
1399090815262164044	1511	1483	1514	1446
1399090815267085956	1511	1483	1514	1446
1399090815277096371	1511	1483	1514	1447
1399090815292072764	1508	1480	1514	1447
1399090815302149341	1507	1479	1514	1447
1399090815307002284	1508	1480	1514	1447
1399090815317080066	1508	1479	1514	1447
1399090815327122938	1508	1478	1514	1448
1399090815332077549	1508	1477	1514	1448
1399090815342074823	1507	1477	1514	1448
1399090815352069759	1508	1477	1514	1448
1399090815361990366	1507	1477	1514	1448
1399090815367081442	1507	1477	1514	1449
1399090815377052490	1507	1474	1514	1448
1399090815382065206	1506	1475	1514	1449
1399090815392101114	1506	1474	1514	1449
1399090815402070011	1505	1475	1514	1449
1399090815412119199	1506	1474	1514	1449
1399090815417099521	1506	1475	1514	1450
1399090815427057567	1501	1473	1514	1449
1399090815432053922	1502	1474	1514	1450
1399090815442075110	1500	1474	1514	1450
1399090815452139189	1501	1473	1514	1450
1399090815462091094	1500	1474	1514	1450
1399090815477119051	1500	1473	1514	1450
1399090815482074664	1499	1475	1514	1450
1399090815492107327	1500	1475	1514	1450
1399090815512152888	1500	1474	1514	1450
1399090815517159403	1499	1475	1514	1450
1399090815527108067	1497	1479	1514	1451
1399090815532121423	1499	1479	1514	1450
1399090815542113454	1497	1479	1514	1451
1399090815552135042	1497	1480	1514	1451
1399090815557103358	1496	1478	1514	1450
1399090815567068257	1496	1478	1514	1451
1399090815577062222	1497	1480	1514	1450
1399090815582040693	1496	1481	1514	1451
1399090815592118933	1497	1482	1514	1451
1399090815602079915	1495	1481	1514	1451
1399090815612215342	1497	1483	1514	1452
1399090815616918807	1496	1481	1514	1450
1399090815627113766	1495	1487	1514	1452
1399090815632099514	1495	1487	1514	1451
1399090815642092574	1495	1486	1514	1451
1399090815652115107	1495	1488	1514	1451
1399090815667101132	1494	1487	1514	1451
1399090815676888169	1493	1487	1514	1451
1399090815692036497	1499	1495	1514	1451
1399090815712097354	1499	1495	1514	1451
1399090815716817082	1498	1495	1514	1451
1399090815727079715	1501	1497	1514	1451
1399090815741908524	1501	1497	1514	1451
1399090815752059994	1500	1497	1514	1450
1399090815762095027	1500	1497	1514	1451
1399090815767024588	1502	1498	1514	1451
1399090815777356557	1506	1496	1514	1451
1399090815782016149	1507	1496	1514	1451
1399090815792027394	1507	1497	1514	1451
1399090815812094985	1508	1497	1514	1451
1399090815822022267	1508	1497	1514	1451
1399090815827013336	1513	1495	1514	1451
1399090815832116691	1512	1495	1514	1451
1399090815842092797	1512	1495	1514	1451
1399090815852041665	1512	1495	1514	1451
1399090815861995965	1512	1495	1514	1451
1399090815866814994	1513	1496	1514	1451
1399090815876932024	1513	1495	1514	1451
1399090815882058842	1516	1490	1514	1452
1399090815901780768	1517	1491	1514	1452
1399090815912001099	1518	1492	1514	1452
1399090815916894832	1517	1491	1514	1452
1399090815927020766	1518	1492	1514	1452
1399090815942058956	1518	1493	1514	1453
1399090815952090024	1518	1493	1514	1452
1399090815962058910	1519	1493	1514	1453
1399090815977130376	1518	1493	1514	1453
1399090815982038127	1518	1494	1514	1453
1399090815992038997	1518	1494	1514	1453
1399090816002060201	1519	1494	1514	1454
1399090816007140850	1518	1495	1514	1453
1399090816016991641	1520	1495	1514	1453
1399090816027176079	1512	1494	1514	1454
1399090816032099775	1511	1494	1514	1453
1399090816042294748	1513	1493	1514	1453
1399090816057009794	1511	1494	1514	1453
1399090816061938637	1512	1494	1514	1455
1399090816066959999	1512	1494	1514	1454
1399090816076977156	1511	1493	1514	1453
1399090816082058777	1509	1495	1514	1455
1399090816091885113	1507	1494	1514	1454
1399090816102075663	1508	1495	1514	1454
1399090816111959826	1508	1495	1514	1454
1399090816116971688	1508	1495	1514	1454
1399090816126986981	1507	1492	1514	1455
1399090816131841719	1506	1493	1514	1455
1399090816142069610	1507	1493	1514	1455
1399090816152052922	1506	1493	1514	1454
1399090816162072393	1506	1494	1514	1455
1399090816177125267	1500	1494	1514	1455
1399090816182043468	1500	1493	1514	1455
1399090816197055603	1498	1494	1514	1455
1399090816212083193	1500	1493	1514	1455
1399090816216993326	1499	1494	1514	1455
1399090816226992881	1494	1496	1514	1455
1399090816242246222	1493	1496	1514	1455
1399090816262015908	1492	1496	1514	1455
1399090816266983812	1492	1496	1514	1455
1399090816277139177	1491	1497	1514	1456
1399090816281985319	1491	1496	1514	1455
1399090816292038611	1490	1495	1514	1455
1399090816301920152	1490	1497	1514	1456
1399090816312064532	1490	1495	1514	1456
1399090816317037838	1491	1495	1514	1456
1399090816327017885	1493	1496	1514	1455
1399090816332015893	1494	1495	1514	1456
1399090816342042862	1493	1495	1514	1456
1399090816351986927	1495	1494	1514	1456
1399090816362027404	1494	1496	1514	1456
1399090816367071403	1494	1495	1514	1455
1399090816382125313	1500	1492	1514	1456
1399090816392008721	1501	1491	1514	1457
1399090816402058485	1499	1492	1514	1456
1399090816412045919	1500	1491	1514	1457
1399090816417040204	1499	1491	1514	1457
1399090816427008328	1501	1490	1514	1456
1399090816442074319	1501	1490	1514	1456
1399090816451876512	1502	1490	1514	1457
1399090816462013772	1501	1489	1514	1456
1399090816466981369	1501	1490	1514	1457
1399090816476942920	1501	1490	1514	1457
1399090816481834610	1500	1490	1514	1458
1399090816491816828	1500	1490	1514	1457
1399090816512068089	1500	1489	1514	1457
1399090816517003507	1501	1488	1514	1457
1399090816527051579	1504	1487	1514	1458
1399090816532215324	1503	1487	1514	1456
1399090816542141392	1504	1486	1514	1458
1399090816556931974	1503	1486	1514	1457
1399090816562010797	1504	1485	1514	1457
1399090816577071886	1507	1484	1514	1458
1399090816582050555	1509	1484	1514	1458
1399090816591945480	1508	1483	1514	1457
1399090816601833717	1509	1483	1514	1458
1399090816611981219	1508	1482	1514	1457
1399090816616924594	1508	1483	1514	1458
1399090816626994668	1510	1479	1514	1457
1399090816632010863	1509	1480	1514	1457
1399090816641993103	1510	1480	1514	1457
1399090816652063229	1510	1480	1514	1457
1399090816661931602	1509	1479	1514	1457
1399090816677009271	1513	1478	1514	1457
1399090816681934263	1514	1478	1514	1457
1399090816697010820	1513	1478	1514	1457
1399090816712056407	1514	1477	1514	1457
1399090816716882475	1514	1477	1514	1457
1399090816726953176	1515	1477	1514	1456
1399090816731953896	1513	1480	1514	1456
1399090816741992547	1514	1481	1514	1457
1399090816751954414	1514	1480	1514	1456
1399090816761982156	1514	1480	1514	1457
1399090816766982008	1514	1480	1514	1456
1399090816776982747	1514	1484	1514	1456
1399090816781970760	1514	1484	1514	1456
1399090816792005829	1514	1483	1514	1456
1399090816801999971	1515	1483	1514	1457
1399090816812081291	1514	1482	1514	1455
1399090816817053538	1515	1482	1514	1456
1399090816832063885	1515	1481	1514	1455
1399090816841979303	1512	1483	1514	1456
1399090816852072335	1512	1482	1514	1455
1399090816862149617	1513	1483	1514	1456
1399090816867097626	1513	1482	1514	1454
1399090816876910102	1514	1482	1514	1455
1399090816882091255	1513	1481	1514	1455
1399090816892045211	1514	1480	1514	1455
1399090816912162025	1514	1480	1514	1455
1399090816927121038	1515	1479	1514	1455
1399090816932110901	1516	1479	1514	1454
1399090816942136139	1515	1479	1514	1454
1399090816962078726	1515	1479	1514	1454
1399090816967106204	1515	1479	1514	1453
1399090816977054114	1516	1481	1514	1454
1399090816992013465	1517	1481	1514	1453
1399090817002007479	1516	1480	1514	1453
1399090817021866562	1517	1480	1514	1453
1399090817026878526	1518	1480	1514	1453
1399090817031833689	1518	1484	1514	1452
1399090817041898060	1519	1485	1514	1453
1399090817051881779	1519	1485	1514	1452
1399090817061830746	1520	1483	1514	1452
1399090817066805695	1520	1484	1514	1452
1399090817076857780	1525	1482	1514	1451
1399090817081779990	1524	1483	1514	1452
1399090817091799313	1524	1483	1514	1452
1399090817101776069	1525	1483	1514	1452
1399090817111841830	1524	1483	1514	1452
1399090817116841417	1525	1483	1514	1452
1399090817126816110	1526	1483	1514	1451
1399090817141855653	1528	1482	1514	1451
1399090817151789799	1528	1482	1514	1451
1399090817161823515	1529	1481	1514	1451
1399090817177138437	1528	1480	1514	1451
1399090817182036061	1527	1480	1514	1451
1399090817191980462	1528	1480	1514	1451
1399090817201979309	1529	1479	1514	1451
1399090817211977405	1530	1479	1514	1451
1399090817216981188	1531	1478	1514	1451
1399090817227014788	1531	1479	1514	1451
1399090817232042914	1532	1479	1514	1451
1399090817242065266	1524	1478	1514	1452
1399090817252089477	1525	1478	1514	1451
1399090817262006544	1526	1477	1514	1452
1399090817267080030	1527	1478	1514	1451
1399090817277107269	1527	1475	1514	1451
1399090817282005052	1527	1475	1514	1451
1399090817292069991	1527	1476	1514	1452
1399090817302020245	1527	1475	1514	1452
1399090817307045877	1527	1477	1514	1452
1399090817317112622	1528	1474	1514	1452
1399090817326794040	1528	1476	1514	1452
1399090817332102272	1527	1476	1514	1452
1399090817341806737	1526	1476	1514	1452
1399090817351818886	1527	1477	1514	1452
1399090817366908878	1527	1477	1514	1453
1399090817376801604	1525	1477	1514	1452
1399090817381892166	1525	1477	1514	1452
1399090817396900381	1524	1476	1514	1451
1399090817411867151	1525	1476	1514	1452
1399090817416814216	1524	1476	1514	1452
1399090817426880178	1525	1478	1514	1453
1399090817431796264	1517	1476	1514	1451
1399090817441828747	1518	1478	1514	1452
1399090817451819660	1517	1478	1514	1452
1399090817461859683	1518	1477	1514	1453
1399090817476887608	1520	1478	1514	1452
1399090817481782048	1521	1478	1514	1452
1399090817491821439	1521	1477	1514	1451
1399090817501970746	1520	1479	1514	1453
1399090817512043801	1521	1479	1514	1452
1399090817517003280	1521	1479	1514	1453
1399090817527045111	1521	1480	1514	1452
1399090817531924816	1521	1479	1514	1452
1399090817542046639	1522	1481	1514	1453
1399090817552127261	1522	1479	1514	1452
1399090817562096212	1522	1480	1514	1453
1399090817567016803	1521	1480	1514	1452
1399090817582115859	1524	1477	1514	1452
1399090817597047322	1524	1478	1514	1452
1399090817602034733	1524	1478	1514	1453
1399090817611930100	1524	1477	1514	1452
1399090817617056275	1524	1479	1514	1453
1399090817632088572	1524	1478	1514	1452
1399090817647126225	1521	1479	1514	1453
1399090817651929194	1523	1480	1514	1453
1399090817661989401	1522	1479	1514	1453
1399090817667086980	1523	1478	1514	1453
1399090817682014633	1519	1478	1514	1453
1399090817697115117	1520	1478	1514	1453
1399090817712113157	1520	1478	1514	1453
1399090817727044174	1520	1479	1514	1454
1399090817742030200	1521	1480	1514	1453
1399090817752104127	1522	1481	1514	1454
1399090817761840472	1520	1480	1514	1453
1399090817766996557	1522	1481	1514	1454
1399090817777040655	1522	1480	1514	1454
1399090817781963988	1523	1480	1514	1454
1399090817792027581	1522	1480	1514	1454
1399090817801945105	1522	1481	1514	1455
1399090817811981417	1523	1480	1514	1454
1399090817816957618	1521	1481	1514	1455
1399090817826990234	1523	1481	1514	1455
1399090817831997338	1521	1480	1514	1454
1399090817842074095	1522	1481	1514	1455
1399090817852042945	1521	1481	1514	1455
1399090817867093727	1521	1481	1514	1455
1399090817877066015	1523	1480	1514	1454
1399090817892159567	1522	1480	1514	1455
1399090817912156451	1522	1480	1514	1455
1399090817917019633	1523	1481	1514	1455
1399090817927024813	1520	1480	1514	1455
1399090817942128792	1520	1481	1514	1456
1399090817952072935	1520	1480	1514	1455
1399090817962057615	1520	1481	1514	1456
1399090817967063150	1520	1479	1514	1455
1399090817977061183	1520	1480	1514	1456
1399090817982071827	1520	1479	1514	1456
1399090817992128342	1521	1479	1514	1456
1399090818002061769	1520	1480	1514	1456
1399090818007014926	1521	1480	1514	1457
1399090818021856225	1520	1480	1514	1456
1399090818026871524	1520	1479	1514	1456
1399090818032014387	1521	1479	1514	1457
1399090818042017880	1520	1478	1514	1457
1399090818052052231	1521	1478	1514	1458
1399090818057009221	1520	1479	1514	1457
1399090818077052252	1521	1479	1514	1458
1399090818082092774	1520	1479	1514	1458
1399090818092024218	1521	1479	1514	1458
1399090818102071289	1519	1479	1514	1457
1399090818117126893	1521	1479	1514	1458
1399090818127063652	1521	1482	1514	1458
1399090818142021851	1520	1482	1514	1458
1399090818152031210	1521	1482	1514	1458
1399090818162041279	1519	1482	1514	1458
1399090818177102625	1518	1483	1514	1458
1399090818182071176	1518	1484	1514	1458
1399090818192062231	1518	1484	1514	1459
1399090818202010537	1517	1484	1514	1458
1399090818212119398	1518	1484	1514	1459
1399090818216997785	1517	1484	1514	1458
1399090818227078944	1518	1483	1514	1459
1399090818232019917	1517	1484	1514	1459
1399090818242103653	1519	1488	1514	1459
1399090818257062740	1518	1488	1514	1459
1399090818261986809	1518	1489	1514	1459
1399090818267009147	1519	1488	1514	1459
1399090818277068902	1518	1490	1514	1459
1399090818282086923	1519	1490	1514	1459
1399090818291823253	1518	1490	1514	1459
1399090818301986810	1518	1491	1514	1459
1399090818311825048	1518	1490	1514	1459
1399090818317004019	1517	1491	1514	1459
1399090818332105930	1515	1491	1514	1459
1399090818342080040	1514	1492	1514	1459
1399090818352084251	1514	1490	1514	1459
1399090818362050680	1513	1492	1514	1459
1399090818377093311	1513	1492	1514	1459
1399090818392086508	1509	1493	1514	1459
1399090818402089561	1509	1493	1514	1459
1399090818412027702	1509	1493	1514	1459
1399090818427177134	1508	1494	1514	1459
1399090818432074706	1508	1493	1514	1459
1399090818442149438	1508	1493	1514	1460
1399090818462133817	1507	1494	1514	1459
1399090818467048146	1507	1494	1514	1459
1399090818477091752	1507	1494	1514	1460
1399090818482072652	1506	1495	1514	1460
1399090818492157532	1510	1494	1514	1460
1399090818502093951	1509	1494	1514	1460
1399090818511912851	1510	1495	1514	1459
1399090818517064825	1510	1495	1514	1459
1399090818527034083	1513	1493	1514	1459
1399090818532152511	1513	1494	1514	1459
1399090818542054753	1512	1494	1514	1460
1399090818551992873	1512	1496	1514	1460
1399090818567008874	1513	1496	1514	1459
1399090818577033499	1515	1497	1514	1459
1399090818591928568	1515	1497	1514	1458
1399090818601980531	1516	1496	1514	1458
1399090818611953114	1516	1498	1514	1458
1399090818627058330	1516	1498	1514	1458
1399090818642049046	1517	1501	1514	1458
1399090818662008729	1516	1501	1514	1458
1399090818667041509	1516	1502	1514	1457
1399090818677162713	1515	1502	1514	1458
1399090818692106886	1515	1503	1514	1457
1399090818702107430	1516	1502	1514	1457
1399090818722072552	1515	1504	1514	1457
1399090818727038565	1514	1502	1514	1457
1399090818732149941	1514	1503	1514	1457
1399090818742006362	1514	1504	1514	1456
1399090818762052230	1513	1504	1514	1456
1399090818777150232	1511	1503	1514	1455
1399090818782049661	1511	1504	1514	1455
1399090818802078494	1512	1505	1514	1455
1399090818812119183	1511	1505	1514	1456
1399090818827172385	1513	1508	1514	1455
1399090818832047659	1513	1506	1514	1455
1399090818847125322	1513	1506	1514	1454
1399090818862019218	1513	1508	1514	1454
1399090818867006480	1514	1508	1514	1455
1399090818877076936	1513	1509	1514	1454
1399090818892132147	1515	1509	1514	1454
1399090818912092455	1515	1510	1514	1454
1399090818927120398	1518	1508	1514	1454
1399090818932016436	1517	1509	1514	1455
1399090818942089690	1519	1509	1514	1454
1399090818952097501	1517	1509	1514	1454
1399090818962021887	1519	1509	1514	1454
1399090818967007878	1518	1509	1514	1454
1399090818977079081	1521	1506	1514	1455
1399090818981989194	1523	1505	1514	1455
1399090818992070989	1522	1504	1514	1454
1399090819002020845	1524	1507	1514	1454
1399090819012035329	1522	1505	1514	1455
1399090819017069227	1524	1507	1514	1455
1399090819026754001	1522	1503	1514	1454
1399090819036990230	1522	1505	1514	1455
1399090819042010409	1522	1505	1514	1454
1399090819052007095	1523	1504	1514	1455
1399090819062084471	1523	1506	1514	1455
1399090819066981999	1523	1503	1514	1454
1399090819077019511	1519	1507	1514	1455
1399090819092115049	1519	1506	1514	1456
1399090819112125141	1519	1506	1514	1455
1399090819117094094	1519	1506	1514	1456
1399090819127050383	1520	1505	1514	1455
1399090819142218261	1520	1506	1514	1455
1399090819152054204	1521	1506	1514	1456
1399090819162070389	1520	1505	1514	1455
1399090819177145656	1517	1504	1514	1456
1399090819191979356	1517	1504	1514	1455
1399090819212088871	1517	1503	1514	1455
1399090819217046113	1517	1503	1514	1455
1399090819226978892	1515	1504	1514	1455
1399090819231948193	1516	1502	1514	1455
1399090819242061849	1515	1503	1514	1455
1399090819252072259	1516	1502	1514	1455
1399090819257067666	1516	1504	1514	1455
1399090819266851330	1516	1504	1514	1455
1399090819277022523	1517	1501	1514	1455
1399090819282046321	1516	1501	1514	1455
1399090819292012932	1516	1500	1514	1455
1399090819301939629	1515	1500	1514	1455
1399090819317069869	1515	1501	1514	1455
1399090819327052539	1518	1499	1514	1455
1399090819341869123	1517	1499	1514	1455
1399090819362067631	1517	1499	1514	1455
1399090819367074554	1518	1500	1514	1455
1399090819377055313	1517	1498	1514	1455
1399090819391861468	1517	1499	1514	1455
1399090819412063152	1517	1499	1514	1454
1399090819417010783	1517	1499	1514	1455
1399090819426856762	1516	1499	1514	1455
1399090819441830993	1516	1497	1514	1454
1399090819451992833	1516	1497	1514	1453
1399090819461979017	1516	1497	1514	1454
1399090819466826748	1517	1497	1514	1453
1399090819477027731	1516	1493	1514	1454
1399090819482039184	1515	1494	1514	1454
1399090819502039458	1515	1494	1514	1454
1399090819511994335	1516	1493	1514	1453
1399090819517019554	1516	1494	1514	1454
1399090819526993022	1514	1493	1514	1453
1399090819532128456	1514	1493	1514	1454
1399090819541907267	1512	1495	1514	1454
1399090819552095620	1515	1494	1514	1454
1399090819562079386	1513	1495	1514	1454
1399090819567014001	1513	1492	1514	1453
1399090819577097208	1516	1494	1514	1454
1399090819582030098	1515	1493	1514	1454
1399090819597129470	1516	1493	1514	1454
1399090819612095948	1514	1494	1514	1454
1399090819617087597	1515	1494	1514	1455
1399090819627078854	1517	1493	1514	1454
1399090819641976889	1518	1494	1514	1454
1399090819652059197	1516	1493	1514	1455
1399090819662080335	1517	1493	1514	1454
1399090819677117185	1517	1493	1514	1455
1399090819682059027	1516	1491	1514	1454
1399090819707137018	1517	1491	1514	1454
1399090819712059381	1517	1491	1514	1454
1399090819716993005	1518	1490	1514	1454
1399090819727047428	1518	1490	1514	1454
1399090819742031271	1518	1489	1514	1454
1399090819756846304	1518	1490	1514	1455
1399090819761849659	1519	1488	1514	1454
1399090819766843671	1520	1490	1514	1455
1399090819776829755	1521	1489	1514	1454
1399090819781828056	1522	1489	1514	1455
1399090819791801095	1522	1489	1514	1454
1399090819801866388	1521	1488	1514	1455
1399090819811843719	1523	1489	1514	1454
1399090819816825933	1521	1487	1514	1454
1399090819831833298	1524	1486	1514	1455
1399090819841793036	1524	1484	1514	1454
1399090819861823724	1524	1484	1514	1455
1399090819876839260	1521	1485	1514	1454
1399090819881821714	1522	1484	1514	1454
1399090819891842886	1522	1484	1514	1454
1399090819901855513	1522	1485	1514	1455
1399090819907054232	1522	1483	1514	1454
1399090819916997083	1522	1483	1514	1454
1399090819927095289	1521	1485	1514	1455
1399090819932053698	1521	1484	1514	1454
1399090819947090776	1522	1484	1514	1455
1399090819952051086	1521	1484	1514	1454
1399090819957091177	1522	1483	1514	1454
1399090819972026183	1522	1483	1514	1454
1399090819977009833	1524	1482	1514	1454
1399090819982043266	1524	1482	1514	1454
1399090819992076882	1524	1481	1514	1454
1399090820002065604	1524	1480	1514	1454
1399090820016773230	1525	1481	1514	1454
1399090820027047851	1524	1479	1514	1454
1399090820032019179	1526	1479	1514	1454
1399090820042077175	1527	1478	1514	1453
1399090820051989068	1528	1477	1514	1454
1399090820062113384	1529	1478	1514	1454
1399090820067092242	1527	1477	1514	1454
1399090820076855059	1525	1477	1514	1454
1399090820092078107	1524	1476	1514	1454
1399090820102074541	1524	1476	1514	1454
1399090820112054909	1524	1475	1514	1454
1399090820126888695	1521	1472	1514	1454
1399090820142045104	1522	1472	1514	1455
1399090820152079082	1522	1472	1514	1455
1399090820162055244	1521	1471	1514	1455
1399090820176842668	1516	1473	1514	1455
1399090820182105659	1515	1473	1514	1455
1399090820207213782	1516	1472	1514	1455
1399090820212143984	1515	1472	1514	1456
1399090820217038100	1514	1471	1514	1455
1399090820226903197	1516	1472	1514	1455
1399090820232006245	1510	1480	1514	1456
1399090820252081323	1510	1480	1514	1456
1399090820262084103	1509	1479	1514	1455
1399090820266991583	1510	1480	1514	1455
1399090820277081982	1508	1486	1514	1456
1399090820281975186	1509	1486	1514	1455
1399090820292111906	1509	1486	1514	1456
1399090820302086292	1508	1486	1514	1456
1399090820312094390	1508	1485	1514	1456
1399090820326868586	1509	1490	1514	1456
1399090820342053522	1508	1490	1514	1456
1399090820352050745	1507	1491	1514	1457
1399090820361903096	1506	1492	1514	1456
1399090820377016386	1505	1496	1514	1457
1399090820381970832	1505	1496	1514	1457
1399090820392102324	1505	1497	1514	1457
1399090820412126927	1504	1496	1514	1457
1399090820417079427	1505	1497	1514	1456
1399090820427029967	1505	1497	1514	1458
1399090820431929200	1505	1501	1514	1457
1399090820442015558	1503	1500	1514	1457
1399090820452010775	1504	1502	1514	1458
1399090820462035932	1504	1501	1514	1456
1399090820466991856	1505	1502	1514	1458
1399090820476965463	1509	1502	1514	1456
1399090820486937814	1509	1501	1514	1458
1399090820492007856	1509	1504	1514	1457
1399090820497032959	1508	1501	1514	1457
1399090820512063943	1509	1504	1514	1458
1399090820517060392	1507	1503	1514	1457
1399090820527102490	1510	1502	1514	1459
1399090820532318337	1510	1502	1514	1457
1399090820542115375	1509	1502	1514	1458
1399090820552121622	1510	1505	1514	1457
1399090820562097455	1508	1503	1514	1458
1399090820567029597	1509	1505	1514	1458
1399090820577117824	1510	1506	1514	1457
1399090820582016278	1511	1507	1514	1458
1399090820596972053	1510	1507	1514	1457
1399090820612127981	1510	1508	1514	1458
1399090820617113382	1509	1508	1514	1457
1399090820626872987	1509	1508	1514	1458
1399090820632088682	1508	1507	1514	1457
1399090820641790133	1509	1508	1514	1458
1399090820652074003	1508	1507	1514	1457
1399090820657135527	1507	1507	1514	1458
1399090820667068939	1507	1509	1514	1458
1399090820676983462	1504	1504	1514	1458
1399090820681932941	1504	1506	1514	1458
1399090820691988150	1503	1505	1514	1458
1399090820702068372	1503	1507	1514	1459
1399090820707055827	1503	1507	1514	1458
1399090820716808506	1503	1507	1514	1458
1399090820726744280	1504	1505	1514	1458
1399090820731966557	1503	1506	1514	1458
1399090820741846658	1503	1507	1514	1458
1399090820751934119	1504	1506	1514	1458
1399090820761831484	1503	1507	1514	1458
1399090820766805600	1503	1507	1514	1458
1399090820781826010	1501	1507	1514	1459
1399090820791825096	1500	1508	1514	1458
1399090820801803782	1500	1507	1514	1459
1399090820811820677	1500	1508	1514	1458
1399090820816780695	1500	1508	1514	1459
1399090820826887813	1500	1507	1514	1459
1399090820841816650	1501	1507	1514	1459
1399090820851755354	1500	1507	1514	1458
1399090820861827282	1500	1508	1514	1460
1399090820866821027	1499	1507	1514	1459
1399090820877092705	1502	1501	1514	1459
1399090820882036850	1502	1501	1514	1459
1399090820892102801	1502	1502	1514	1460
1399090820907069001	1501	1503	1514	1461
1399090820911990765	1501	1502	1514	1460
1399090820916957337	1502	1502	1514	1461
1399090820926941988	1503	1499	1514	1460
1399090820931986087	1505	1500	1514	1461
1399090820941990204	1503	1499	1514	1461
1399090820952011019	1503	1499	1514	1462
1399090820961811472	1504	1499	1514	1462
1399090820967050141	1503	1498	1514	1461
1399090820977122559	1504	1496	1514	1462
1399090820982045210	1504	1496	1514	1462
1399090820992195832	1504	1496	1514	1463
1399090821002079351	1504	1494	1514	1462
1399090821017148248	1504	1495	1514	1463
1399090821027067656	1503	1494	1514	1463
1399090821032067441	1506	1495	1514	1463
1399090821042024468	1507	1494	1514	1463
1399090821052029991	1507	1495	1514	1464
1399090821061891362	1507	1494	1514	1463
1399090821077129828	1508	1492	1514	1464
1399090821092114914	1509	1491	1514	1464
1399090821102046350	1509	1491	1514	1464
1399090821112074380	1508	1491	1514	1465
1399090821116869090	1509	1491	1514	1464
1399090821126970909	1510	1492	1514	1464
1399090821132075429	1511	1492	1514	1464
1399090821142080172	1511	1491	1514	1464
1399090821162002679	1510	1491	1514	1465
1399090821172052809	1510	1491	1514	1466
1399090821177174666	1513	1491	1514	1464
1399090821182062782	1512	1490	1514	1465
1399090821192070429	1513	1490	1514	1464
1399090821197038568	1513	1490	1514	1464
1399090821212151704	1513	1490	1514	1464
1399090821217066803	1514	1490	1514	1464
1399090821226968319	1515	1489	1514	1465
1399090821231995013	1515	1490	1514	1465
1399090821251964181	1515	1489	1514	1465
1399090821261901071	1516	1490	1514	1465
1399090821267042492	1517	1488	1514	1465
1399090821276990604	1518	1488	1514	1464
1399090821281916304	1517	1486	1514	1464
1399090821292016637	1518	1487	1514	1465
1399090821312016083	1518	1486	1514	1465
1399090821317018812	1518	1487	1514	1464
1399090821327040219	1521	1485	1514	1465
1399090821342127262	1521	1485	1514	1465
1399090821352150642	1522	1485	1514	1465
1399090821362130771	1521	1484	1514	1464
1399090821367070830	1522	1484	1514	1465
1399090821377186708	1524	1488	1514	1464
1399090821382123790	1525	1486	1514	1464
1399090821392045628	1525	1487	1514	1464
1399090821402070713	1525	1485	1514	1463
1399090821407053210	1526	1487	1514	1464
1399090821422028972	1526	1485	1514	1463
1399090821427047120	1525	1485	1514	1464
1399090821442068657	1525	1483	1514	1464
1399090821452081889	1526	1484	1514	1464
1399090821462029535	1525	1483	1514	1463
1399090821466960905	1526	1484	1514	1465
1399090821477098168	1522	1483	1514	1463
1399090821482016613	1522	1483	1514	1464
1399090821492105577	1524	1483	1514	1464
1399090821502124002	1523	1482	1514	1464
1399090821512065731	1524	1483	1514	1464
1399090821517108912	1525	1482	1514	1463
1399090821527103690	1521	1480	1514	1465
1399090821532217933	1522	1479	1514	1464
1399090821542082135	1522	1480	1514	1464
1399090821562047507	1522	1479	1514	1464
1399090821567061055	1523	1479	1514	1464
1399090821577147718	1523	1481	1514	1464
1399090821592421480	1523	1481	1514	1465
1399090821607140818	1523	1480	1514	1465
1399090821617002543	1523	1480	1514	1465
1399090821627048756	1524	1481	1514	1464
1399090821632056860	1524	1480	1514	1464
1399090821642099651	1524	1480	1514	1465
1399090821657128360	1525	1480	1514	1465
1399090821662018315	1524	1481	1514	1465
1399090821666952539	1526	1480	1514	1465
1399090821677045580	1524	1480	1514	1465
1399090821681979708	1522	1479	1514	1465
1399090821692099368	1521	1480	1514	1465
1399090821702064942	1522	1478	1514	1465
1399090821707046607	1523	1479	1514	1465
1399090821717120959	1522	1479	1514	1465
1399090821727184933	1520	1474	1514	1465
1399090821732104728	1519	1476	1514	1465
1399090821742066703	1518	1474	1514	1465
1399090821752113739	1520	1475	1514	1465
1399090821767079244	1520	1474	1514	1464
1399090821777038828	1520	1474	1514	1466
1399090821782058596	1520	1472	1514	1465
1399090821792082737	1518	1469	1514	1465
1399090821802089165	1518	1468	1514	1465
1399090821811874130	1518	1468	1514	1465
1399090821827034515	1518	1468	1514	1465
1399090821832061510	1518	1468	1514	1465
1399090821841718299	1517	1466	1514	1465
1399090821851797112	1517	1468	1514	1466
1399090821856832465	1517	1467	1514	1464
1399090821866837271	1517	1467	1514	1465
1399090821876885440	1517	1467	1514	1464
1399090821891788041	1518	1468	1514	1465
1399090821901813100	1518	1467	1514	1465
1399090821911795412	1518	1468	1514	1465
1399090821916812868	1518	1467	1514	1465
1399090821926846892	1517	1468	1514	1466
1399090821931792506	1517	1468	1514	1465
1399090821941821830	1518	1467	1514	1465
1399090821951853716	1518	1467	1514	1465
1399090821961826274	1518	1467	1514	1465
1399090821966802665	1518	1468	1514	1465
1399090821976808425	1517	1467	1514	1465
1399090821981813863	1516	1467	1514	1465
1399090821997053563	1517	1468	1514	1465
1399090822012068166	1516	1467	1514	1465
1399090822017087986	1515	1466	1514	1465
1399090822027112006	1517	1467	1514	1465
1399090822032034520	1518	1466	1514	1464
1399090822042121105	1517	1466	1514	1465
1399090822062055956	1517	1466	1514	1465
1399090822067118037	1518	1466	1514	1464
1399090822077086106	1516	1470	1514	1464
1399090822092014043	1517	1470	1514	1464
1399090822102002082	1515	1470	1514	1465
1399090822111986100	1516	1471	1514	1464
1399090822117036662	1516	1470	1514	1464
1399090822127084286	1519	1473	1514	1464
1399090822132108251	1518	1473	1514	1464
1399090822142067321	1517	1473	1514	1465
1399090822152083960	1519	1474	1514	1464
1399090822162509979	1518	1473	1514	1464
1399090822167056896	1518	1473	1514	1464
1399090822177087641	1518	1474	1514	1464
1399090822182017810	1519	1471	1514	1463
1399090822192290709	1524	1479	1514	1463
1399090822202128849	1523	1479	1514	1463
1399090822212122916	1524	1480	1514	1464
1399090822217124205	1522	1480	1514	1463
1399090822232113616	1525	1481	1514	1464
1399090822242157496	1525	1481	1514	1463
1399090822252126848	1526	1481	1514	1463
1399090822262138350	1525	1480	1514	1462
1399090822267065705	1526	1481	1514	1463
1399090822282019995	1525	1482	1514	1462
1399090822292121324	1526	1483	1514	1463
1399090822302102913	1525	1484	1514	1462
1399090822312002098	1526	1484	1514	1463
1399090822327062779	1523	1488	1514	1463
1399090822332032991	1523	1489	1514	1462
1399090822341917899	1523	1490	1514	1462
1399090822362123344	1524	1489	1514	1462
1399090822367021433	1524	1489	1514	1462
1399090822377121491	1523	1489	1514	1461
1399090822381811484	1524	1490	1514	1462
1399090822392014586	1521	1492	1514	1462
1399090822401946496	1521	1492	1514	1462
1399090822407144357	1522	1493	1514	1462
1399090822422094119	1521	1492	1514	1462
1399090822427108649	1522	1493	1514	1462
1399090822431927005	1520	1494	1514	1462
1399090822442050464	1521	1493	1514	1461
1399090822452064110	1522	1494	1514	1461
1399090822457066040	1521	1493	1514	1461
1399090822466956538	1522	1494	1514	1462
1399090822477135040	1520	1491	1514	1461
1399090822481818540	1522	1492	1514	1462
1399090822497038566	1521	1492	1514	1461
1399090822512117337	1521	1492	1514	1461
1399090822527146805	1518	1489	1514	1461
1399090822532076927	1517	1489	1514	1461
1399090822547081942	1518	1489	1514	1461
1399090822561834110	1517	1489	1514	1461
1399090822566969003	1517	1489	1514	1461
1399090822576966475	1517	1490	1514	1461
1399090822581907611	1517	1489	1514	1461
1399090822591840584	1514	1481	1514	1461
1399090822601875286	1514	1482	1514	1461
1399090822611956436	1514	1482	1514	1460
1399090822617027398	1514	1483	1514	1461
1399090822626790129	1514	1481	1514	1461
1399090822641983986	1514	1481	1514	1460
1399090822646951529	1512	1482	1514	1460
1399090822652006380	1512	1480	1514	1460
1399090822661812748	1512	1482	1514	1460
1399090822666975480	1512	1480	1514	1460
1399090822677182845	1512	1481	1514	1460
1399090822682021622	1511	1484	1514	1460
1399090822692142213	1511	1484	1514	1460
1399090822702135711	1511	1485	1514	1460
1399090822712142013	1510	1484	1514	1459
1399090822717033684	1509	1486	1514	1460
1399090822731896692	1507	1488	1514	1460
1399090822742056243	1507	1488	1514	1459
1399090822762027344	1505	1489	1514	1459
1399090822766929439	1505	1489	1514	1459
1399090822776975089	1505	1489	1514	1459
1399090822792079045	1504	1489	1514	1459
1399090822801903483	1504	1490	1514	1459
1399090822812013560	1501	1491	1514	1459
1399090822817051854	1502	1491	1514	1459
1399090822826811828	1497	1491	1514	1459
1399090822842058103	1495	1492	1514	1459
1399090822852041247	1494	1493	1514	1459
1399090822856991773	1495	1493	1514	1459
1399090822866981493	1493	1493	1514	1459
1399090822876966767	1489	1493	1514	1459
1399090822887056259	1488	1495	1514	1460
1399090822891861058	1487	1496	1514	1459
1399090822902019127	1488	1495	1514	1460
1399090822912066447	1485	1495	1514	1459
1399090822917018302	1486	1496	1514	1460
1399090822922029833	1486	1497	1514	1460
1399090822932155112	1481	1494	1514	1459
1399090822942094554	1481	1496	1514	1460
1399090822952082244	1479	1498	1514	1460
1399090822961848131	1479	1495	1514	1460
1399090822967069906	1477	1498	1514	1460
1399090822981976832	1476	1499	1514	1460
1399090822992031032	1475	1499	1514	1460
1399090823002062747	1474	1500	1514	1461
1399090823012072387	1473	1500	1514	1461
1399090823016987106	1472	1499	1514	1459
1399090823027041738	1471	1501	1514	1461
1399090823031991744	1472	1501	1514	1460
1399090823042090839	1471	1500	1514	1460
1399090823062096894	1469	1502	1514	1461
1399090823077110130	1469	1502	1514	1461
1399090823092109776	1468	1503	1514	1461
1399090823102082004	1466	1502	1514	1461
1399090823112106642	1466	1504	1514	1462
1399090823127035710	1469	1501	1514	1461
1399090823132033456	1469	1501	1514	1460
1399090823141990875	1468	1501	1514	1460
1399090823152088940	1468	1502	1514	1461
1399090823162069090	1466	1503	1514	1461
1399090823167009463	1468	1501	1514	1462
1399090823177052169	1465	1502	1514	1461
1399090823181974545	1466	1503	1514	1463
1399090823201776839	1478	1497	1514	1462
1399090823212066290	1479	1496	1514	1462
1399090823226849305	1482	1495	1514	1462
1399090823232045418	1480	1495	1514	1463
1399090823246987662	1482	1497	1514	1463
1399090823262054255	1481	1495	1514	1462
1399090823266798670	1481	1497	1514	1463
1399090823277037685	1486	1500	1514	1464
1399090823282128564	1487	1499	1514	1462
1399090823292077077	1487	1499	1514	1463
1399090823312185894	1487	1500	1514	1463
1399090823327084512	1487	1501	1514	1463
1399090823342141639	1492	1501	1514	1463
1399090823362199748	1493	1501	1514	1463
1399090823366933001	1493	1503	1514	1463
1399090823376967068	1498	1502	1514	1463
1399090823382011897	1500	1502	1514	1462
1399090823392102581	1499	1503	1514	1463
1399090823402064085	1500	1504	1514	1463
1399090823412058685	1501	1502	1514	1462
1399090823417076350	1500	1504	1514	1464
1399090823427131424	1501	1504	1514	1463
1399090823431770547	1502	1503	1514	1463
1399090823442009532	1509	1501	1514	1463
1399090823452096860	1510	1500	1514	1463
1399090823461952756	1511	1499	1514	1463
1399090823467045614	1511	1499	1514	1462
1399090823482059923	1511	1498	1514	1463
1399090823492103413	1511	1499	1514	1463
1399090823512096257	1512	1498	1514	1463
1399090823517104191	1512	1499	1514	1462
1399090823527058341	1509	1494	1514	1463
1399090823542182510	1509	1494	1514	1462
1399090823552175448	1510	1495	1514	1463
1399090823561793135	1511	1494	1514	1462
1399090823567000110	1511	1494	1514	1463
1399090823577046031	1511	1493	1514	1462
1399090823582041545	1507	1489	1514	1463
1399090823592040295	1506	1487	1514	1462
1399090823601769497	1508	1489	1514	1463
1399090823611865524	1508	1487	1514	1462
1399090823616800509	1509	1488	1514	1463
1399090823626857347	1506	1485	1514	1462
1399090823636904603	1508	1484	1514	1462
1399090823641758542	1506	1484	1514	1462
1399090823651798806	1507	1484	1514	1462
1399090823656828494	1507	1484	1514	1462
1399090823666797141	1508	1483	1514	1462
1399090823676760656	1508	1479	1514	1463
1399090823681760236	1507	1477	1514	1462
1399090823696805915	1508	1479	1514	1462
1399090823701843003	1509	1476	1514	1462
1399090823711906345	1509	1478	1514	1462
1399090823716865743	1509	1476	1514	1461
1399090823731814659	1508	1473	1514	1462
1399090823746823179	1509	1473	1514	1462
1399090823751777922	1508	1473	1514	1462
1399090823762116957	1508	1473	1514	1462
1399090823766777611	1510	1472	1514	1462
1399090823782117001	1508	1477	1514	1462
1399090823797125398	1508	1476	1514	1461
1399090823801839285	1508	1476	1514	1462
1399090823812099402	1509	1474	1514	1461
1399090823817107908	1508	1474	1514	1462
1399090823827075873	1509	1474	1514	1461
1399090823832098742	1506	1478	1514	1462
1399090823847065433	1505	1477	1514	1461
1399090823851991391	1506	1476	1514	1461
1399090823857116368	1505	1476	1514	1461
1399090823872093159	1506	1476	1514	1461
1399090823877097670	1504	1478	1514	1462
1399090823881999905	1504	1477	1514	1461
1399090823891991406	1505	1478	1514	1462
1399090823901847985	1505	1475	1514	1461
1399090823907016017	1506	1476	1514	1461
1399090823917066377	1507	1475	1514	1460
1399090823927010467	1507	1475	1514	1461
1399090823931979594	1507	1475	1514	1460
1399090823947028956	1507	1474	1514	1461
1399090823951932767	1507	1475	1514	1460
1399090823962073486	1509	1474	1514	1461
1399090823977028496	1511	1476	1514	1461
1399090823981953841	1512	1475	1514	1461
1399090823992005810	1511	1475	1514	1460
1399090824001868578	1512	1475	1514	1460
1399090824011994456	1511	1475	1514	1460
1399090824026949072	1513	1485	1514	1460
1399090824041967741	1514	1485	1514	1460
1399090824051989879	1514	1484	1514	1459
1399090824056969358	1514	1484	1514	1460
1399090824066953667	1513	1483	1514	1459
1399090824076999480	1515	1494	1514	1460
1399090824081992839	1515	1491	1514	1459
1399090824091998633	1516	1493	1514	1459
1399090824112002206	1516	1491	1514	1458
1399090824116931875	1515	1492	1514	1459
1399090824136963885	1515	1489	1514	1458
1399090824142020146	1516	1488	1514	1457
1399090824152066410	1515	1491	1514	1459
1399090824161982056	1515	1491	1514	1458
1399090824167061674	1516	1491	1514	1459
1399090824177059829	1514	1488	1514	1457
1399090824182038254	1517	1488	1514	1457
1399090824192104266	1514	1488	1514	1458
1399090824202067743	1515	1489	1514	1458
1399090824212099553	1515	1490	1514	1458
1399090824227057117	1516	1487	1514	1457
1399090824232074977	1517	1488	1514	1457
1399090824247100256	1517	1488	1514	1457
1399090824262077578	1518	1488	1514	1457
1399090824277107908	1517	1487	1514	1457
1399090824282032664	1517	1488	1514	1456
1399090824291829975	1518	1487	1514	1457
1399090824312057146	1518	1486	1514	1456
1399090824317038920	1518	1486	1514	1456
1399090824326825272	1518	1482	1514	1456
1399090824342050094	1517	1482	1514	1456
1399090824352149333	1520	1482	1514	1456
1399090824361837611	1519	1481	1514	1455
1399090824367061979	1519	1481	1514	1455
1399090824377123759	1518	1477	1514	1456
1399090824382149059	1518	1476	1514	1456
1399090824392085990	1520	1476	1514	1455
1399090824402080438	1519	1476	1514	1455
1399090824407076579	1521	1475	1514	1455
1399090824416822375	1519	1474	1514	1455
1399090824427047869	1521	1472	1514	1455
1399090824431940526	1520	1470	1514	1455
1399090824441966257	1521	1470	1514	1455
1399090824461966876	1522	1470	1514	1454
1399090824466996320	1522	1471	1514	1455
1399090824476954966	1524	1469	1514	1454
1399090824491995019	1524	1469	1514	1454
1399090824512014100	1526	1469	1514	1454
1399090824516950286	1527	1468	1514	1454
1399090824526955188	1529	1468	1514	1454
1399090824537071766	1529	1467	1514	1454
1399090824542067106	1529	1467	1514	1454
1399090824551979176	1530	1465	1514	1453
1399090824557048905	1529	1466	1514	1454
1399090824571990826	1530	1466	1514	1453
1399090824577008013	1535	1465	1514	1454
1399090824581972579	1534	1465	1514	1453
1399090824591966335	1535	1464	1514	1454
1399090824601930059	1535	1464	1514	1454
1399090824611981423	1536	1463	1514	1453
1399090824616820869	1536	1463	1514	1454
1399090824627070047	1537	1465	1514	1454
