#Time	 Roll 	 Pitch 	 Yaw 	 Thrust
1399094287359477515	1513	1514	1514	1378
1399094287369474039	1513	1515	1514	1379
1399094287389460027	1513	1514	1514	1378
1399094287394553282	1513	1515	1514	1378
1399094287404417472	1513	1514	1514	1378
1399094287409389957	1513	1514	1514	1378
1399094287419356179	1513	1513	1514	1378
1399094287434442001	1513	1514	1514	1378
1399094287449464620	1513	1515	1514	1378
1399094287454366266	1513	1515	1514	1378
1399094287459384908	1513	1515	1514	1378
1399094287469495897	1513	1515	1514	1378
1399094287479483671	1512	1514	1514	1378
1399094287489495781	1513	1515	1514	1378
1399094287494542346	1512	1515	1514	1378
1399094287504486864	1513	1514	1514	1378
1399094287509461328	1514	1515	1514	1378
1399094287524583157	1513	1514	1514	1378
1399094287534597091	1513	1514	1514	1378
1399094287554417336	1513	1515	1514	1378
1399094287569525807	1513	1514	1514	1378
1399094287584661370	1513	1514	1514	1378
1399094287604399144	1513	1514	1514	1378
1399094287619419177	1513	1514	1514	1378
1399094287634445083	1513	1514	1514	1378
1399094287654493008	1513	1514	1514	1378
1399094287659435988	1513	1514	1514	1378
1399094287669453957	1513	1514	1514	1378
1399094287679487319	1513	1514	1514	1378
1399094287689601356	1513	1515	1514	1378
1399094287694568559	1513	1514	1514	1378
1399094287704468175	1513	1514	1514	1378
1399094287709517098	1513	1515	1514	1378
1399094287719567522	1513	1514	1514	1378
1399094287729579525	1513	1514	1514	1378
1399094287744567894	1513	1514	1514	1378
1399094287754543634	1513	1514	1514	1378
1399094287769531952	1514	1514	1514	1378
1399094287779461231	1513	1514	1514	1378
1399094287789502818	1513	1514	1514	1378
1399094287804536532	1512	1514	1514	1378
1399094287819612201	1512	1514	1514	1378
1399094287829539304	1512	1514	1514	1378
1399094287834579344	1512	1514	1514	1378
1399094287844500906	1513	1514	1514	1378
1399094287854551505	1514	1513	1514	1377
1399094287859511530	1512	1514	1514	1434
1399094287874601841	1513	1514	1514	1399
1399094287879492546	1514	1513	1514	1398
1399094287884474483	1512	1514	1514	1399
1399094287899459354	1512	1514	1514	1399
1399094287904558023	1512	1512	1514	1398
1399094287909418863	1511	1514	1514	1399
1399094287919510166	1512	1512	1514	1398
1399094287929466812	1511	1513	1514	1399
1399094287939425968	1511	1513	1514	1399
1399094287944487750	1512	1513	1514	1399
1399094287954433596	1511	1513	1514	1399
1399094287959502610	1512	1513	1514	1399
1399094287969486333	1512	1513	1514	1399
1399094287979512805	1511	1513	1514	1399
1399094287989534883	1512	1515	1514	1400
1399094288004503520	1512	1512	1514	1399
1399094288009382603	1510	1514	1514	1399
1399094288024549876	1512	1512	1514	1399
1399094288034561750	1512	1512	1514	1399
1399094288054614003	1512	1512	1514	1399
1399094288059482592	1512	1512	1514	1400
1399094288069506686	1513	1511	1514	1399
1399094288084500137	1512	1511	1514	1399
1399094288104494946	1512	1510	1514	1399
1399094288119654599	1511	1510	1514	1400
1399094288129510891	1512	1509	1514	1400
1399094288139574617	1508	1509	1514	1399
1399094288144568203	1511	1509	1514	1399
1399094288154503603	1509	1510	1514	1399
1399094288159415731	1511	1509	1514	1400
1399094288169484832	1510	1509	1514	1399
1399094288179527284	1512	1509	1514	1399
1399094288189517228	1512	1507	1514	1399
1399094288194505610	1512	1506	1514	1399
1399094288204480092	1512	1508	1514	1400
1399094288209395445	1512	1506	1514	1399
1399094288224444783	1513	1507	1514	1400
1399094288234536888	1513	1506	1514	1399
1399094288244479840	1513	1504	1514	1399
1399094288254586180	1512	1504	1514	1399
1399094288259487173	1513	1504	1514	1399
1399094288269478240	1511	1503	1514	1399
1399094288284546135	1513	1502	1514	1399
1399094288294513881	1515	1498	1514	1399
1399094288304512755	1512	1498	1514	1399
1399094288319570309	1514	1497	1514	1399
1399094288334516390	1513	1496	1514	1399
1399094288354529107	1514	1489	1514	1399
1399094288369500491	1514	1489	1514	1399
1399094288379471199	1515	1490	1514	1398
1399094288384207822	1515	1490	1514	1399
1399094288394487624	1515	1487	1514	1399
1399094288404479605	1517	1486	1514	1398
1399094288419464290	1516	1486	1514	1399
1399094288444339803	1516	1482	1514	1399
1399094288454253135	1515	1482	1514	1399
1399094288469581589	1516	1482	1514	1399
1399094288484569115	1515	1482	1514	1399
1399094288504476059	1517	1477	1514	1399
1399094288519649458	1517	1478	1514	1400
1399094288534584743	1517	1477	1514	1399
1399094288554625558	1516	1475	1514	1399
1399094288569584154	1516	1475	1514	1399
1399094288584640544	1516	1475	1514	1399
1399094288604522800	1515	1470	1514	1399
1399094288609584087	1514	1470	1514	1400
1399094288619574259	1515	1469	1514	1400
1399094288634468364	1515	1469	1514	1400
1399094288649485357	1518	1466	1514	1400
1399094288654371079	1519	1465	1514	1400
1399094288659367449	1519	1465	1514	1400
1399094288669546247	1519	1466	1514	1400
1399094288679591691	1520	1467	1514	1400
1399094288689499162	1521	1465	1514	1400
1399094288694435330	1522	1466	1514	1400
1399094288704448005	1521	1467	1514	1401
1399094288709402075	1523	1467	1514	1400
1399094288724365360	1521	1468	1514	1401
1399094288734449192	1521	1468	1514	1401
1399094288754451360	1522	1468	1514	1401
1399094288759391423	1522	1468	1514	1401
1399094288774536455	1520	1470	1514	1402
1399094288784443471	1521	1470	1514	1402
1399094288804485838	1523	1473	1514	1402
1399094288819483457	1522	1473	1514	1402
1399094288834371597	1522	1473	1514	1402
1399094288854502521	1519	1475	1514	1403
1399094288859382137	1519	1475	1514	1402
1399094288879562659	1519	1474	1514	1403
1399094288889490953	1518	1478	1514	1402
1399094288894491937	1518	1479	1514	1403
1399094288904448111	1518	1478	1514	1402
1399094288909395188	1519	1479	1514	1403
1399094288919564408	1517	1479	1514	1403
1399094288929544142	1519	1479	1514	1402
1399094288939412763	1517	1480	1514	1402
1399094288944390537	1517	1481	1514	1403
1399094288954452197	1517	1479	1514	1402
1399094288959477688	1518	1480	1514	1403
1399094288969409242	1516	1480	1514	1403
1399094288989707637	1515	1480	1514	1403
1399094288994436439	1516	1479	1514	1402
1399094289004470144	1515	1480	1514	1403
1399094289019481099	1516	1479	1514	1402
1399094289034488639	1517	1479	1514	1402
1399094289054439426	1518	1479	1514	1402
1399094289069527000	1519	1480	1514	1402
1399094289084502559	1519	1480	1514	1402
1399094289104554391	1521	1479	1514	1402
1399094289109504719	1520	1480	1514	1402
1399094289119519986	1522	1479	1514	1402
1399094289129480534	1522	1479	1514	1402
1399094289139529372	1523	1477	1514	1402
1399094289144552047	1523	1478	1514	1402
1399094289154502761	1523	1478	1514	1402
1399094289164476105	1523	1478	1514	1402
1399094289169380578	1523	1479	1514	1402
1399094289179460399	1523	1477	1514	1402
1399094289189500082	1525	1478	1514	1402
1399094289204549603	1524	1477	1514	1402
1399094289219435750	1525	1477	1514	1402
1399094289229435860	1524	1477	1514	1402
1399094289239439895	1523	1478	1514	1402
1399094289244429066	1525	1477	1514	1402
1399094289254402809	1527	1477	1514	1403
1399094289269459019	1527	1475	1514	1403
1399094289284484238	1527	1475	1514	1402
1399094289304407794	1528	1474	1514	1403
1399094289319468617	1527	1473	1514	1402
1399094289334463782	1527	1472	1514	1402
1399094289354443005	1528	1471	1514	1402
1399094289359432823	1528	1471	1514	1402
1399094289369493025	1526	1472	1514	1402
1399094289379139007	1527	1472	1514	1403
1399094289384486547	1527	1470	1514	1402
1399094289404528878	1527	1470	1514	1403
1399094289429543307	1527	1471	1514	1403
1399094289434432761	1526	1470	1514	1403
1399094289454566066	1527	1472	1514	1404
1399094289469527651	1525	1473	1514	1404
1399094289479509713	1524	1474	1514	1405
1399094289489549835	1526	1474	1514	1404
1399094289504522083	1524	1476	1514	1405
1399094289519496727	1523	1476	1514	1405
1399094289534592806	1522	1476	1514	1406
1399094289554568134	1520	1478	1514	1406
1399094289569615275	1521	1479	1514	1406
1399094289584582354	1521	1480	1514	1406
1399094289594553299	1517	1484	1514	1406
1399094289604486417	1518	1485	1514	1405
1399094289619658683	1519	1484	1514	1405
1399094289634649458	1521	1484	1514	1405
1399094289644490937	1521	1483	1514	1405
1399094289654499632	1522	1485	1514	1405
1399094289659491004	1522	1484	1514	1405
1399094289669469191	1524	1484	1514	1405
1399094289679487936	1524	1484	1514	1405
1399094289684497129	1525	1483	1514	1405
1399094289704745618	1528	1486	1514	1405
1399094289709448649	1529	1486	1514	1405
1399094289719488909	1529	1485	1514	1404
1399094289734582758	1529	1486	1514	1404
1399094289754574730	1529	1488	1514	1404
1399094289759459653	1529	1488	1514	1405
1399094289769585298	1528	1488	1514	1404
1399094289784468140	1528	1487	1514	1404
1399094289804684418	1529	1487	1514	1404
1399094289819544795	1528	1486	1514	1404
1399094289829511853	1528	1484	1514	1404
1399094289849572874	1528	1484	1514	1404
1399094289854526482	1530	1481	1514	1404
1399094289859536298	1529	1480	1514	1404
1399094289869512689	1530	1480	1514	1404
1399094289879326796	1530	1478	1514	1403
1399094289884490026	1529	1478	1514	1405
1399094289894464067	1531	1474	1514	1403
1399094289904493798	1529	1474	1514	1404
1399094289909423903	1530	1474	1514	1404
1399094289924534444	1529	1473	1514	1404
1399094289929480578	1530	1474	1514	1404
1399094289939538440	1530	1469	1514	1403
1399094289944480562	1531	1470	1514	1404
1399094289954490109	1529	1470	1514	1404
1399094289959410069	1531	1470	1514	1404
1399094289974506817	1529	1469	1514	1404
1399094289979523344	1531	1469	1514	1403
1399094289989491591	1533	1467	1514	1404
1399094290004523579	1533	1466	1514	1404
1399094290014493323	1531	1466	1514	1404
1399094290034581319	1530	1466	1514	1405
1399094290054558923	1527	1462	1514	1405
1399094290059493815	1526	1462	1514	1405
1399094290084563849	1527	1463	1514	1405
1399094290094368736	1525	1464	1514	1405
1399094290104482248	1526	1466	1514	1406
1399094290109437522	1524	1463	1514	1405
1399094290129526525	1525	1466	1514	1406
1399094290134476268	1526	1467	1514	1406
1399094290154519887	1525	1465	1514	1406
1399094290159628789	1525	1465	1514	1406
1399094290169486496	1525	1468	1514	1407
1399094290179534208	1526	1467	1514	1407
1399094290189463102	1524	1472	1514	1407
1399094290204520757	1525	1472	1514	1407
1399094290209473691	1525	1474	1514	1407
1399094290219543005	1524	1475	1514	1408
1399094290234574636	1525	1476	1514	1408
1399094290254555582	1524	1483	1514	1409
1399094290269566861	1524	1484	1514	1409
1399094290284423041	1523	1486	1514	1410
1399094290304547791	1522	1494	1514	1409
1399094290319374903	1523	1496	1514	1409
1399094290329368687	1522	1497	1514	1410
1399094290339339587	1523	1501	1514	1409
1399094290344386033	1524	1501	1514	1410
1399094290354515727	1524	1499	1514	1409
1399094290364546472	1525	1500	1514	1410
1399094290369468629	1525	1500	1514	1409
1399094290384493745	1525	1498	1514	1409
1399094290409542201	1524	1504	1514	1409
1399094290419500157	1524	1502	1514	1408
1399094290434248381	1524	1498	1514	1407
1399094290454580474	1522	1498	1514	1406
1399094290459527033	1522	1496	1514	1406
1399094290474478116	1521	1494	1514	1406
1399094290484523854	1523	1493	1514	1406
1399094290504531699	1524	1487	1514	1405
1399094290519444630	1525	1486	1514	1405
1399094290534547497	1525	1485	1514	1405
1399094290554571184	1526	1480	1514	1405
1399094290569528832	1526	1479	1514	1405
1399094290579581735	1526	1480	1514	1405
1399094290589552499	1525	1474	1514	1406
1399094290604600367	1524	1476	1514	1406
1399094290619593208	1525	1476	1514	1406
1399094290629507317	1525	1478	1514	1406
1399094290639585463	1526	1477	1514	1406
1399094290644497564	1527	1472	1514	1406
1399094290654460158	1527	1471	1514	1405
1399094290659458604	1527	1472	1514	1406
1399094290669373681	1528	1473	1514	1406
1399094290684557656	1529	1473	1514	1406
1399094290694491832	1533	1470	1514	1406
1399094290704513945	1533	1470	1514	1406
1399094290719534324	1533	1469	1514	1406
1399094290734475629	1533	1468	1514	1405
1399094290744419888	1536	1465	1514	1406
1399094290754452206	1537	1466	1514	1406
1399094290769561264	1537	1465	1514	1406
1399094290784477825	1536	1464	1514	1405
1399094290804493069	1541	1459	1514	1405
1399094290809485219	1540	1459	1514	1406
1399094290824492850	1541	1460	1514	1406
1399094290834565283	1540	1460	1514	1406
1399094290854537831	1539	1455	1514	1406
1399094290859444294	1539	1455	1514	1406
1399094290869383667	1539	1455	1514	1407
1399094290879471538	1537	1455	1514	1407
1399094290889424904	1537	1456	1514	1407
1399094290894489286	1537	1451	1514	1407
1399094290904551996	1538	1453	1514	1408
1399094290909406484	1536	1451	1514	1407
1399094290924479600	1535	1455	1514	1409
1399094290929308705	1533	1454	1514	1409
1399094290939650548	1533	1454	1514	1410
1399094290944398123	1531	1453	1514	1409
1399094290954379688	1530	1455	1514	1410
1399094290959403310	1529	1453	1514	1409
1399094290969388565	1529	1454	1514	1409
1399094290984425408	1527	1454	1514	1409
1399094291004496798	1519	1455	1514	1410
1399094291019505971	1518	1457	1514	1411
1399094291034224529	1518	1458	1514	1411
1399094291044462353	1514	1462	1514	1411
1399094291064421947	1516	1463	1514	1411
1399094291069465860	1517	1465	1514	1411
1399094291079479216	1518	1465	1514	1411
1399094291089604220	1517	1472	1514	1411
1399094291094491903	1518	1470	1514	1410
1399094291104562321	1519	1474	1514	1411
1399094291109473450	1520	1472	1514	1410
1399094291129534997	1522	1474	1514	1411
1399094291134482772	1524	1475	1514	1411
1399094291144509253	1522	1482	1514	1411
1399094291154457674	1525	1483	1514	1411
1399094291159467752	1524	1482	1514	1412
1399094291174502392	1526	1482	1514	1411
1399094291184579025	1526	1482	1514	1411
1399094291194549669	1526	1489	1514	1412
1399094291204528555	1527	1491	1514	1411
1399094291219559575	1526	1490	1514	1412
1399094291234473751	1525	1490	1514	1412
1399094291254583725	1527	1492	1514	1411
1399094291269413435	1527	1490	1514	1410
1399094291284420960	1526	1489	1514	1410
1399094291294205783	1529	1491	1514	1410
1399094291304200011	1528	1489	1514	1409
1399094291319555490	1529	1488	1514	1409
1399094291329225532	1529	1485	1514	1409
1399094291339209051	1529	1483	1514	1409
1399094291344167668	1529	1483	1514	1409
1399094291354573106	1529	1481	1514	1408
1399094291359483880	1527	1481	1514	1409
1399094291369319657	1529	1480	1514	1408
1399094291379323251	1527	1480	1514	1409
1399094291389474022	1529	1475	1514	1408
1399094291394465910	1526	1476	1514	1409
1399094291404538624	1528	1476	1514	1408
1399094291419584908	1527	1475	1514	1409
1399094291434671222	1525	1475	1514	1409
1399094291444507114	1524	1467	1514	1408
1399094291454537043	1526	1470	1514	1409
1399094291469453941	1524	1469	1514	1409
1399094291484563738	1524	1469	1514	1409
1399094291504482555	1528	1466	1514	1409
1399094291519498173	1529	1466	1514	1409
1399094291534638119	1528	1466	1514	1410
1399094291544498036	1529	1464	1514	1409
1399094291554515259	1528	1464	1514	1410
1399094291559424071	1528	1465	1514	1410
1399094291569504692	1527	1465	1514	1410
1399094291584536153	1528	1464	1514	1410
1399094291604639700	1527	1463	1514	1410
1399094291609517165	1529	1462	1514	1410
1399094291619596326	1528	1464	1514	1410
1399094291629495499	1529	1463	1514	1410
1399094291634437233	1528	1465	1514	1410
1399094291654493742	1529	1463	1514	1410
1399094291659496826	1529	1463	1514	1410
1399094291674497536	1527	1465	1514	1411
1399094291684689937	1528	1464	1514	1411
1399094291704548340	1528	1465	1514	1411
1399094291709416868	1527	1467	1514	1411
1399094291719460662	1527	1466	1514	1412
1399094291734477054	1528	1468	1514	1412
1399094291754540307	1528	1471	1514	1412
1399094291759419381	1528	1472	1514	1412
1399094291769495898	1527	1473	1514	1412
1399094291779527267	1528	1472	1514	1413
1399094291789344050	1528	1475	1514	1413
1399094291794446233	1528	1474	1514	1412
1399094291804445732	1528	1475	1514	1413
1399094291819573641	1528	1473	1514	1412
1399094291829527023	1529	1473	1514	1412
1399094291839533353	1526	1476	1514	1413
1399094291844465166	1527	1476	1514	1413
1399094291854562773	1527	1475	1514	1412
1399094291859510708	1526	1475	1514	1413
1399094291869549136	1528	1475	1514	1412
1399094291879524264	1528	1474	1514	1413
1399094291889510728	1528	1476	1514	1412
1399094291894489777	1526	1476	1514	1413
1399094291904468057	1527	1476	1514	1412
1399094291909471522	1527	1477	1514	1413
1399094291919464731	1528	1477	1514	1413
1399094291934446623	1526	1476	1514	1413
1399094291954529142	1526	1480	1514	1413
1399094291959399347	1527	1479	1514	1412
1399094291969538994	1526	1480	1514	1413
1399094291984539987	1526	1479	1514	1413
1399094292004344751	1527	1482	1514	1413
1399094292019479700	1526	1482	1514	1413
1399094292029484387	1527	1482	1514	1413
1399094292034431141	1527	1481	1514	1412
1399094292044541998	1527	1481	1514	1413
1399094292054464148	1527	1479	1514	1412
1399094292064519982	1527	1481	1514	1413
1399094292069423647	1527	1480	1514	1412
1399094292079565456	1528	1481	1514	1413
1399094292084448257	1527	1480	1514	1413
1399094292094503623	1529	1481	1514	1412
1399094292109598260	1528	1481	1514	1413
1399094292119472086	1528	1481	1514	1413
1399094292129498560	1529	1479	1514	1412
1399094292134485865	1529	1480	1514	1413
1399094292144539011	1529	1477	1514	1412
1399094292159449758	1528	1476	1514	1412
1399094292169535808	1529	1475	1514	1411
1399094292179518778	1529	1474	1514	1411
1399094292184450547	1529	1473	1514	1411
1399094292204593314	1530	1468	1514	1411
1399094292219458039	1531	1467	1514	1411
1399094292234534680	1531	1466	1514	1411
1399094292254531974	1533	1460	1514	1411
1399094292259411531	1531	1461	1514	1411
1399094292269374366	1532	1459	1514	1411
1399094292279517969	1531	1461	1514	1411
1399094292289505215	1530	1459	1514	1411
1399094292294511783	1529	1458	1514	1411
1399094292304490401	1529	1458	1514	1412
1399094292309544083	1529	1459	1514	1411
1399094292319522672	1528	1459	1514	1412
1399094292329534922	1529	1459	1514	1412
1399094292339470905	1528	1459	1514	1412
1399094292344458995	1529	1459	1514	1412
1399094292354488557	1530	1451	1514	1412
1399094292359427131	1530	1452	1514	1413
1399094292369480461	1530	1451	1514	1413
1399094292379473840	1529	1452	1514	1412
1399094292389493576	1529	1447	1514	1413
1399094292404552756	1530	1449	1514	1413
1399094292419516074	1530	1450	1514	1414
1399094292434678445	1529	1452	1514	1414
1399094292454528962	1529	1454	1514	1414
1399094292469492144	1529	1455	1514	1414
1399094292484447299	1530	1455	1514	1414
1399094292504597434	1529	1458	1514	1414
1399094292519561835	1529	1458	1514	1414
1399094292534433698	1529	1458	1514	1414
1399094292544528440	1529	1460	1514	1415
1399094292554456935	1530	1460	1514	1414
1399094292559402629	1529	1459	1514	1415
1399094292569433491	1530	1460	1514	1415
1399094292579491968	1529	1460	1514	1415
1399094292589433608	1528	1462	1514	1415
1399094292594474187	1527	1464	1514	1415
1399094292604506480	1529	1464	1514	1415
1399094292609336665	1526	1466	1514	1415
1399094292619508825	1528	1466	1514	1416
1399094292634478277	1528	1466	1514	1416
1399094292644356395	1531	1471	1514	1416
1399094292654534975	1532	1471	1514	1416
1399094292669613181	1531	1472	1514	1416
1399094292684559803	1531	1471	1514	1416
1399094292694491216	1530	1478	1514	1416
1399094292704552651	1528	1478	1514	1417
1399094292719522817	1528	1476	1514	1416
1399094292734522684	1527	1476	1514	1416
1399094292744456934	1525	1479	1514	1416
1399094292764512977	1525	1479	1514	1417
1399094292769451312	1524	1478	1514	1416
1399094292779453019	1525	1477	1514	1416
1399094292784368741	1524	1478	1514	1417
1399094292794454593	1523	1480	1514	1416
1399094292804498056	1522	1480	1514	1417
1399094292809222902	1523	1480	1514	1416
1399094292819445375	1522	1480	1514	1417
1399094292829491277	1523	1481	1514	1416
1399094292834631205	1524	1479	1514	1416
1399094292844674310	1522	1481	1514	1416
1399094292859468078	1523	1483	1514	1416
1399094292869520259	1523	1483	1514	1416
1399094292879497811	1526	1483	1514	1416
1399094292884385314	1524	1483	1514	1416
1399094292894459873	1527	1486	1514	1417
1399094292904547632	1526	1486	1514	1417
1399094292919508518	1526	1487	1514	1417
1399094292929462688	1528	1488	1514	1417
1399094292939453049	1529	1489	1514	1417
1399094292954446981	1528	1490	1514	1417
1399094292969566889	1527	1489	1514	1416
1399094292984489781	1527	1488	1514	1416
1399094293004522081	1526	1488	1514	1416
1399094293009418282	1527	1486	1514	1415
1399094293019528341	1527	1487	1514	1416
1399094293029557890	1527	1486	1514	1415
1399094293034479603	1528	1485	1514	1416
1399094293044507198	1528	1485	1514	1415
1399094293054550545	1528	1486	1514	1416
1399094293059524459	1528	1484	1514	1415
1399094293069474659	1528	1483	1514	1414
1399094293079497301	1527	1482	1514	1415
1399094293094470113	1529	1477	1514	1413
1399094293104514050	1528	1476	1514	1414
1399094293109499350	1528	1475	1514	1414
1399094293119491090	1528	1474	1514	1414
1399094293134510655	1529	1473	1514	1414
1399094293154572320	1530	1464	1514	1414
1399094293159461701	1531	1464	1514	1414
1399094293169589873	1530	1462	1514	1414
1399094293184484860	1530	1463	1514	1414
1399094293204606718	1531	1456	1514	1413
1399094293219569286	1531	1454	1514	1413
1399094293234591589	1530	1455	1514	1414
1399094293254596948	1532	1448	1514	1415
1399094293259513942	1532	1449	1514	1415
1399094293269511810	1532	1449	1514	1416
1399094293279538147	1530	1449	1514	1416
1399094293289581660	1530	1448	1514	1416
1399094293294504520	1530	1449	1514	1415
1399094293304492660	1531	1449	1514	1416
1399094293319555269	1530	1451	1514	1416
1399094293329569310	1529	1452	1514	1416
1399094293334496849	1531	1452	1514	1416
1399094293344515312	1531	1451	1514	1416
1399094293354521771	1532	1451	1514	1416
1399094293369543306	1531	1451	1514	1416
1399094293384543851	1531	1452	1514	1417
1399094293394557464	1532	1452	1514	1417
1399094293404496481	1532	1454	1514	1418
1399094293419504800	1531	1453	1514	1418
1399094293434456768	1531	1455	1514	1418
1399094293454527416	1527	1457	1514	1418
1399094293459492048	1527	1457	1514	1418
1399094293469500802	1525	1458	1514	1418
1399094293479458745	1526	1458	1514	1418
1399094293484511116	1526	1458	1514	1418
1399094293504500706	1526	1460	1514	1419
1399094293514524673	1526	1461	1514	1418
1399094293519473901	1527	1460	1514	1420
1399094293529166352	1526	1460	1514	1419
1399094293539626347	1527	1465	1514	1419
1399094293544360231	1526	1464	1514	1419
1399094293554621463	1527	1465	1514	1419
1399094293559456810	1528	1466	1514	1419
1399094293569502478	1526	1466	1514	1420
1399094293579493985	1528	1465	1514	1419
1399094293594549501	1526	1470	1514	1419
1399094293604514961	1525	1471	1514	1419
1399094293619534071	1525	1470	1514	1419
1399094293634515255	1525	1469	1514	1418
1399094293654474283	1526	1471	1514	1419
1399094293669496988	1526	1471	1514	1419
1399094293684577234	1526	1471	1514	1418
1399094293694554803	1528	1472	1514	1418
1399094293704526878	1528	1469	1514	1418
1399094293709467397	1528	1469	1514	1418
1399094293719544126	1528	1471	1514	1418
1399094293729475358	1529	1470	1514	1418
1399094293734486751	1529	1469	1514	1418
1399094293749452564	1530	1469	1514	1418
1399094293754431041	1529	1468	1514	1418
1399094293759492587	1529	1469	1514	1418
1399094293769543952	1530	1468	1514	1419
1399094293779535573	1529	1469	1514	1419
1399094293789543644	1531	1467	1514	1418
1399094293794414221	1529	1469	1514	1419
1399094293804462054	1531	1468	1514	1418
1399094293809235953	1530	1465	1514	1418
1399094293819241466	1530	1466	1514	1418
1399094293829476940	1530	1465	1514	1418
1399094293834405458	1530	1465	1514	1418
1399094293854527020	1531	1465	1514	1418
1399094293859518710	1530	1465	1514	1417
1399094293869475642	1532	1465	1514	1417
1399094293879528299	1530	1464	1514	1417
1399094293884433037	1532	1464	1514	1418
1399094293904590966	1530	1459	1514	1417
1399094293919551416	1531	1458	1514	1418
1399094293934566347	1531	1457	1514	1418
1399094293954525602	1530	1454	1514	1417
1399094293959382295	1530	1455	1514	1418
1399094293969490276	1530	1453	1514	1417
1399094293984545734	1530	1455	1514	1418
1399094293999571684	1530	1455	1514	1418
1399094294004533289	1532	1452	1514	1417
1399094294009470860	1533	1453	1514	1418
1399094294019485600	1531	1453	1514	1418
1399094294029501046	1532	1454	1514	1418
1399094294034441028	1532	1454	1514	1419
1399094294044492143	1533	1452	1514	1418
1399094294054547411	1535	1451	1514	1418
1399094294059475429	1534	1451	1514	1419
1399094294069522210	1534	1452	1514	1419
1399094294084529200	1534	1452	1514	1419
1399094294104479357	1538	1452	1514	1419
1399094294109410391	1539	1453	1514	1419
1399094294124531931	1536	1453	1514	1419
1399094294134503613	1536	1454	1514	1419
1399094294144510005	1536	1458	1514	1419
1399094294154507896	1536	1458	1514	1420
1399094294169477008	1536	1459	1514	1420
1399094294184528911	1535	1460	1514	1421
1399094294204509874	1537	1465	1514	1421
1399094294219579440	1536	1466	1514	1421
1399094294229616085	1535	1465	1514	1420
1399094294249516265	1536	1468	1514	1421
1399094294254443475	1535	1466	1514	1420
1399094294269520892	1534	1465	1514	1420
1399094294294561219	1534	1463	1514	1420
1399094294304525411	1535	1462	1514	1421
1399094294309485922	1534	1464	1514	1420
1399094294319479633	1536	1463	1514	1421
1399094294334532812	1535	1463	1514	1421
1399094294344473811	1532	1461	1514	1421
1399094294354478465	1533	1462	1514	1420
1399094294369504492	1533	1462	1514	1421
1399094294384562901	1533	1462	1514	1421
1399094294394217286	1533	1462	1514	1421
1399094294404433483	1530	1460	1514	1421
1399094294419498872	1530	1461	1514	1421
1399094294434425593	1529	1461	1514	1421
1399094294439505863	1528	1462	1514	1421
1399094294444462525	1528	1462	1514	1421
1399094294454483496	1528	1462	1514	1421
1399094294459385941	1529	1464	1514	1421
1399094294469499052	1528	1462	1514	1421
1399094294479491165	1529	1463	1514	1421
1399094294489450095	1528	1462	1514	1421
1399094294494422758	1526	1464	1514	1422
1399094294504474952	1528	1463	1514	1421
1399094294509468274	1526	1463	1514	1421
1399094294524560197	1527	1463	1514	1421
1399094294529506288	1526	1463	1514	1421
1399094294539593171	1527	1466	1514	1421
1399094294544554310	1526	1463	1514	1422
1399094294554521350	1527	1465	1514	1421
1399094294559479545	1527	1463	1514	1422
1399094294574485713	1527	1464	1514	1421
1399094294579497783	1527	1464	1514	1422
1399094294589481899	1528	1464	1514	1422
1399094294604470418	1527	1465	1514	1422
1399094294624555633	1527	1466	1514	1422
1399094294629489743	1528	1464	1514	1422
1399094294639579315	1526	1467	1514	1422
1399094294644379473	1529	1467	1514	1422
1399094294654435536	1526	1466	1514	1421
1399094294659414294	1528	1466	1514	1421
1399094294684434950	1527	1465	1514	1421
1399094294689404534	1527	1464	1514	1421
1399094294694402157	1528	1465	1514	1421
1399094294704441472	1528	1463	1514	1421
1399094294709341901	1529	1464	1514	1422
1399094294719504298	1530	1463	1514	1421
1399094294729417194	1530	1464	1514	1422
1399094294739469935	1531	1464	1514	1421
1399094294744439750	1531	1464	1514	1422
1399094294754415578	1532	1464	1514	1422
1399094294764440117	1531	1464	1514	1421
1399094294769560955	1531	1465	1514	1422
1399094294784428779	1531	1464	1514	1421
1399094294794983356	1533	1464	1514	1421
1399094294804477964	1533	1463	1514	1421
1399094294809450894	1531	1463	1514	1422
1399094294819520513	1533	1463	1514	1421
1399094294834440406	1532	1463	1514	1421
1399094294844608953	1533	1461	1514	1421
1399094294854465052	1531	1461	1514	1422
1399094294869459883	1532	1461	1514	1422
1399094294884661833	1533	1461	1514	1422
1399094294904563109	1533	1461	1514	1423
1399094294919539200	1533	1461	1514	1423
1399094294934539985	1533	1462	1514	1423
1399094294944500391	1531	1462	1514	1423
1399094294954561715	1529	1462	1514	1423
1399094294969553179	1529	1463	1514	1423
1399094294994502250	1528	1463	1514	1423
1399094294999460920	1526	1464	1514	1424
1399094295004532666	1526	1463	1514	1423
1399094295009212644	1526	1464	1514	1424
1399094295019604301	1526	1463	1514	1423
1399094295029412940	1526	1464	1514	1424
1399094295034398855	1525	1464	1514	1424
1399094295044401079	1523	1465	1514	1423
1399094295054431591	1523	1465	1514	1424
1399094295059408737	1523	1465	1514	1423
1399094295069467933	1523	1464	1514	1424
1399094295084463274	1524	1464	1514	1424
1399094295094452213	1522	1462	1514	1424
1399094295104428285	1522	1463	1514	1424
1399094295119517089	1523	1462	1514	1424
1399094295134568908	1523	1462	1514	1424
1399094295154545718	1523	1465	1514	1424
1399094295169547812	1523	1466	1514	1424
1399094295184790667	1524	1466	1514	1424
1399094295204523371	1526	1468	1514	1424
1399094295209481035	1527	1468	1514	1424
1399094295229483343	1526	1468	1514	1424
1399094295234482455	1527	1467	1514	1424
1399094295254502261	1526	1472	1514	1424
1399094295264528911	1527	1473	1514	1424
1399094295269449382	1527	1473	1514	1424
1399094295279515210	1526	1472	1514	1424
1399094295284436768	1527	1474	1514	1425
1399094295294508534	1527	1476	1514	1425
1399094295304471365	1528	1477	1514	1425
1399094295319546314	1528	1477	1514	1425
1399094295329564670	1528	1479	1514	1425
1399094295339439134	1527	1478	1514	1425
1399094295354488507	1527	1478	1514	1425
1399094295369457742	1527	1478	1514	1425
1399094295379503234	1526	1478	1514	1425
1399094295384406020	1526	1479	1514	1425
1399094295394495195	1528	1480	1514	1425
1399094295404565016	1526	1480	1514	1426
1399094295419520450	1527	1479	1514	1425
1399094295434448568	1527	1479	1514	1425
1399094295444497188	1526	1480	1514	1425
1399094295454554880	1527	1479	1514	1424
1399094295469531893	1527	1479	1514	1425
1399094295484567560	1527	1478	1514	1425
1399094295494588381	1526	1478	1514	1425
1399094295504573298	1526	1477	1514	1424
1399094295509547673	1527	1476	1514	1424
1399094295524466078	1526	1475	1514	1424
1399094295534591998	1527	1474	1514	1424
1399094295554584157	1528	1470	1514	1423
1399094295559564680	1528	1469	1514	1423
1399094295569537438	1529	1467	1514	1423
1399094295584641532	1529	1468	1514	1423
1399094295604513862	1530	1463	1514	1423
1399094295619517689	1530	1462	1514	1423
1399094295634513529	1530	1462	1514	1423
1399094295644548778	1534	1461	1514	1422
1399094295654462013	1532	1461	1514	1424
1399094295659438140	1533	1462	1514	1422
1399094295669513431	1533	1461	1514	1423
1399094295679533004	1533	1462	1514	1423
1399094295684470229	1533	1461	1514	1422
1399094295699517887	1536	1459	1514	1423
1399094295704381328	1536	1458	1514	1422
1399094295709426430	1535	1458	1514	1423
1399094295719542875	1536	1458	1514	1422
1399094295729463257	1537	1457	1514	1423
1399094295739460254	1536	1458	1514	1423
1399094295744500195	1538	1457	1514	1423
1399094295759440387	1543	1453	1514	1424
1399094295769503844	1543	1454	1514	1424
1399094295779552537	1542	1455	1514	1424
1399094295789586394	1546	1455	1514	1424
1399094295794494748	1544	1455	1514	1425
1399094295804540512	1546	1455	1514	1424
1399094295819470252	1544	1455	1514	1425
1399094295829517557	1543	1455	1514	1424
1399094295839564594	1545	1456	1514	1425
1399094295854451046	1544	1456	1514	1425
1399094295869475614	1543	1456	1514	1425
1399094295889474725	1542	1459	1514	1425
1399094295904429358	1541	1459	1514	1426
1399094295909302671	1541	1460	1514	1426
1399094295934447839	1540	1460	1514	1426
1399094295954343612	1537	1460	1514	1427
1399094295964408690	1537	1459	1514	1426
1399094295969346853	1537	1459	1514	1427
1399094295979532671	1537	1459	1514	1426
1399094295994501575	1532	1458	1514	1427
1399094296004514008	1532	1459	1514	1428
1399094296009499292	1531	1459	1514	1428
1399094296019464619	1532	1459	1514	1428
1399094296029428684	1531	1461	1514	1429
1399094296039502781	1525	1464	1514	1428
1399094296054541969	1525	1464	1514	1429
1399094296069530168	1526	1465	1514	1429
1399094296079532507	1526	1464	1514	1429
1399094296089471737	1521	1469	1514	1429
1399094296104504081	1522	1468	1514	1429
1399094296119485084	1521	1468	1514	1429
1399094296134557175	1521	1469	1514	1429
1399094296154511490	1517	1473	1514	1428
1399094296169563007	1518	1472	1514	1428
1399094296184394201	1520	1472	1514	1428
1399094296194448537	1520	1476	1514	1427
1399094296204454769	1520	1476	1514	1428
1399094296209423262	1522	1476	1514	1428
1399094296219462939	1522	1475	1514	1428
1399094296229515052	1523	1475	1514	1429
1399094296239495658	1523	1477	1514	1428
1399094296244504230	1523	1477	1514	1428
1399094296254516065	1524	1477	1514	1427
1399094296259429068	1525	1476	1514	1427
1399094296269489149	1524	1476	1514	1427
1399094296289496091	1529	1478	1514	1427
1399094296304473159	1529	1478	1514	1427
1399094296319432781	1529	1478	1514	1427
1399094296339622785	1532	1480	1514	1427
1399094296354526879	1533	1479	1514	1427
1399094296369460117	1534	1478	1514	1426
1399094296389413437	1534	1478	1514	1426
1399094296394470727	1534	1478	1514	1426
1399094296404349937	1534	1476	1514	1426
1399094296419339351	1534	1477	1514	1426
1399094296429400018	1534	1476	1514	1426
1399094296439517483	1534	1474	1514	1425
1399094296444459116	1538	1470	1514	1426
1399094296454324254	1539	1469	1514	1425
1399094296464506576	1539	1468	1514	1426
1399094296469310781	1539	1468	1514	1425
1399094296479432977	1538	1466	1514	1425
1399094296484399619	1538	1465	1514	1425
1399094296494556774	1538	1459	1514	1426
1399094296504468593	1539	1459	1514	1425
1399094296524488176	1538	1458	1514	1425
1399094296529941170	1539	1458	1514	1425
1399094296539576257	1539	1458	1514	1425
1399094296554566903	1541	1450	1514	1425
1399094296569491288	1539	1450	1514	1426
1399094296584482181	1538	1450	1514	1426
1399094296604451683	1535	1444	1514	1426
1399094296619439595	1534	1444	1514	1426
1399094296634474511	1533	1445	1514	1426
1399094296644493976	1531	1441	1514	1427
1399094296654402444	1532	1442	1514	1427
1399094296659422376	1532	1442	1514	1428
1399094296669425655	1531	1443	1514	1428
1399094296679391367	1532	1443	1514	1428
1399094296684474749	1532	1446	1514	1428
1399094296694524154	1532	1441	1514	1429
1399094296704446359	1532	1444	1514	1428
1399094296709460321	1532	1442	1514	1429
1399094296719476104	1530	1445	1514	1429
1399094296729369792	1530	1447	1514	1429
1399094296744503133	1531	1448	1514	1430
1399094296754484652	1530	1449	1514	1430
1399094296759503857	1528	1450	1514	1430
1399094296769186898	1528	1451	1514	1430
1399094296779482879	1528	1451	1514	1431
1399094296784447903	1527	1450	1514	1430
1399094296804544035	1526	1464	1514	1431
1399094296819478189	1526	1464	1514	1431
1399094296829576501	1525	1464	1514	1431
1399094296834505839	1525	1464	1514	1431
1399094296854504629	1526	1471	1514	1432
1399094296859436310	1528	1471	1514	1431
1399094296874566619	1527	1470	1514	1430
1399094296884484784	1527	1469	1514	1431
1399094296894570073	1527	1475	1514	1431
1399094296904513590	1525	1473	1514	1431
1399094296919562029	1526	1473	1514	1431
1399094296934499584	1526	1472	1514	1431
1399094296944490909	1520	1474	1514	1431
1399094296954532784	1520	1473	1514	1430
1399094296959575873	1522	1473	1514	1431
1399094296979542159	1522	1472	1514	1430
1399094296989538417	1524	1473	1514	1430
1399094296994513689	1523	1473	1514	1430
1399094297004485660	1525	1472	1514	1430
1399094297009437692	1524	1472	1514	1430
1399094297024458501	1526	1472	1514	1429
1399094297034471388	1525	1470	1514	1429
1399094297054525407	1523	1467	1514	1428
1399094297069528487	1524	1465	1514	1428
1399094297084516088	1524	1465	1514	1428
1399094297104566400	1524	1458	1514	1428
1399094297119527212	1524	1458	1514	1428
1399094297134519501	1526	1458	1514	1428
1399094297144453103	1532	1452	1514	1427
1399094297164512439	1532	1453	1514	1429
1399094297169498464	1533	1452	1514	1428
1399094297179499268	1533	1453	1514	1429
1399094297184482671	1533	1453	1514	1428
1399094297194550202	1536	1455	1514	1429
1399094297204533542	1536	1455	1514	1429
1399094297209479933	1536	1455	1514	1429
1399094297219465790	1536	1455	1514	1429
1399094297229432692	1536	1455	1514	1428
1399094297239532220	1537	1454	1514	1429
1399094297244476814	1535	1455	1514	1428
1399094297254476576	1536	1452	1514	1428
1399094297269492501	1534	1452	1514	1428
1399094297284514318	1534	1452	1514	1428
1399094297304483943	1534	1446	1514	1428
1399094297319564072	1535	1447	1514	1429
1399094297329511694	1534	1448	1514	1429
1399094297334415563	1535	1447	1514	1429
1399094297344491635	1535	1447	1514	1429
1399094297354336148	1537	1446	1514	1429
1399094297369594604	1536	1447	1514	1430
1399094297384548063	1537	1448	1514	1430
1399094297394510028	1539	1447	1514	1430
1399094297404495717	1539	1448	1514	1430
1399094297409437974	1539	1450	1514	1430
1399094297419484303	1538	1448	1514	1430
1399094297434517379	1538	1450	1514	1431
1399094297449486323	1539	1447	1514	1431
1399094297454469360	1538	1448	1514	1431
1399094297459506160	1539	1447	1514	1431
1399094297469602704	1539	1447	1514	1431
1399094297479506002	1537	1448	1514	1431
1399094297484504390	1539	1449	1514	1431
1399094297494517120	1537	1451	1514	1431
1399094297504507242	1538	1452	1514	1431
1399094297519527533	1538	1453	1514	1432
1399094297529544406	1538	1452	1514	1431
1399094297539585578	1535	1456	1514	1432
1399094297554511306	1535	1455	1514	1432
1399094297569597778	1535	1456	1514	1432
1399094297584846869	1535	1457	1514	1432
1399094297604491590	1533	1460	1514	1432
1399094297619571709	1533	1460	1514	1433
1399094297629532834	1533	1461	1514	1433
1399094297639526503	1531	1461	1514	1433
1399094297644457345	1531	1463	1514	1433
1399094297654474366	1531	1461	1514	1433
1399094297664497988	1531	1463	1514	1433
1399094297669418750	1531	1463	1514	1433
1399094297679491230	1531	1465	1514	1434
1399094297684510161	1531	1463	1514	1432
1399094297694529483	1530	1469	1514	1433
1399094297709470044	1530	1469	1514	1433
1399094297719563997	1531	1468	1514	1433
1399094297734517635	1531	1467	1514	1433
1399094297744496587	1532	1470	1514	1433
1399094297754527241	1532	1471	1514	1433
1399094297769478649	1531	1471	1514	1433
1399094297784520635	1531	1470	1514	1433
1399094297804500381	1531	1472	1514	1433
1399094297819494682	1532	1472	1514	1433
1399094297834501866	1532	1472	1514	1433
1399094297854471401	1532	1473	1514	1433
1399094297869418499	1531	1472	1514	1433
1399094297879429297	1532	1471	1514	1432
1399094297899474028	1529	1472	1514	1432
1399094297904409782	1529	1471	1514	1433
1399094297909457091	1530	1470	1514	1432
1399094297919532889	1529	1469	1514	1432
1399094297929463086	1529	1470	1514	1432
1399094297939504804	1530	1467	1514	1432
1399094297944482791	1529	1466	1514	1432
1399094297954514889	1529	1467	1514	1432
1399094297959490482	1530	1465	1514	1432
1399094297969200810	1529	1468	1514	1432
1399094297979501775	1532	1465	1514	1431
1399094297989488254	1529	1466	1514	1432
1399094298004434203	1531	1465	1514	1432
1399094298019526694	1532	1464	1514	1431
1399094298034488992	1533	1464	1514	1432
1399094298044537538	1535	1460	1514	1432
1399094298054517773	1536	1460	1514	1431
1399094298069517451	1537	1460	1514	1431
1399094298084535740	1538	1459	1514	1431
1399094298104558394	1542	1460	1514	1431
1399094298109534769	1541	1461	1514	1431
1399094298124507548	1542	1459	1514	1431
1399094298134508013	1541	1461	1514	1432
1399094298154619738	1537	1456	1514	1431
1399094298159486731	1536	1457	1514	1432
1399094298169556236	1536	1456	1514	1431
1399094298179567510	1537	1456	1514	1432
1399094298184528130	1535	1457	1514	1432
1399094298194447530	1537	1455	1514	1431
1399094298204470087	1536	1456	1514	1432
1399094298209472155	1535	1455	1514	1431
1399094298219558990	1535	1455	1514	1432
1399094298229423518	1536	1455	1514	1432
1399094298234563611	1536	1455	1514	1432
1399094298244500359	1539	1453	1514	1432
1399094298254551907	1538	1455	1514	1433
1399094298269548824	1538	1454	1514	1433
1399094298279560360	1538	1453	1514	1433
1399094298289502243	1537	1453	1514	1434
1399094298304543376	1536	1453	1514	1433
1399094298319570773	1536	1453	1514	1434
1399094298329580827	1535	1455	1514	1434
1399094298339499621	1532	1454	1514	1434
1399094298344442672	1530	1455	1514	1435
1399094298354474058	1531	1456	1514	1434
1399094298364485887	1531	1455	1514	1435
1399094298369409840	1529	1458	1514	1435
1399094298379562832	1529	1457	1514	1435
1399094298389541422	1530	1460	1514	1435
1399094298394479888	1530	1459	1514	1435
1399094298404540508	1529	1460	1514	1436
1399094298409428641	1529	1459	1514	1434
1399094298419501723	1528	1459	1514	1436
1399094298429471472	1526	1459	1514	1435
1399094298439523176	1526	1460	1514	1435
1399094298444514968	1524	1460	1514	1435
1399094298454499021	1524	1461	1514	1436
1399094298459470914	1524	1460	1514	1436
1399094298469500331	1523	1460	1514	1436
1399094298489574626	1521	1462	1514	1436
1399094298504547263	1522	1461	1514	1435
1399094298509552225	1521	1461	1514	1435
1399094298519518460	1523	1460	1514	1435
1399094298539563569	1518	1466	1514	1435
1399094298554569558	1518	1466	1514	1435
1399094298569544171	1520	1466	1514	1436
1399094298579531005	1519	1465	1514	1435
1399094298599497426	1523	1468	1514	1436
1399094298604541115	1522	1467	1514	1436
1399094298609464718	1522	1467	1514	1436
1399094298619517429	1522	1467	1514	1436
1399094298629445837	1522	1466	1514	1436
1399094298634409872	1521	1466	1514	1436
1399094298644504542	1519	1465	1514	1436
1399094298654545333	1517	1464	1514	1435
1399094298659476982	1518	1466	1514	1436
1399094298669504715	1517	1464	1514	1436
1399094298679526855	1517	1466	1514	1436
1399094298694512670	1516	1466	1514	1436
1399094298704443105	1517	1467	1514	1436
1399094298719484777	1517	1467	1514	1436
1399094298729503414	1518	1467	1514	1436
1399094298734467309	1518	1466	1514	1437
1399094298754444377	1518	1466	1514	1436
1399094298769667255	1516	1465	1514	1435
1399094298779424895	1516	1465	1514	1436
1399094298784440411	1516	1465	1514	1435
1399094298804548483	1517	1464	1514	1435
1399094298819526785	1517	1464	1514	1435
1399094298829510934	1516	1465	1514	1435
1399094298839443764	1520	1464	1514	1435
1399094298854505256	1519	1464	1514	1435
1399094298864531445	1520	1463	1514	1435
1399094298869429810	1519	1463	1514	1434
1399094298879457346	1520	1462	1514	1435
1399094298889499900	1520	1458	1514	1434
1399094298894544582	1521	1460	1514	1435
1399094298904527027	1519	1457	1514	1434
1399094298909826079	1520	1460	1514	1435
1399094298919465223	1521	1458	1514	1434
1399094298929433192	1521	1459	1514	1435
1399094298939510077	1520	1458	1514	1435
1399094298944392661	1523	1458	1514	1434
1399094298954467762	1523	1453	1514	1435
1399094298969490838	1525	1454	1514	1435
1399094298979551352	1525	1455	1514	1435
1399094298989539693	1530	1454	1514	1435
1399094299004668190	1529	1454	1514	1435
1399094299019552982	1530	1455	1514	1435
1399094299029553194	1532	1456	1514	1435
1399094299034488017	1532	1456	1514	1436
1399094299054507186	1538	1456	1514	1436
1399094299069490647	1538	1457	1514	1436
1399094299084539848	1536	1458	1514	1436
1399094299094568466	1538	1462	1514	1435
1399094299104526845	1537	1461	1514	1436
1399094299119558460	1537	1462	1514	1436
1399094299134571821	1536	1461	1514	1436
1399094299144531519	1536	1461	1514	1436
1399094299154529566	1536	1461	1514	1435
1399094299159458703	1539	1461	1514	1436
1399094299169495567	1538	1461	1514	1436
1399094299179457501	1539	1462	1514	1436
1399094299189647521	1541	1461	1514	1436
1399094299204549794	1541	1461	1514	1436
1399094299209489212	1541	1462	1514	1436
1399094299219547673	1542	1461	1514	1435
1399094299239382129	1543	1459	1514	1436
1399094299254509707	1544	1459	1514	1435
1399094299269499091	1543	1459	1514	1436
1399094299289556992	1545	1456	1514	1436
1399094299294548868	1546	1457	1514	1437
1399094299304525847	1545	1457	1514	1436
1399094299319548711	1546	1458	1514	1437
1399094299329500138	1545	1458	1514	1436
1399094299349503814	1546	1460	1514	1436
1399094299354480832	1545	1459	1514	1436
1399094299359479198	1545	1459	1514	1436
1399094299369458590	1546	1461	1514	1437
1399094299379527507	1545	1460	1514	1437
1399094299384486264	1544	1461	1514	1436
1399094299394511275	1542	1458	1514	1437
1399094299404557825	1541	1457	1514	1437
1399094299419550478	1542	1457	1514	1437
1399094299429518806	1542	1457	1514	1436
1399094299434546455	1543	1456	1514	1437
1399094299444526826	1540	1457	1514	1436
1399094299454557802	1540	1457	1514	1438
1399094299459525923	1538	1457	1514	1437
1399094299469452296	1539	1457	1514	1437
1399094299484454249	1539	1456	1514	1437
1399094299504475033	1534	1455	1514	1437
1399094299519372172	1534	1455	1514	1437
1399094299529789830	1535	1453	1514	1437
1399094299534493017	1536	1453	1514	1438
1399094299554437375	1530	1455	1514	1437
1399094299559498067	1531	1453	1514	1437
1399094299574424140	1532	1453	1514	1437
1399094299579390841	1533	1451	1514	1438
1399094299589332753	1527	1455	1514	1438
1399094299594499391	1528	1454	1514	1437
1399094299604476270	1528	1454	1514	1438
1399094299609440475	1529	1453	1514	1438
1399094299619453717	1528	1452	1514	1438
1399094299629486646	1529	1453	1514	1438
1399094299634409952	1529	1451	1514	1439
1399094299644536895	1529	1459	1514	1439
1399094299654462321	1530	1457	1514	1438
1399094299659441280	1530	1458	1514	1439
1399094299669491082	1531	1455	1514	1439
1399094299679543557	1533	1455	1514	1440
1399094299684501550	1530	1454	1514	1440
1399094299704503160	1530	1458	1514	1440
1399094299709482590	1532	1455	1514	1439
1399094299719555660	1531	1455	1514	1441
1399094299729485909	1532	1453	1514	1440
1399094299734407009	1532	1454	1514	1440
1399094299754527405	1533	1454	1514	1439
1399094299769560297	1533	1453	1514	1440
1399094299784445860	1534	1453	1514	1440
1399094299804532479	1533	1453	1514	1440
1399094299819498604	1535	1453	1514	1441
1399094299834508750	1534	1451	1514	1440
1399094299844542792	1535	1447	1514	1440
1399094299864542526	1535	1450	1514	1441
1399094299869469564	1535	1449	1514	1440
1399094299884557722	1536	1450	1514	1440
1399094299899437765	1533	1446	1514	1439
1399094299904413682	1534	1447	1514	1438
1399094299909492581	1530	1448	1514	1439
1399094299919531582	1531	1450	1514	1439
1399094299929538932	1530	1450	1514	1438
1399094299934490572	1530	1451	1514	1437
1399094299954561906	1531	1447	1514	1438
1399094299959559587	1530	1449	1514	1438
1399094299974518676	1530	1447	1514	1438
1399094299984505851	1530	1449	1514	1438
1399094300004448418	1524	1451	1514	1437
1399094300019471608	1525	1450	1514	1437
1399094300034477872	1525	1449	1514	1437
1399094300054504828	1529	1452	1514	1437
1399094300069514137	1530	1450	1514	1437
1399094300079507508	1530	1448	1514	1436
1399094300084445993	1530	1447	1514	1437
1399094300094570732	1534	1451	1514	1437
1399094300104506318	1536	1449	1514	1437
1399094300109493808	1535	1448	1514	1438
1399094300124303382	1537	1445	1514	1437
1399094300129367030	1536	1446	1514	1437
1399094300139413646	1539	1446	1514	1438
1399094300144401565	1540	1445	1514	1438
1399094300154384768	1540	1443	1514	1436
1399094300159472544	1541	1443	1514	1437
1399094300174375094	1540	1442	1514	1436
1399094300189392975	1539	1439	1514	1437
1399094300194364283	1540	1439	1514	1438
1399094300204583178	1540	1438	1514	1437
1399094300209450440	1539	1438	1514	1438
1399094300224510001	1541	1437	1514	1437
1399094300229417499	1541	1438	1514	1439
1399094300239404361	1541	1436	1514	1437
1399094300254454576	1542	1436	1514	1438
1399094300269581693	1542	1436	1514	1438
1399094300279436042	1544	1434	1514	1438
1399094300289455291	1540	1436	1514	1439
1399094300294439541	1542	1438	1514	1438
1399094300304422597	1540	1436	1514	1439
1399094300309379809	1542	1435	1514	1439
1399094300319413136	1541	1434	1514	1438
1399094300329672992	1541	1435	1514	1439
1399094300339203962	1543	1434	1514	1438
1399094300344444268	1544	1435	1514	1439
1399094300354377027	1544	1433	1514	1438
1399094300359443472	1543	1434	1514	1439
1399094300369491615	1545	1433	1514	1439
1399094300379485372	1542	1431	1514	1438
1399094300384419432	1545	1432	1514	1439
1399094300394495949	1540	1436	1514	1439
1399094300404489122	1540	1436	1514	1440
1399094300409478769	1541	1433	1514	1438
1399094300419477995	1542	1433	1514	1440
1399094300429484942	1542	1432	1514	1438
1399094300434344742	1543	1433	1514	1439
1399094300454519223	1540	1435	1514	1439
1399094300459467181	1539	1437	1514	1441
1399094300469479201	1540	1433	1514	1439
1399094300484483374	1541	1433	1514	1439
1399094300504587033	1540	1433	1514	1439
1399094300519498666	1541	1433	1514	1439
1399094300534729776	1541	1433	1514	1439
1399094300554562152	1539	1433	1514	1439
1399094300559502316	1540	1430	1514	1438
1399094300569541888	1537	1432	1514	1438
1399094300579486277	1539	1431	1514	1439
1399094300584308606	1538	1430	1514	1439
1399094300594507223	1539	1431	1514	1440
1399094300604249054	1534	1436	1514	1439
1399094300609501730	1536	1433	1514	1439
1399094300629541766	1537	1433	1514	1439
1399094300634472828	1536	1433	1514	1440
1399094300644504260	1532	1440	1514	1438
1399094300654555424	1533	1439	1514	1439
1399094300659475414	1530	1439	1514	1438
1399094300669488815	1531	1438	1514	1439
1399094300684410264	1532	1438	1514	1439
1399094300704580663	1536	1434	1514	1439
1399094300709424153	1533	1436	1514	1440
1399094300719372689	1534	1435	1514	1439
1399094300734538076	1533	1434	1514	1439
1399094300754557032	1534	1436	1514	1439
1399094300769446754	1534	1435	1514	1439
1399094300784423717	1534	1435	1514	1439
1399094300794470217	1532	1436	1514	1439
1399094300804486283	1533	1438	1514	1441
1399094300819463802	1532	1435	1514	1439
1399094300829545192	1532	1434	1514	1439
1399094300839377911	1534	1432	1514	1439
1399094300844216515	1532	1436	1514	1440
1399094300854334712	1534	1431	1514	1439
1399094300859404193	1534	1434	1514	1440
1399094300874466824	1533	1433	1514	1440
1399094300879439308	1535	1433	1514	1439
1399094300889571009	1535	1430	1514	1440
1399094300894534925	1536	1429	1514	1441
1399094300904489589	1535	1431	1514	1441
1399094300909531784	1535	1429	1514	1440
1399094300924503147	1534	1431	1514	1440
1399094300929402851	1535	1431	1514	1442
1399094300939573921	1540	1430	1514	1441
1399094300954499059	1541	1429	1514	1441
1399094300959443778	1540	1429	1514	1441
1399094300974550118	1540	1431	1514	1442
1399094300979404440	1540	1430	1514	1442
1399094300989396751	1541	1428	1514	1441
1399094300994504032	1544	1429	1514	1441
1399094301004458605	1545	1430	1514	1442
1399094301019455862	1545	1429	1514	1442
1399094301034382339	1545	1431	1514	1443
1399094301054472084	1546	1431	1514	1444
1399094301059471045	1546	1429	1514	1442
1399094301069527285	1545	1432	1514	1443
1399094301079235777	1545	1432	1514	1443
1399094301089431756	1547	1430	1514	1444
1399094301094489258	1548	1431	1514	1444
1399094301104484382	1548	1430	1514	1444
1399094301109455145	1547	1433	1514	1444
1399094301119476876	1547	1431	1514	1445
1399094301129519978	1546	1433	1514	1446
1399094301139697100	1539	1437	1514	1444
1399094301154556178	1540	1437	1514	1445
1399094301159488889	1540	1439	1514	1446
1399094301169490357	1540	1439	1514	1445
1399094301189481514	1538	1442	1514	1446
1399094301204490669	1539	1441	1514	1445
1399094301219425422	1539	1441	1514	1446
1399094301239519586	1539	1439	1514	1446
1399094301254504086	1539	1439	1514	1445
1399094301259435318	1538	1440	1514	1445
1399094301284482013	1538	1439	1514	1445
1399094301294521194	1534	1435	1514	1446
1399094301304435408	1534	1436	1514	1444
1399094301309483248	1534	1436	1514	1444
1399094301324570494	1534	1436	1514	1444
1399094301329465024	1534	1434	1514	1444
1399094301339548597	1533	1435	1514	1444
1399094301344447000	1535	1434	1514	1442
1399094301354447488	1534	1435	1514	1445
1399094301359487522	1535	1435	1514	1442
1399094301374424271	1535	1435	1514	1444
1399094301379428316	1535	1435	1514	1442
1399094301389540601	1540	1434	1514	1442
1399094301394490287	1540	1433	1514	1442
1399094301404462782	1540	1434	1514	1442
1399094301409426583	1539	1433	1514	1443
1399094301424475383	1541	1434	1514	1442
1399094301429428622	1540	1432	1514	1442
1399094301439459161	1548	1435	1514	1441
1399094301454507692	1548	1435	1514	1442
1399094301474543421	1548	1434	1514	1442
1399094301479477404	1549	1434	1514	1441
1399094301489444358	1554	1432	1514	1442
1399094301494422257	1554	1433	1514	1441
1399094301509492079	1554	1432	1514	1441
1399094301519475169	1554	1432	1514	1441
1399094301529504394	1554	1434	1514	1442
1399094301539572394	1551	1435	1514	1441
1399094301544461647	1551	1437	1514	1442
1399094301554591020	1551	1435	1514	1440
1399094301564522739	1551	1437	1514	1443
1399094301569520618	1550	1435	1514	1441
1399094301579587621	1551	1436	1514	1442
1399094301584491901	1550	1436	1514	1441
1399094301594482208	1548	1433	1514	1441
1399094301609614107	1548	1433	1514	1441
1399094301619451712	1548	1434	1514	1442
1399094301629522685	1549	1433	1514	1441
1399094301639504325	1542	1431	1514	1441
1399094301654523310	1542	1430	1514	1441
1399094301669496424	1542	1430	1514	1441
1399094301684480353	1542	1429	1514	1441
1399094301704453943	1539	1421	1514	1441
1399094301719570360	1538	1421	1514	1442
1399094301734438254	1538	1421	1514	1442
1399094301754514260	1533	1420	1514	1442
1399094301769509337	1533	1420	1514	1442
1399094301779541910	1534	1420	1514	1442
1399094301789512386	1535	1420	1514	1441
1399094301804498076	1535	1421	1514	1442
1399094301829494436	1535	1420	1514	1442
1399094301834415497	1534	1420	1514	1443
1399094301844521839	1541	1423	1514	1441
1399094301854455890	1539	1423	1514	1442
1399094301859462938	1540	1423	1514	1441
1399094301874527751	1539	1423	1514	1442
1399094301884535739	1540	1423	1514	1441
1399094301904644553	1544	1425	1514	1441
1399094301919533094	1544	1426	1514	1442
1399094301934493580	1544	1426	1514	1442
1399094301954549019	1545	1431	1514	1442
1399094301969340826	1545	1431	1514	1441
1399094301979446826	1544	1430	1514	1440
1399094301989522133	1548	1433	1514	1441
1399094301994460734	1547	1432	1514	1440
1399094302004512079	1548	1432	1514	1441
1399094302019563284	1548	1432	1514	1440
1399094302034511997	1548	1433	1514	1440
1399094302044467722	1548	1435	1514	1440
1399094302054452718	1544	1441	1514	1439
1399094302069443661	1545	1442	1514	1439
1399094302084440344	1546	1441	1514	1439
1399094302094446212	1545	1440	1514	1439
1399094302109533646	1545	1442	1514	1439
1399094302119450512	1545	1441	1514	1438
1399094302129507381	1545	1440	1514	1437
1399094302134497243	1545	1443	1514	1439
1399094302154689999	1547	1442	1514	1438
1399094302169597878	1547	1442	1514	1437
1399094302184638688	1548	1442	1514	1437
1399094302204545674	1544	1438	1514	1437
1399094302219540527	1544	1439	1514	1437
1399094302234366912	1544	1439	1514	1437
1399094302244539069	1546	1435	1514	1438
1399094302264527291	1546	1433	1514	1437
1399094302269423521	1545	1434	1514	1437
1399094302279511257	1546	1434	1514	1438
1399094302284455058	1546	1434	1514	1437
1399094302294475207	1545	1429	1514	1437
1399094302304524180	1546	1430	1514	1437
1399094302319530617	1546	1430	1514	1438
1399094302334565093	1547	1429	1514	1437
1399094302339523648	1542	1427	1514	1438
1399094302344475279	1542	1427	1514	1438
1399094302354521421	1541	1427	1514	1439
1399094302359472265	1542	1427	1514	1439
1399094302369469315	1542	1426	1514	1439
1399094302379503962	1542	1427	1514	1440
1399094302389581566	1544	1426	1514	1439
1399094302404532836	1546	1424	1514	1440
1399094302419735848	1545	1423	1514	1440
1399094302429523028	1546	1423	1514	1441
1399094302439514522	1547	1422	1514	1441
1399094302454580781	1546	1424	1514	1441
1399094302469544942	1545	1424	1514	1441
1399094302479490797	1544	1424	1514	1442
1399094302489550299	1546	1421	1514	1443
1399094302504506523	1547	1420	1514	1442
1399094302509458508	1546	1421	1514	1443
1399094302529912361	1546	1420	1514	1443
1399094302534566668	1545	1420	1514	1443
1399094302544323594	1546	1421	1514	1443
1399094302554501322	1541	1423	1514	1443
1399094302559370988	1541	1422	1514	1443
1399094302579762751	1541	1422	1514	1443
1399094302584519453	1541	1423	1514	1444
1399094302604482185	1536	1430	1514	1443
1399094302609453924	1535	1429	1514	1443
1399094302624477486	1535	1430	1514	1444
1399094302634332610	1536	1428	1514	1443
1399094302654527230	1530	1433	1514	1443
1399094302669503682	1529	1433	1514	1444
1399094302684442576	1529	1433	1514	1443
1399094302704597275	1530	1434	1514	1444
1399094302719510932	1529	1434	1514	1444
1399094302734597585	1529	1435	1514	1444
1399094302744467268	1534	1434	1514	1443
1399094302764554778	1533	1434	1514	1444
1399094302769556751	1533	1435	1514	1444
1399094302784469378	1532	1434	1514	1443
1399094302804544377	1534	1436	1514	1444
1399094302819495211	1534	1436	1514	1444
1399094302829527663	1534	1436	1514	1445
1399094302834497217	1535	1437	1514	1444
1399094302844502737	1537	1431	1514	1445
1399094302854535116	1536	1432	1514	1444
1399094302869527286	1537	1432	1514	1445
1399094302884545791	1538	1432	1514	1445
1399094302904486106	1544	1427	1514	1445
1399094302919525192	1543	1427	1514	1445
1399094302934471470	1543	1429	1514	1445
1399094302954569093	1548	1428	1514	1445
1399094302959538900	1548	1429	1514	1446
1399094302969494064	1547	1428	1514	1445
1399094302979500976	1548	1428	1514	1447
1399094302984441263	1548	1429	1514	1446
1399094303004480058	1549	1430	1514	1446
1399094303014460059	1550	1429	1514	1446
1399094303019416588	1549	1431	1514	1446
1399094303029540701	1549	1428	1514	1445
1399094303034467511	1549	1431	1514	1447
1399094303044361195	1545	1429	1514	1446
1399094303054471881	1546	1429	1514	1447
1399094303059414687	1546	1429	1514	1446
1399094303074523466	1546	1429	1514	1447
1399094303079438879	1546	1430	1514	1446
1399094303089490327	1538	1427	1514	1446
1399094303094541786	1537	1429	1514	1447
1399094303104573687	1538	1426	1514	1446
1399094303109497281	1538	1428	1514	1447
1399094303124446251	1538	1427	1514	1446
1399094303139465602	1537	1424	1514	1447
1399094303144414874	1537	1424	1514	1448
1399094303154442560	1536	1425	1514	1447
1399094303164455680	1537	1423	1514	1447
1399094303174417905	1536	1424	1514	1448
1399094303189464347	1537	1423	1514	1448
1399094303194454438	1534	1426	1514	1447
1399094303204414560	1534	1427	1514	1449
1399094303219564270	1534	1427	1514	1448
1399094303249564738	1533	1427	1514	1448
1399094303254461102	1533	1426	1514	1447
1399094303259543763	1533	1427	1514	1449
1399094303269506423	1532	1425	1514	1447
1399094303279497843	1531	1426	1514	1449
1399094303284446088	1532	1426	1514	1448
1399094303294546165	1533	1426	1514	1448
1399094303304508383	1532	1425	1514	1448
1399094303309449267	1533	1426	1514	1447
1399094303319460122	1532	1425	1514	1449
1399094303329609017	1534	1423	1514	1447
1399094303334395613	1533	1424	1514	1449
1399094303354490785	1532	1418	1514	1448
1399094303359465369	1531	1418	1514	1448
1399094303369517212	1532	1418	1514	1448
1399094303384484271	1532	1417	1514	1448
1399094303404520721	1535	1415	1514	1447
1399094303419466345	1534	1415	1514	1448
1399094303429534512	1534	1415	1514	1447
1399094303434461529	1534	1415	1514	1448
1399094303454477555	1535	1414	1514	1447
1399094303469518135	1535	1412	1514	1447
1399094303484450967	1535	1413	1514	1447
1399094303494505212	1544	1414	1514	1448
1399094303514545848	1544	1413	1514	1447
1399094303519416460	1544	1413	1514	1447
1399094303529848026	1545	1412	1514	1447
1399094303534470376	1544	1413	1514	1447
1399094303544439007	1548	1416	1514	1446
1399094303559454221	1547	1417	1514	1447
1399094303569548123	1548	1416	1514	1447
1399094303584547070	1549	1416	1514	1447
1399094303604584170	1556	1418	1514	1446
1399094303609508484	1554	1418	1514	1446
1399094303624403350	1556	1418	1514	1446
1399094303634555374	1556	1418	1514	1446
1399094303654575081	1555	1419	1514	1446
1399094303669519229	1557	1418	1514	1445
1399094303684514333	1558	1417	1514	1445
1399094303704586866	1554	1419	1514	1445
1399094303719548939	1555	1419	1514	1445
1399094303729594515	1556	1420	1514	1445
1399094303749527464	1552	1419	1514	1445
1399094303754515160	1553	1418	1514	1445
1399094303769491108	1553	1419	1514	1445
1399094303779558532	1552	1419	1514	1445
1399094303784515094	1553	1419	1514	1445
1399094303794573656	1550	1421	1514	1445
1399094303804539536	1552	1420	1514	1444
1399094303809555984	1551	1420	1514	1445
1399094303819540356	1552	1421	1514	1444
1399094303829546126	1551	1421	1514	1445
1399094303834533992	1552	1421	1514	1444
1399094303854573506	1547	1418	1514	1444
1399094303869482396	1547	1418	1514	1444
1399094303884473086	1548	1419	1514	1444
1399094303904555219	1549	1422	1514	1445
1399094303919466115	1549	1423	1514	1444
1399094303934427921	1548	1422	1514	1444
1399094303944449627	1545	1425	1514	1444
1399094303954479640	1545	1425	1514	1444
1399094303959405753	1544	1425	1514	1444
1399094303969394348	1544	1426	1514	1445
1399094303984439585	1544	1426	1514	1445
1399094303999534575	1539	1428	1514	1445
1399094304004504602	1539	1428	1514	1444
1399094304009426253	1540	1428	1514	1445
1399094304019480390	1539	1428	1514	1444
1399094304029490828	1539	1428	1514	1445
1399094304034403047	1539	1428	1514	1444
1399094304044463718	1540	1428	1514	1444
1399094304054432061	1539	1428	1514	1445
1399094304059431745	1540	1428	1514	1444
