#Time	 Roll 	 Pitch 	 Yaw 	 Thrust
1399091078687052004	1520	1516	1926	1105
1399091078787327255	1520	1516	1926	1105
1399091078887534149	1520	1516	1926	1105
1399091078987747957	1520	1516	1926	1105
1399091079087963919	1520	1516	1926	1105
1399091079188167055	1520	1516	1926	1105
1399091079288377101	1520	1516	1926	1105
1399091079388581383	1520	1516	1513	1105
1399091085992298949	1507	1525	1514	1378
1399091085997357886	1506	1526	1514	1378
1399091086007344059	1506	1526	1514	1378
1399091086017541801	1507	1525	1514	1378
1399091086022319386	1506	1526	1514	1378
1399091086037416172	1507	1525	1514	1378
1399091086042370081	1506	1525	1514	1378
1399091086047179312	1506	1525	1514	1378
1399091086057192550	1506	1525	1514	1378
1399091086067168593	1507	1525	1514	1378
1399091086072182527	1506	1525	1514	1378
1399091086082210371	1506	1525	1514	1378
1399091086097267381	1506	1526	1514	1378
1399091086112133523	1506	1525	1514	1378
1399091086117185147	1506	1525	1514	1378
1399091086122229845	1506	1526	1514	1378
1399091086132174977	1506	1525	1514	1378
1399091086142191689	1507	1526	1514	1378
1399091086147194655	1507	1526	1514	1378
1399091086162245663	1508	1526	1514	1378
1399091086177296306	1507	1526	1514	1378
1399091086182167357	1508	1526	1514	1378
1399091086192226704	1507	1526	1514	1378
1399091086197180180	1507	1525	1514	1378
1399091086212219437	1507	1525	1514	1378
1399091086217176756	1507	1525	1514	1378
1399091086227239168	1507	1525	1514	1378
1399091086232210976	1507	1526	1514	1378
1399091086242178949	1507	1526	1514	1378
1399091086247192127	1507	1525	1514	1378
1399091086272281790	1507	1525	1514	1378
1399091086282263520	1507	1525	1514	1378
1399091086292260584	1507	1526	1514	1378
1399091086297214579	1508	1526	1514	1379
1399091086307261702	1508	1524	1514	1378
1399091086322249707	1508	1526	1514	1378
1399091086327201551	1507	1526	1514	1377
1399091086332159905	1509	1525	1514	1378
1399091086342231541	1508	1527	1514	1378
1399091086347166136	1507	1527	1514	1378
1399091086357184174	1508	1526	1514	1377
1399091086367268449	1507	1526	1514	1377
1399091086377204204	1506	1526	1514	1378
1399091086382201934	1507	1527	1514	1378
1399091086392227497	1507	1525	1514	1378
1399091086397172540	1507	1526	1514	1377
1399091086412172501	1508	1526	1514	1378
1399091086417158045	1508	1526	1514	1378
1399091086427226878	1508	1527	1514	1378
1399091086432186815	1507	1525	1514	1377
1399091086442174236	1508	1527	1514	1378
1399091086447145878	1508	1525	1514	1377
1399091086462148520	1508	1527	1514	1378
1399091086467145647	1508	1526	1514	1377
1399091086477170617	1508	1526	1514	1378
1399091086482159727	1507	1526	1514	1377
1399091086492196295	1508	1526	1514	1456
1399091086497181829	1507	1526	1514	1381
1399091086512216134	1509	1526	1514	1381
1399091086517190725	1508	1526	1514	1381
1399091086527395158	1508	1526	1514	1381
1399091086532542372	1507	1525	1514	1380
1399091086542567723	1508	1527	1514	1381
1399091086547491731	1507	1527	1514	1381
1399091086557537897	1508	1527	1514	1381
1399091086567535788	1508	1527	1514	1381
1399091086577527761	1508	1526	1514	1380
1399091086582469525	1507	1527	1514	1381
1399091086592554587	1508	1526	1514	1380
1399091086602462803	1508	1526	1514	1381
1399091086612499090	1507	1527	1514	1381
1399091086617403814	1508	1525	1514	1381
1399091086632457626	1508	1526	1514	1381
1399091086642187440	1507	1526	1514	1381
1399091086647410510	1508	1526	1514	1381
1399091086662421607	1507	1526	1514	1381
1399091086667364642	1508	1527	1514	1381
1399091086677336197	1508	1528	1514	1381
1399091086692487923	1507	1526	1514	1381
1399091086697445519	1507	1526	1514	1381
1399091086712453368	1507	1527	1514	1381
1399091086717228951	1507	1525	1514	1381
1399091086727415206	1507	1527	1514	1381
1399091086732265373	1507	1526	1514	1381
1399091086742428871	1507	1526	1514	1381
1399091086747293344	1507	1526	1514	1381
1399091086757472640	1508	1526	1514	1381
1399091086767399287	1507	1526	1514	1381
1399091086772462544	1508	1527	1514	1381
1399091086787468644	1507	1527	1514	1381
1399091086792510994	1508	1526	1514	1381
1399091086797416161	1508	1526	1514	1381
1399091086807551627	1508	1525	1514	1381
1399091086817364352	1508	1526	1514	1381
1399091086827262936	1508	1527	1514	1381
1399091086832389845	1508	1526	1514	1381
1399091086842498518	1508	1527	1514	1381
1399091086847380701	1508	1526	1514	1381
1399091086857446911	1508	1527	1514	1381
1399091086867446190	1508	1526	1514	1381
1399091086877393424	1508	1527	1514	1381
1399091086882405596	1508	1526	1514	1381
1399091086892447591	1508	1526	1514	1382
1399091086897329432	1508	1526	1514	1381
1399091086912378037	1508	1526	1514	1381
1399091086927214425	1508	1525	1514	1381
1399091086932378525	1508	1526	1514	1381
1399091086942578601	1508	1527	1514	1381
1399091086947402948	1509	1526	1514	1381
1399091086962500399	1507	1527	1514	1381
1399091086967361036	1510	1527	1514	1381
1399091086977345717	1508	1526	1514	1381
1399091086982379078	1510	1527	1514	1381
1399091086992299818	1507	1526	1514	1457
1399091086997349426	1509	1527	1514	1384
1399091087007171087	1507	1526	1514	1384
1399091087022390433	1508	1526	1514	1384
1399091087027232830	1507	1525	1514	1384
1399091087032406255	1508	1528	1514	1384
1399091087042425100	1508	1526	1514	1384
1399091087062520895	1508	1527	1514	1384
1399091087067251325	1509	1528	1514	1384
1399091087077384850	1507	1526	1514	1384
1399091087082388922	1508	1527	1514	1384
1399091087102448503	1508	1527	1514	1384
1399091087112401325	1507	1526	1514	1384
1399091087117398465	1508	1527	1514	1385
1399091087127263427	1507	1526	1514	1384
1399091087132396461	1508	1527	1514	1384
1399091087147388022	1508	1525	1514	1384
1399091087162465260	1509	1526	1514	1384
1399091087167349499	1509	1527	1514	1385
1399091087177352760	1507	1526	1514	1384
1399091087182390031	1509	1527	1514	1384
1399091087192436753	1508	1526	1514	1385
1399091087197402028	1508	1526	1514	1384
1399091087212466884	1508	1527	1514	1385
1399091087217411815	1508	1526	1514	1384
1399091087227316516	1508	1527	1514	1384
1399091087232403636	1508	1527	1514	1385
1399091087257477718	1508	1526	1514	1384
1399091087267445810	1508	1527	1514	1384
1399091087272397473	1508	1527	1514	1384
1399091087282523444	1508	1527	1514	1384
1399091087292500681	1508	1528	1514	1385
1399091087302465522	1507	1527	1514	1384
1399091087312516220	1508	1527	1514	1384
1399091087317461838	1508	1527	1514	1384
1399091087322384526	1508	1527	1514	1384
1399091087332230301	1508	1526	1514	1384
1399091087342418410	1508	1526	1514	1385
1399091087347182438	1508	1524	1514	1384
1399091087362490698	1507	1525	1514	1384
1399091087367244504	1508	1525	1514	1385
1399091087377356103	1508	1525	1514	1384
1399091087382421320	1508	1526	1514	1384
1399091087392307948	1508	1527	1514	1385
1399091087397392624	1508	1527	1514	1384
1399091087412466347	1508	1527	1514	1385
1399091087417353648	1508	1527	1514	1384
1399091087427480790	1507	1527	1514	1385
1399091087432399526	1508	1528	1514	1385
1399091087442437462	1508	1526	1514	1384
1399091087447392995	1508	1527	1514	1385
1399091087462513979	1508	1527	1514	1385
1399091087467391980	1508	1526	1514	1384
1399091087477510311	1509	1527	1514	1385
1399091087482490878	1508	1526	1514	1384
1399091087492492601	1508	1527	1514	1457
1399091087497379582	1508	1526	1514	1387
1399091087507225130	1508	1526	1514	1387
1399091087517418020	1507	1527	1514	1388
1399091087522494454	1507	1526	1514	1388
1399091087537502522	1508	1527	1514	1388
1399091087542384391	1507	1526	1514	1387
1399091087547439302	1507	1527	1514	1387
1399091087557450274	1508	1527	1514	1388
1399091087567504851	1509	1526	1514	1387
1399091087577417608	1508	1526	1514	1388
1399091087582508401	1510	1526	1514	1388
1399091087592437385	1507	1526	1514	1388
1399091087597363015	1510	1525	1514	1388
1399091087617440659	1508	1525	1514	1388
1399091087627380431	1507	1525	1514	1388
1399091087632433502	1509	1526	1514	1388
1399091087642450767	1507	1526	1514	1387
1399091087647475513	1509	1526	1514	1388
1399091087662466417	1508	1526	1514	1388
1399091087667395028	1509	1527	1514	1388
1399091087677412262	1508	1526	1514	1387
1399091087682377011	1509	1527	1514	1388
1399091087692507725	1508	1526	1514	1388
1399091087712446554	1508	1526	1514	1388
1399091087717511650	1508	1527	1514	1388
1399091087727412293	1508	1525	1514	1388
1399091087732368962	1508	1526	1514	1388
1399091087742416058	1507	1525	1514	1388
1399091087747405331	1507	1526	1514	1388
1399091087757298366	1508	1526	1514	1388
1399091087772441535	1508	1527	1514	1388
1399091087777529169	1508	1527	1514	1388
1399091087782436653	1508	1527	1514	1388
1399091087792474274	1509	1526	1514	1388
1399091087802434258	1509	1526	1514	1388
1399091087812213479	1509	1526	1514	1388
1399091087817396783	1510	1525	1514	1388
1399091087827222863	1509	1526	1514	1388
1399091087832470099	1509	1525	1514	1387
1399091087842380047	1508	1526	1514	1388
1399091087847380163	1509	1526	1514	1388
1399091087862281868	1508	1526	1514	1388
1399091087877477351	1509	1525	1514	1388
1399091087882521167	1510	1524	1514	1388
1399091087892422754	1509	1526	1514	1388
1399091087897454637	1510	1526	1514	1388
1399091087912302629	1510	1526	1514	1388
1399091087927406812	1509	1526	1514	1388
1399091087932419865	1510	1526	1514	1388
1399091087942440184	1509	1526	1514	1388
1399091087947468546	1509	1526	1514	1388
1399091087962433012	1508	1525	1514	1388
1399091087967244918	1507	1526	1514	1388
1399091087977428729	1508	1526	1514	1388
1399091087982387052	1507	1526	1514	1388
1399091087992507946	1508	1526	1514	1458
1399091088002276490	1508	1526	1514	1392
1399091088012427376	1509	1525	1514	1391
1399091088017449985	1508	1525	1514	1392
1399091088022411091	1510	1525	1514	1391
1399091088032455205	1507	1525	1514	1391
1399091088042440746	1509	1526	1514	1391
1399091088047411757	1507	1526	1514	1391
1399091088062464317	1509	1526	1514	1391
1399091088067401969	1507	1527	1514	1391
1399091088082479492	1507	1527	1514	1392
1399091088092340950	1509	1526	1514	1392
1399091088097412360	1507	1525	1514	1392
1399091088112497479	1509	1525	1514	1392
1399091088117433488	1509	1524	1514	1392
1399091088127195054	1510	1525	1514	1392
1399091088132398578	1508	1524	1514	1391
1399091088142416307	1510	1525	1514	1391
1399091088162568154	1510	1525	1514	1391
1399091088167218131	1510	1526	1514	1392
1399091088177338408	1509	1525	1514	1391
1399091088182360462	1509	1526	1514	1392
1399091088192472528	1509	1526	1514	1392
1399091088197469525	1509	1527	1514	1392
1399091088207391926	1508	1526	1514	1391
1399091088222429635	1509	1526	1514	1392
1399091088232406952	1510	1526	1514	1392
1399091088242457325	1510	1526	1514	1392
1399091088247296407	1508	1526	1514	1391
1399091088257413838	1508	1526	1514	1392
1399091088272482791	1508	1526	1514	1391
1399091088277385185	1509	1526	1514	1392
1399091088282385914	1508	1526	1514	1392
1399091088292438475	1509	1526	1514	1392
1399091088297310688	1510	1526	1514	1392
1399091088312515161	1510	1526	1514	1392
1399091088317510384	1510	1526	1514	1393
1399091088322234559	1511	1527	1514	1392
1399091088332341545	1510	1525	1514	1392
1399091088342428128	1510	1527	1514	1392
1399091088352527844	1508	1524	1514	1392
1399091088362445606	1510	1526	1514	1392
1399091088367425096	1508	1524	1514	1392
1399091088377402538	1510	1526	1514	1392
1399091088382380609	1508	1524	1514	1392
1399091088392392862	1510	1525	1514	1392
1399091088397404904	1508	1523	1514	1392
1399091088412406277	1510	1525	1514	1393
1399091088417304163	1508	1524	1514	1393
1399091088427380151	1511	1525	1514	1392
1399091088432368392	1509	1524	1514	1392
1399091088442417153	1511	1526	1514	1392
1399091088447202252	1508	1525	1514	1392
1399091088457389635	1511	1526	1514	1392
1399091088477446184	1510	1525	1514	1392
1399091088482480612	1508	1525	1514	1392
1399091088502565052	1509	1525	1514	1459
1399091088512464883	1509	1525	1514	1396
1399091088517371071	1508	1524	1514	1395
1399091088527404854	1510	1525	1514	1396
1399091088532524429	1509	1524	1514	1395
1399091088542491617	1509	1524	1514	1395
1399091088547236005	1510	1524	1514	1396
1399091088557423661	1511	1524	1514	1396
1399091088567425505	1509	1524	1514	1395
1399091088577404607	1510	1524	1514	1395
1399091088582351016	1510	1525	1514	1395
1399091088592319867	1509	1525	1514	1395
1399091088597492481	1510	1526	1514	1396
1399091088612431232	1509	1525	1514	1396
1399091088627485166	1509	1526	1514	1396
1399091088632467993	1510	1526	1514	1396
1399091088642463180	1510	1524	1514	1396
1399091088647287638	1511	1526	1514	1396
1399091088662464837	1510	1525	1514	1396
1399091088667386492	1510	1525	1514	1395
1399091088672421716	1511	1525	1514	1396
1399091088682417577	1510	1526	1514	1396
1399091088692467289	1510	1525	1514	1396
1399091088697204184	1510	1525	1514	1396
1399091088707426785	1509	1525	1514	1396
1399091088717498896	1510	1524	1514	1396
1399091088722397757	1510	1525	1514	1396
1399091088737458896	1510	1525	1514	1396
1399091088742383709	1510	1526	1514	1396
1399091088747414450	1508	1525	1514	1395
1399091088762510078	1509	1528	1514	1396
1399091088767241971	1508	1526	1514	1395
1399091088777411713	1510	1527	1514	1396
1399091088782355145	1508	1525	1514	1395
1399091088792496044	1511	1526	1514	1396
1399091088797413239	1510	1524	1514	1396
1399091088812468930	1510	1525	1514	1396
1399091088817460432	1510	1524	1514	1396
1399091088827485201	1510	1525	1514	1397
1399091088832452494	1509	1524	1514	1396
1399091088847515848	1511	1525	1514	1396
1399091088862472449	1511	1525	1514	1396
1399091088867446144	1511	1525	1514	1396
1399091088877349457	1511	1524	1514	1396
1399091088882496364	1511	1525	1514	1396
1399091088897578400	1509	1525	1514	1396
1399091088912546879	1510	1524	1514	1396
1399091088917452311	1510	1525	1514	1397
1399091088927439450	1509	1525	1514	1396
1399091088932461333	1510	1526	1514	1397
1399091088942380701	1508	1525	1514	1396
1399091088947266901	1510	1525	1514	1397
1399091088972468422	1510	1525	1514	1397
1399091088982388790	1511	1525	1514	1397
1399091088992521310	1509	1525	1514	1460
1399091088997533660	1511	1524	1514	1399
1399091089007450159	1510	1525	1514	1399
1399091089017399021	1510	1522	1514	1398
1399091089027161879	1510	1525	1514	1400
1399091089032366183	1510	1524	1514	1399
1399091089042423620	1510	1524	1514	1400
1399091089047394865	1510	1523	1514	1400
1399091089062462491	1511	1524	1514	1400
1399091089067360634	1509	1523	1514	1400
1399091089082462366	1510	1525	1514	1400
1399091089092416349	1512	1526	1514	1400
1399091089102551474	1510	1524	1514	1399
1399091089112432038	1511	1526	1514	1400
1399091089117356336	1510	1524	1514	1400
1399091089127356343	1511	1525	1514	1399
1399091089142339106	1510	1525	1514	1400
1399091089147455382	1510	1524	1514	1400
1399091089162469828	1510	1525	1514	1400
1399091089167387773	1510	1525	1514	1400
1399091089172346849	1512	1524	1514	1401
1399091089182534963	1510	1523	1514	1400
1399091089192466164	1511	1524	1514	1400
1399091089207458818	1511	1524	1514	1400
1399091089217454261	1510	1524	1514	1400
1399091089222382291	1509	1524	1514	1400
1399091089232248620	1509	1524	1514	1400
1399091089242422296	1509	1524	1514	1400
1399091089247412530	1510	1525	1514	1401
1399091089257344213	1508	1524	1514	1399
1399091089267442389	1510	1523	1514	1400
1399091089277324198	1510	1524	1514	1400
1399091089282536103	1510	1522	1514	1400
1399091089292414446	1510	1525	1514	1401
1399091089297394873	1511	1522	1514	1401
1399091089317400472	1509	1524	1514	1401
1399091089327381525	1510	1525	1514	1401
1399091089332230767	1510	1524	1514	1400
1399091089342404956	1510	1524	1514	1401
1399091089347308811	1510	1523	1514	1400
1399091089362427754	1510	1525	1514	1401
1399091089367352972	1510	1523	1514	1399
1399091089377427502	1510	1526	1514	1401
1399091089382350263	1510	1525	1514	1401
1399091089392497477	1510	1525	1514	1400
1399091089397452942	1510	1526	1514	1401
1399091089412487305	1510	1525	1514	1401
1399091089417417339	1511	1525	1514	1401
1399091089427464868	1510	1524	1514	1401
1399091089432387537	1511	1525	1514	1401
1399091089442481778	1509	1524	1514	1401
1399091089447496947	1510	1525	1514	1401
1399091089457353654	1510	1524	1514	1401
1399091089467460566	1510	1524	1514	1401
1399091089472442314	1510	1524	1514	1401
1399091089482459788	1510	1524	1514	1401
1399091089497527254	1510	1523	1514	1462
1399091089512398191	1511	1524	1514	1404
1399091089517492830	1511	1524	1514	1405
1399091089527505449	1511	1524	1514	1404
1399091089532689431	1510	1524	1514	1404
1399091089542516635	1512	1524	1514	1404
1399091089547366757	1509	1523	1514	1404
1399091089562452520	1510	1524	1514	1404
1399091089567228341	1509	1523	1514	1404
1399091089577325960	1510	1524	1514	1405
1399091089582326592	1508	1524	1514	1404
1399091089597452595	1511	1523	1514	1404
1399091089612447362	1510	1524	1514	1405
1399091089617300854	1509	1524	1514	1405
1399091089627392284	1510	1523	1514	1404
1399091089632352281	1510	1525	1514	1405
1399091089642441326	1510	1522	1514	1404
1399091089647365782	1510	1524	1514	1405
1399091089662587367	1510	1523	1514	1404
1399091089667376540	1511	1524	1514	1405
1399091089677380900	1511	1524	1514	1404
1399091089682344638	1511	1525	1514	1405
1399091089692446236	1509	1524	1514	1404
1399091089697374589	1511	1524	1514	1405
1399091089707460074	1510	1524	1514	1404
1399091089717484590	1510	1524	1514	1405
1399091089722461544	1511	1525	1514	1405
1399091089737416315	1510	1523	1514	1405
1399091089742296048	1511	1525	1514	1406
1399091089747373012	1510	1523	1514	1404
1399091089762445035	1510	1524	1514	1406
1399091089767290073	1510	1523	1514	1405
1399091089772380514	1510	1524	1514	1405
1399091089782487852	1509	1523	1514	1405
1399091089792394073	1511	1523	1514	1405
1399091089797310548	1510	1524	1514	1405
1399091089817496844	1512	1524	1514	1405
1399091089827471874	1510	1525	1514	1405
1399091089832299022	1510	1525	1514	1405
1399091089842480865	1510	1525	1514	1405
1399091089847360672	1510	1525	1514	1405
1399091089862442439	1510	1524	1514	1405
1399091089877415962	1510	1522	1514	1405
1399091089882371494	1510	1523	1514	1406
1399091089892516607	1510	1522	1514	1405
1399091089897392533	1511	1522	1514	1405
1399091089907459427	1510	1523	1514	1406
1399091089917484064	1511	1523	1514	1405
1399091089922433552	1510	1524	1514	1406
1399091089932474667	1511	1524	1514	1406
1399091089942514637	1511	1525	1514	1406
1399091089947461336	1512	1524	1514	1405
1399091089957439767	1511	1524	1514	1406
1399091089972494607	1511	1525	1514	1406
1399091089977412376	1511	1524	1514	1406
1399091089982422700	1511	1524	1514	1406
1399091089992493320	1511	1523	1514	1464
1399091089997398435	1510	1523	1514	1409
1399091090012457716	1510	1522	1514	1409
1399091090017405054	1511	1524	1514	1410
1399091090027308224	1511	1522	1514	1408
1399091090032402408	1510	1524	1514	1409
1399091090042316381	1511	1523	1514	1409
1399091090047418262	1511	1524	1514	1409
1399091090062380774	1510	1523	1514	1408
1399091090077427594	1510	1524	1514	1409
1399091090082498589	1511	1523	1514	1409
1399091090092489059	1510	1524	1514	1410
1399091090097427231	1511	1523	1514	1409
1399091090112446263	1512	1524	1514	1410
1399091090117207169	1510	1522	1514	1409
1399091090127478523	1512	1523	1514	1410
1399091090132246167	1511	1523	1514	1409
1399091090142392566	1512	1523	1514	1410
1399091090147385117	1511	1522	1514	1409
1399091090157571610	1512	1522	1514	1410
1399091090167339994	1511	1523	1514	1410
1399091090172453853	1512	1522	1514	1410
1399091090182235691	1510	1524	1514	1410
1399091090192491639	1511	1524	1514	1410
1399091090197369723	1510	1525	1514	1410
1399091090212481657	1510	1524	1514	1410
1399091090217390516	1510	1524	1514	1410
1399091090227490995	1510	1523	1514	1410
1399091090232375276	1511	1524	1514	1410
1399091090242450767	1509	1522	1514	1409
1399091090252463009	1510	1523	1514	1410
1399091090262434079	1509	1523	1514	1409
1399091090267271923	1510	1523	1514	1410
1399091090277410427	1510	1523	1514	1410
1399091090282347711	1509	1523	1514	1410
1399091090297440134	1511	1523	1514	1410
1399091090312439898	1511	1523	1514	1411
1399091090317445103	1511	1524	1514	1410
1399091090327504388	1512	1522	1514	1410
1399091090332447140	1512	1523	1514	1410
1399091090342474758	1511	1522	1514	1410
1399091090362532205	1511	1523	1514	1410
1399091090367492174	1512	1523	1514	1411
1399091090377377876	1511	1522	1514	1410
1399091090382271305	1512	1523	1514	1410
1399091090392151021	1510	1523	1514	1410
1399091090397180713	1512	1523	1514	1411
1399091090407203751	1510	1523	1514	1411
1399091090417249512	1511	1524	1514	1411
1399091090422205243	1510	1524	1514	1411
1399091090432195475	1511	1524	1514	1411
1399091090442220299	1512	1523	1514	1411
1399091090447226024	1511	1522	1514	1410
1399091090462224697	1512	1523	1514	1411
1399091090467197449	1511	1522	1514	1410
1399091090472238460	1513	1523	1514	1411
1399091090487251670	1512	1522	1514	1466
1399091090492118230	1512	1522	1514	1413
1399091090497148914	1512	1523	1514	1414
1399091090512231169	1512	1522	1514	1413
1399091090517204195	1513	1522	1514	1414
1399091090522223472	1512	1522	1514	1413
1399091090532309606	1513	1521	1514	1414
1399091090542498994	1512	1520	1514	1414
1399091090547475410	1512	1520	1514	1414
1399091090562508513	1510	1521	1514	1414
1399091090567412770	1512	1521	1514	1414
1399091090577428522	1510	1522	1514	1414
1399091090582440954	1510	1522	1514	1414
1399091090592397165	1510	1522	1514	1415
1399091090597422602	1508	1522	1514	1414
1399091090612426686	1510	1523	1514	1415
1399091090617428380	1509	1523	1514	1415
1399091090622402358	1510	1522	1514	1415
1399091090632477865	1510	1523	1514	1415
1399091090642462776	1510	1523	1514	1415
1399091090662527015	1511	1522	1514	1415
1399091090667488600	1512	1523	1514	1415
1399091090677507872	1511	1522	1514	1415
1399091090682399820	1513	1521	1514	1415
1399091090692454063	1512	1522	1514	1415
1399091090697446457	1512	1521	1514	1415
1399091090707203214	1511	1522	1514	1414
1399091090722220081	1513	1521	1514	1415
1399091090727162110	1511	1522	1514	1415
1399091090732168178	1511	1521	1514	1415
1399091090742208220	1511	1521	1514	1415
1399091090747203500	1511	1521	1514	1415
1399091090757250087	1511	1522	1514	1416
1399091090767200714	1510	1522	1514	1415
1399091090777257727	1511	1522	1514	1416
1399091090782201189	1511	1522	1514	1416
1399091090797242874	1511	1522	1514	1416
1399091090812206028	1511	1521	1514	1415
1399091090817169222	1512	1522	1514	1416
1399091090827220312	1511	1521	1514	1415
1399091090832144834	1512	1521	1514	1416
1399091090842218336	1511	1522	1514	1415
1399091090862571488	1512	1522	1514	1416
1399091090867402469	1511	1521	1514	1415
1399091090877525520	1511	1523	1514	1416
1399091090882538881	1511	1521	1514	1415
1399091090907526770	1510	1521	1514	1416
1399091090917529985	1511	1521	1514	1416
1399091090922258067	1512	1520	1514	1416
1399091090942442034	1512	1521	1514	1416
1399091090952397039	1513	1521	1514	1417
1399091090962386317	1511	1520	1514	1415
1399091090967462045	1512	1522	1514	1417
1399091090972408434	1511	1522	1514	1416
1399091090982490107	1512	1522	1514	1417
1399091090992403660	1510	1523	1514	1468
1399091090997451205	1510	1523	1514	1419
1399091091012473806	1509	1524	1514	1420
1399091091017385029	1509	1523	1514	1419
1399091091027434872	1509	1523	1514	1420
1399091091032378244	1509	1523	1514	1420
1399091091042467469	1509	1521	1514	1419
1399091091047445008	1511	1521	1514	1420
1399091091062414149	1510	1519	1514	1419
1399091091067415887	1512	1521	1514	1420
1399091091077519157	1510	1519	1514	1419
1399091091092516399	1512	1521	1514	1420
1399091091097424728	1513	1521	1514	1420
1399091091112534720	1511	1521	1514	1419
1399091091117405912	1513	1522	1514	1420
1399091091127441049	1511	1522	1514	1419
1399091091132398188	1512	1522	1514	1419
1399091091142322505	1511	1523	1514	1420
1399091091147484238	1510	1522	1514	1420
1399091091157442035	1510	1522	1514	1420
1399091091167518817	1510	1522	1514	1420
1399091091172425202	1510	1521	1514	1421
1399091091187545717	1510	1522	1514	1421
1399091091192445864	1510	1521	1514	1420
1399091091197437446	1511	1521	1514	1421
1399091091212452012	1510	1520	1514	1420
1399091091217326248	1510	1521	1514	1421
1399091091222364956	1510	1521	1514	1420
1399091091232445207	1511	1521	1514	1421
1399091091242430688	1510	1520	1514	1420
1399091091247357843	1511	1520	1514	1420
1399091091262333519	1511	1521	1514	1421
1399091091267333368	1511	1521	1514	1420
1399091091277370247	1512	1522	1514	1421
1399091091282364512	1512	1521	1514	1420
1399091091292474225	1512	1521	1514	1421
1399091091297388999	1512	1520	1514	1420
1399091091312577737	1512	1520	1514	1420
1399091091317140654	1513	1520	1514	1420
1399091091327220781	1513	1519	1514	1419
1399091091332456162	1514	1520	1514	1420
1399091091342518202	1514	1520	1514	1419
1399091091347374190	1516	1520	1514	1420
1399091091362441837	1514	1520	1514	1420
1399091091367434504	1517	1520	1514	1421
1399091091377544586	1515	1521	1514	1420
1399091091382406811	1517	1520	1514	1420
1399091091392468749	1520	1519	1514	1420
1399091091397419156	1520	1519	1514	1420
1399091091407475825	1520	1520	1514	1420
1399091091417520152	1521	1520	1514	1420
1399091091422430065	1520	1519	1514	1420
1399091091432501698	1520	1520	1514	1421
1399091091442457101	1520	1519	1514	1420
1399091091447476758	1521	1519	1514	1421
1399091091457436287	1521	1519	1514	1421
1399091091467462008	1521	1519	1514	1421
1399091091477219135	1521	1519	1514	1421
1399091091482396140	1521	1519	1514	1421
1399091091492429959	1520	1519	1514	1471
1399091091497364890	1521	1519	1514	1424
1399091091512468200	1521	1520	1514	1425
1399091091517370844	1520	1518	1514	1424
1399091091527379780	1520	1519	1514	1425
1399091091532684408	1519	1519	1514	1425
1399091091547468121	1520	1518	1514	1425
1399091091562410026	1520	1517	1514	1425
1399091091567468399	1519	1518	1514	1426
1399091091577438178	1519	1517	1514	1425
1399091091582314108	1519	1518	1514	1427
1399091091592453185	1516	1518	1514	1426
1399091091597323749	1517	1520	1514	1427
1399091091607464671	1514	1520	1514	1427
1399091091617422240	1514	1519	1514	1427
1399091091622433692	1513	1520	1514	1426
1399091091642598736	1512	1519	1514	1427
1399091091647373306	1511	1518	1514	1427
1399091091657344915	1511	1520	1514	1428
1399091091667222403	1511	1518	1514	1427
1399091091677162228	1512	1519	1514	1428
1399091091682182929	1512	1519	1514	1428
1399091091692154299	1510	1521	1514	1428
1399091091702173150	1511	1521	1514	1428
1399091091712206207	1511	1520	1514	1427
1399091091717263142	1512	1520	1514	1428
1399091091722237709	1513	1521	1514	1427
1399091091732160698	1513	1520	1514	1426
1399091091742239770	1511	1521	1514	1427
1399091091747252346	1510	1520	1514	1426
1399091091762205857	1511	1521	1514	1427
1399091091767188845	1511	1520	1514	1426
1399091091777180996	1511	1519	1514	1426
1399091091782164565	1512	1520	1514	1426
1399091091797229925	1512	1520	1514	1426
1399091091812275343	1513	1520	1514	1426
1399091091817193804	1513	1520	1514	1427
1399091091827367209	1512	1520	1514	1426
1399091091832442288	1513	1519	1514	1427
1399091091842547971	1513	1521	1514	1427
1399091091847499838	1514	1519	1514	1426
1399091091857515989	1514	1521	1514	1427
1399091091867518557	1513	1519	1514	1426
1399091091872338243	1514	1520	1514	1427
1399091091887589853	1512	1520	1514	1427
1399091091892418822	1514	1519	1514	1427
1399091091897432487	1514	1519	1514	1427
1399091091912562203	1513	1518	1514	1427
1399091091917469128	1513	1519	1514	1427
1399091091922470717	1513	1518	1514	1427
1399091091937458944	1513	1518	1514	1427
1399091091942490091	1513	1517	1514	1427
1399091091952451305	1514	1517	1514	1428
1399091091962398782	1513	1517	1514	1427
1399091091967331340	1513	1517	1514	1428
1399091091972309055	1514	1518	1514	1428
1399091091982387454	1514	1517	1514	1427
1399091091997548013	1513	1518	1514	1474
1399091092012546033	1512	1518	1514	1431
1399091092017415728	1512	1518	1514	1431
1399091092032538494	1512	1518	1514	1431
1399091092042456629	1512	1518	1514	1431
1399091092047471392	1513	1519	1514	1432
1399091092062425570	1512	1519	1514	1432
1399091092067409028	1512	1518	1514	1431
1399091092077453673	1512	1519	1514	1432
1399091092082463198	1511	1517	1514	1431
1399091092092455213	1511	1520	1514	1432
1399091092097428510	1509	1517	1514	1431
1399091092122495572	1511	1518	1514	1432
1399091092132435670	1511	1517	1514	1431
1399091092142411793	1510	1517	1514	1431
1399091092147379663	1511	1518	1514	1432
1399091092162417399	1509	1516	1514	1430
1399091092167336279	1511	1516	1514	1431
1399091092177342401	1511	1516	1514	1431
1399091092182394929	1512	1516	1514	1431
1399091092192410134	1514	1515	1514	1430
1399091092202445093	1514	1515	1514	1431
1399091092212508633	1514	1515	1514	1431
1399091092217332616	1514	1515	1514	1431
1399091092227524070	1515	1515	1514	1432
1399091092232352987	1515	1515	1514	1430
1399091092242583411	1516	1514	1514	1431
1399091092247492736	1518	1515	1514	1431
1399091092262617128	1516	1514	1514	1431
1399091092277544199	1517	1514	1514	1431
1399091092282555115	1517	1514	1514	1431
1399091092292371913	1517	1513	1514	1431
1399091092297497548	1517	1512	1514	1430
1399091092312486721	1518	1513	1514	1431
1399091092317493603	1517	1512	1514	1431
1399091092327514393	1516	1511	1514	1431
1399091092332480639	1518	1511	1514	1430
1399091092342485329	1521	1506	1514	1430
1399091092347341693	1523	1507	1514	1431
1399091092357493160	1521	1506	1514	1430
1399091092367572383	1523	1506	1514	1431
1399091092372332564	1522	1507	1514	1430
1399091092382268620	1522	1507	1514	1431
1399091092392507128	1528	1505	1514	1430
1399091092412518783	1528	1505	1514	1430
1399091092417464019	1528	1503	1514	1430
1399091092427439212	1529	1506	1514	1432
1399091092432436787	1529	1504	1514	1430
1399091092442440711	1530	1500	1514	1431
1399091092447376912	1531	1499	1514	1430
1399091092462543964	1530	1500	1514	1432
1399091092467518185	1530	1499	1514	1430
1399091092477458973	1530	1499	1514	1430
1399091092482414428	1531	1501	1514	1432
1399091092497584593	1531	1504	1514	1477
1399091092512531354	1533	1502	1514	1433
1399091092517363503	1533	1503	1514	1435
1399091092527507484	1534	1503	1514	1434
1399091092532648803	1534	1503	1514	1434
1399091092547513424	1537	1501	1514	1435
1399091092562496920	1538	1502	1514	1435
1399091092567367548	1538	1501	1514	1435
1399091092577298987	1536	1502	1514	1435
1399091092582446848	1536	1501	1514	1435
1399091092592442521	1541	1500	1514	1435
1399091092602524037	1541	1498	1514	1435
1399091092607420017	1542	1499	1514	1435
1399091092627457363	1541	1499	1514	1435
1399091092632373859	1540	1499	1514	1435
1399091092642473490	1543	1495	1514	1435
1399091092647459975	1542	1496	1514	1435
1399091092662453454	1543	1495	1514	1435
1399091092667408609	1543	1497	1514	1436
1399091092677507648	1542	1496	1514	1436
1399091092682444284	1542	1496	1514	1436
1399091092692497184	1543	1495	1514	1436
1399091092697472834	1542	1495	1514	1437
1399091092712339337	1540	1492	1514	1436
1399091092717427194	1540	1493	1514	1437
1399091092727441018	1539	1492	1514	1437
1399091092732438426	1539	1492	1514	1437
1399091092742381567	1538	1489	1514	1438
1399091092747160676	1539	1490	1514	1437
1399091092762410543	1538	1490	1514	1438
1399091092767416019	1538	1489	1514	1437
1399091092777413413	1538	1491	1514	1438
1399091092792497675	1540	1489	1514	1438
1399091092797399549	1539	1490	1514	1437
1399091092812452410	1540	1490	1514	1437
1399091092817420253	1540	1491	1514	1438
1399091092827449447	1539	1490	1514	1437
1399091092832365706	1540	1492	1514	1437
1399091092842445311	1540	1491	1514	1438
1399091092847399114	1540	1492	1514	1438
1399091092857407997	1540	1491	1514	1437
1399091092867453610	1541	1492	1514	1438
1399091092872473732	1541	1491	1514	1437
1399091092882455762	1540	1491	1514	1438
1399091092892517703	1541	1491	1514	1438
1399091092902197345	1541	1491	1514	1438
1399091092912480919	1542	1491	1514	1438
1399091092917408851	1541	1492	1514	1438
1399091092927465189	1542	1492	1514	1439
1399091092932398420	1541	1491	1514	1438
1399091092942527249	1543	1492	1514	1439
1399091092947395436	1542	1492	1514	1438
1399091092962218663	1544	1491	1514	1438
1399091092967148947	1542	1491	1514	1439
1399091092977180020	1545	1490	1514	1439
1399091092982171873	1544	1490	1514	1439
1399091092992260723	1542	1492	1514	1481
1399091092997178938	1543	1490	1514	1442
1399091093012369333	1543	1489	1514	1443
1399091093027330654	1543	1489	1514	1442
1399091093032365272	1542	1489	1514	1443
1399091093042270503	1539	1488	1514	1442
1399091093047251933	1537	1487	1514	1442
1399091093062244727	1539	1488	1514	1442
1399091093067206197	1537	1488	1514	1443
1399091093077191353	1538	1488	1514	1443
1399091093082130013	1536	1488	1514	1443
1399091093092212870	1537	1488	1514	1444
1399091093097269804	1533	1487	1514	1443
1399091093112531603	1533	1487	1514	1444
1399091093117386271	1532	1487	1514	1444
1399091093122412583	1532	1487	1514	1444
1399091093137485222	1531	1486	1514	1444
1399091093142271774	1527	1484	1514	1445
1399091093147528017	1526	1484	1514	1445
1399091093162503889	1527	1484	1514	1444
1399091093167436880	1526	1484	1514	1445
1399091093177488441	1525	1483	1514	1445
1399091093182406941	1526	1484	1514	1445
1399091093192520188	1519	1483	1514	1444
1399091093202394983	1521	1483	1514	1445
1399091093212417230	1519	1483	1514	1445
1399091093217362721	1520	1483	1514	1446
1399091093227435489	1519	1484	1514	1445
1399091093232360425	1519	1483	1514	1446
1399091093247425710	1513	1481	1514	1446
1399091093262529804	1512	1479	1514	1445
1399091093267344296	1513	1480	1514	1446
1399091093277275532	1511	1481	1514	1446
1399091093282206451	1513	1479	1514	1444
1399091093292232581	1508	1483	1514	1448
1399091093297215214	1507	1482	1514	1446
1399091093312266176	1508	1484	1514	1446
1399091093317235088	1505	1482	1514	1445
1399091093327257557	1507	1483	1514	1446
1399091093332219717	1506	1485	1514	1446
1399091093342209449	1500	1488	1514	1447
1399091093347206127	1499	1492	1514	1447
1399091093357238649	1498	1489	1514	1446
1399091093372245897	1500	1492	1514	1447
1399091093377208129	1497	1490	1514	1444
1399091093392226868	1497	1494	1514	1445
1399091093397224952	1497	1495	1514	1447
1399091093412210935	1499	1496	1514	1446
1399091093417183229	1499	1495	1514	1447
1399091093427415312	1500	1497	1514	1446
1399091093432387612	1499	1495	1514	1445
1399091093442443981	1495	1497	1514	1445
1399091093447479454	1495	1498	1514	1445
1399091093462520442	1496	1498	1514	1447
1399091093477472814	1495	1498	1514	1446
1399091093482435316	1495	1497	1514	1445
1399091093492479492	1500	1497	1514	1484
1399091093497456167	1495	1501	1514	1449
1399091093512545275	1494	1500	1514	1448
1399091093527511850	1495	1501	1514	1448
1399091093532550778	1495	1501	1514	1449
1399091093542490435	1496	1499	1514	1448
1399091093547456578	1495	1500	1514	1447
1399091093557542183	1495	1500	1514	1449
1399091093567534332	1495	1500	1514	1448
1399091093572383577	1495	1501	1514	1448
1399091093582500148	1493	1501	1514	1447
1399091093592263471	1492	1504	1514	1448
1399091093612444082	1492	1503	1514	1448
1399091093617482749	1491	1503	1514	1447
1399091093627405682	1490	1504	1514	1447
1399091093632414957	1489	1502	1514	1448
1399091093642455271	1488	1505	1514	1448
1399091093647467545	1487	1503	1514	1447
1399091093657492967	1486	1505	1514	1448
1399091093667454129	1486	1504	1514	1448
1399091093677397284	1485	1503	1514	1447
1399091093682484216	1483	1504	1514	1447
1399091093692258618	1483	1502	1514	1448
1399091093697490746	1476	1502	1514	1448
1399091093712538746	1478	1500	1514	1447
1399091093717325559	1474	1501	1514	1447
1399091093727525663	1475	1498	1514	1446
1399091093732407932	1475	1499	1514	1448
1399091093742497711	1467	1501	1514	1445
1399091093747452131	1467	1502	1514	1447
1399091093762470172	1464	1502	1514	1447
1399091093777480222	1465	1502	1514	1447
1399091093782462378	1465	1501	1514	1447
1399091093792314162	1464	1497	1514	1446
1399091093797413114	1462	1498	1514	1445
1399091093812441090	1461	1498	1514	1446
1399091093817423542	1461	1500	1514	1448
1399091093822422453	1459	1499	1514	1446
1399091093842566241	1462	1499	1514	1446
1399091093847511073	1459	1499	1514	1445
1399091093862495188	1459	1501	1514	1447
1399091093867443832	1458	1500	1514	1445
1399091093877536080	1458	1497	1514	1444
1399091093882438159	1458	1498	1514	1445
1399091093892346864	1456	1499	1514	1446
1399091093897293862	1468	1499	1514	1446
1399091093912422388	1469	1498	1514	1444
1399091093917265184	1468	1497	1514	1445
1399091093927378345	1466	1498	1514	1444
1399091093932417645	1465	1496	1514	1444
1399091093942194836	1471	1496	1514	1445
1399091093947424651	1471	1493	1514	1443
1399091093962460415	1470	1494	1514	1444
1399091093967234452	1469	1496	1514	1445
1399091093977375583	1467	1494	1514	1444
1399091093982364803	1469	1493	1514	1443
1399091093997510984	1498	1492	1514	1488
1399091094012468775	1474	1488	1514	1446
1399091094017414015	1474	1487	1514	1445
1399091094027425297	1476	1488	1514	1446
1399091094032428106	1472	1487	1514	1446
1399091094042478245	1474	1489	1514	1444
1399091094047402867	1473	1487	1514	1443
1399091094072470434	1473	1489	1514	1445
1399091094082555775	1473	1487	1514	1442
1399091094092521047	1469	1491	1514	1444
1399091094097470515	1470	1494	1514	1444
1399091094112478162	1466	1489	1514	1442
1399091094117460687	1467	1491	1514	1443
1399091094122386812	1467	1490	1514	1442
1399091094137472725	1468	1490	1514	1443
1399091094142528948	1473	1494	1514	1441
1399091094152498620	1472	1495	1514	1443
1399091094162322362	1472	1494	1514	1442
1399091094167440555	1473	1493	1514	1441
1399091094172396573	1475	1494	1514	1441
1399091094182593579	1474	1493	1514	1441
1399091094192524250	1473	1490	1514	1442
1399091094202262102	1473	1489	1514	1440
1399091094212493550	1475	1490	1514	1442
1399091094217385846	1478	1489	1514	1441
1399091094227356877	1474	1487	1514	1439
1399091094232386124	1474	1489	1514	1440
1399091094242500233	1481	1484	1514	1439
1399091094247392506	1483	1484	1514	1440
1399091094262461229	1484	1485	1514	1440
1399091094267340041	1484	1483	1514	1440
1399091094277287258	1482	1485	1514	1440
1399091094282355727	1482	1482	1514	1439
1399091094292349321	1490	1485	1514	1440
1399091094297436099	1491	1483	1514	1439
1399091094307416589	1492	1484	1514	1439
1399091094317481022	1492	1483	1514	1440
1399091094322392200	1490	1483	1514	1439
1399091094332380099	1490	1483	1514	1438
1399091094347454916	1491	1486	1514	1439
1399091094357395723	1493	1486	1514	1439
1399091094367506175	1494	1486	1514	1439
1399091094377247435	1493	1485	1514	1438
1399091094382487649	1493	1485	1514	1438
1399091094397432108	1492	1487	1514	1438
1399091094412515957	1493	1486	1514	1438
1399091094417493967	1494	1485	1514	1437
1399091094427454030	1495	1486	1514	1438
1399091094432378679	1496	1485	1514	1437
1399091094447456312	1502	1483	1514	1438
1399091094452431312	1502	1485	1514	1437
1399091094462513726	1503	1484	1514	1439
1399091094467401144	1504	1482	1514	1436
1399091094477257218	1504	1481	1514	1437
1399091094482445708	1506	1482	1514	1436
1399091094497513059	1525	1492	1514	1492
1399091094502376553	1510	1481	1514	1441
1399091094512503016	1510	1480	1514	1440
1399091094517392272	1513	1480	1514	1441
1399091094527411534	1513	1480	1514	1439
1399091094532662966	1515	1477	1514	1439
1399091094542565670	1524	1481	1514	1439
1399091094547409986	1527	1482	1514	1440
1399091094557375432	1527	1482	1514	1439
1399091094567221090	1529	1481	1514	1440
1399091094572222792	1532	1482	1514	1440
1399091094592279706	1540	1480	1514	1439
1399091094597187053	1542	1480	1514	1439
1399091094612263880	1544	1482	1514	1441
1399091094617178979	1545	1481	1514	1441
1399091094627260295	1548	1479	1514	1440
1399091094632183647	1548	1479	1514	1441
1399091094642189530	1560	1480	1514	1439
1399091094652191178	1561	1481	1514	1442
1399091094662188141	1563	1480	1514	1441
1399091094667187223	1564	1479	1514	1441
1399091094677229748	1566	1480	1514	1441
1399091094682217009	1568	1481	1514	1441
1399091094692225888	1568	1477	1514	1441
1399091094697166238	1571	1476	1514	1440
1399091094712465176	1574	1477	1514	1442
1399091094717432556	1575	1479	1514	1442
1399091094727400740	1577	1476	1514	1441
1399091094732366663	1580	1478	1514	1443
1399091094742409847	1581	1478	1514	1443
1399091094747427144	1584	1476	1514	1443
1399091094762425958	1585	1473	1514	1441
1399091094767500735	1587	1477	1514	1445
1399091094777567514	1591	1477	1514	1444
1399091094782445447	1590	1475	1514	1444
1399091094792426674	1592	1478	1514	1444
1399091094802385289	1592	1476	1514	1444
1399091094807362697	1596	1477	1514	1445
1399091094817450211	1596	1478	1514	1445
1399091094822426271	1599	1474	1514	1444
1399091094837499096	1600	1477	1514	1445
1399091094842435773	1604	1478	1514	1447
1399091094847519883	1605	1473	1514	1443
1399091094862257063	1608	1480	1514	1448
1399091094867387043	1609	1474	1514	1445
1399091094872439224	1613	1476	1514	1447
1399091094887452364	1613	1478	1514	1447
1399091094892388032	1616	1472	1514	1445
1399091094897258048	1618	1477	1514	1448
1399091094912507487	1619	1472	1514	1446
1399091094917500552	1623	1476	1514	1449
1399091094932334797	1626	1474	1514	1448
1399091094942447546	1626	1473	1514	1447
1399091094947434512	1627	1475	1514	1450
1399091094962446526	1629	1473	1514	1448
1399091094967345411	1633	1474	1514	1451
1399091094977448242	1634	1473	1514	1448
1399091094982388001	1633	1474	1514	1451
1399091094992391333	1598	1488	1514	1496
1399091094997387821	1637	1471	1514	1455
1399091095012412164	1639	1471	1514	1453
1399091095017425003	1641	1471	1514	1456
1399091095027546291	1641	1469	1514	1453
1399091095032455002	1644	1471	1514	1456
1399091095042478985	1647	1470	1514	1456
1399091095047384138	1647	1467	1514	1456
1399091095057197759	1649	1470	1514	1456
1399091095072538301	1649	1467	1514	1456
1399091095077312973	1653	1468	1514	1457
1399091095082427538	1656	1469	1514	1459
1399091095092233521	1652	1466	1514	1458
1399091095097506777	1652	1469	1514	1459
1399091095107488112	1654	1467	1514	1459
1399091095117471070	1656	1467	1514	1459
1399091095127528567	1657	1467	1514	1460
1399091095132363199	1660	1467	1514	1459
1399091095142432805	1657	1472	1514	1464
1399091095147408218	1658	1468	1514	1459
1399091095157405797	1660	1469	1514	1462
1399091095167416999	1663	1470	1514	1463
1399091095177327109	1663	1469	1514	1462
1399091095182417845	1665	1469	1514	1463
1399091095192473778	1658	1467	1514	1462
1399091095197314574	1660	1467	1514	1464
1399091095212263093	1662	1470	1514	1465
1399091095217507800	1662	1467	1514	1464
1399091095227395010	1664	1466	1514	1465
1399091095232457345	1665	1468	1514	1465
1399091095242490113	1666	1467	1514	1466
1399091095247386926	1664	1466	1514	1465
1399091095262389726	1668	1468	1514	1468
1399091095267505799	1667	1466	1514	1466
1399091095277129373	1670	1466	1514	1466
1399091095282369534	1672	1469	1514	1470
1399091095307482689	1673	1470	1514	1469
1399091095312180947	1673	1469	1514	1470
1399091095317402834	1675	1470	1514	1468
1399091095327519753	1675	1470	1514	1471
1399091095332409219	1678	1470	1514	1471
1399091095342416994	1672	1471	1514	1470
1399091095347429305	1674	1474	1514	1473
1399091095362520034	1673	1472	1514	1471
1399091095367412538	1675	1472	1514	1472
1399091095372413666	1675	1473	1514	1473
1399091095382416577	1677	1470	1514	1472
1399091095392391544	1672	1474	1514	1474
1399091095397416721	1671	1475	1514	1475
1399091095412400679	1672	1473	1514	1474
1399091095417423020	1674	1474	1514	1475
1399091095432491324	1674	1474	1514	1477
1399091095442467942	1666	1476	1514	1476
1399091095447229972	1667	1477	1514	1476
1399091095462457408	1666	1477	1514	1478
1399091095467534216	1669	1477	1514	1478
1399091095477444006	1668	1476	1514	1478
1399091095482456764	1669	1479	1514	1480
1399091095492440527	1588	1492	1514	1500
1399091095497405459	1660	1478	1514	1482
1399091095512427371	1661	1477	1514	1483
1399091095517335781	1661	1477	1514	1483
1399091095542517573	1656	1474	1514	1485
1399091095547337860	1657	1472	1514	1483
1399091095557360995	1657	1476	1514	1488
1399091095577524086	1657	1475	1514	1486
1399091095582456783	1657	1474	1514	1486
1399091095592164027	1645	1478	1514	1487
1399091095597372963	1644	1477	1514	1488
1399091095617439402	1646	1478	1514	1488
1399091095627160140	1645	1479	1514	1489
1399091095632364764	1645	1476	1514	1487
1399091095642259330	1638	1479	1514	1490
1399091095652175230	1638	1478	1514	1489
1399091095667501577	1639	1479	1514	1491
1399091095677223517	1636	1479	1514	1491
1399091095682425220	1638	1479	1514	1489
1399091095692321044	1626	1481	1514	1492
1399091095697401828	1623	1483	1514	1492
1399091095712246533	1625	1482	1514	1491
1399091095717258970	1624	1483	1514	1493
1399091095727281434	1622	1483	1514	1492
1399091095732342033	1622	1483	1514	1493
1399091095742391536	1611	1486	1514	1492
1399091095747354575	1612	1487	1514	1493
1399091095757536579	1609	1487	1514	1493
1399091095772502318	1609	1487	1514	1493
1399091095782403507	1610	1488	1514	1495
1399091095792434087	1598	1486	1514	1494
1399091095807509679	1596	1487	1514	1494
1399091095812439089	1598	1487	1514	1495
1399091095817325229	1592	1487	1514	1494
1399091095827426230	1594	1486	1514	1494
1399091095832431577	1592	1489	1514	1498
1399091095842426010	1577	1485	1514	1494
1399091095852407867	1579	1488	1514	1497
1399091095862538803	1574	1488	1514	1495
1399091095867428648	1574	1487	1514	1496
1399091095877480732	1571	1490	1514	1497
1399091095882419390	1568	1488	1514	1495
1399091095892472330	1559	1487	1514	1496
1399091095897484187	1557	1488	1514	1496
1399091095912489152	1555	1488	1514	1498
1399091095917427543	1553	1487	1514	1495
1399091095927267795	1550	1487	1514	1496
1399091095932429734	1550	1486	1514	1494
1399091095942478640	1543	1487	1514	1496
1399091095947477578	1538	1485	1514	1492
1399091095962469580	1537	1483	1514	1491
1399091095967424935	1536	1482	1514	1492
1399091095977418491	1535	1481	1514	1489
1399091095982534952	1534	1481	1514	1489
1399091095992447185	1502	1488	1514	1504
1399091095997215149	1551	1469	1514	1489
1399091096012529098	1551	1472	1514	1489
1399091096017467162	1548	1473	1514	1486
1399091096037500499	1547	1475	1514	1485
1399091096042472094	1558	1474	1514	1484
1399091096047480168	1556	1474	1514	1483
1399091096062507295	1556	1477	1514	1482
1399091096067527864	1552	1476	1514	1480
1399091096072521704	1550	1476	1514	1480
1399091096087482014	1548	1476	1514	1479
1399091096092420418	1536	1478	1514	1478
1399091096097341263	1531	1476	1514	1477
1399091096112442058	1530	1476	1514	1476
1399091096117407853	1528	1475	1514	1477
1399091096132464552	1524	1476	1514	1474
1399091096142483058	1505	1479	1514	1474
1399091096147429520	1501	1478	1514	1473
1399091096162425641	1500	1480	1514	1474
1399091096167331178	1497	1480	1514	1472
1399091096177421352	1490	1479	1514	1470
1399091096182429858	1491	1479	1514	1471
1399091096197476437	1460	1480	1514	1471
1399091096212271094	1453	1480	1514	1468
1399091096217339371	1448	1482	1514	1468
1399091096227470893	1446	1480	1514	1469
1399091096232437723	1441	1483	1514	1468
1399091096242405702	1411	1488	1514	1467
1399091096247226576	1404	1490	1514	1465
1399091096257493408	1403	1490	1514	1468
1399091096272438102	1395	1490	1514	1465
1399091096277454427	1393	1491	1514	1467
1399091096282221323	1391	1490	1514	1466
1399091096292377048	1384	1491	1514	1465
1399091096297500476	1369	1492	1514	1467
1399091096312515749	1361	1490	1514	1464
1399091096317239126	1361	1492	1514	1465
1399091096322209169	1354	1489	1514	1464
1399091096332251824	1351	1493	1514	1466
1399091096342306870	1351	1490	1514	1464
1399091096347241557	1344	1492	1514	1464
1399091096362307309	1338	1491	1514	1463
1399091096367234306	1336	1492	1514	1465
1399091096377271250	1336	1489	1514	1461
1399091096382147131	1336	1491	1514	1464
1399091096392238457	1336	1487	1514	1464
1399091096397136911	1336	1484	1514	1460
1399091096412244112	1336	1488	1514	1463
1399091096417186648	1336	1486	1514	1462
1399091096427248135	1336	1485	1514	1461
1399091096442279902	1336	1486	1514	1460
1399091096447186284	1336	1486	1514	1461
1399091096462239423	1336	1484	1514	1460
1399091096467191566	1336	1486	1514	1460
1399091096477415410	1336	1484	1514	1458
1399091096482326896	1336	1486	1514	1458
1399091096507484519	1336	1484	1514	1458
1399091096517483970	1336	1483	1514	1456
1399091096527489870	1336	1484	1514	1456
1399091096532435653	1336	1484	1514	1456
1399091096542438669	1336	1479	1514	1454
1399091096547621259	1336	1481	1514	1455
1399091096557419516	1336	1479	1514	1454
1399091096567477402	1336	1480	1514	1453
1399091096577471290	1336	1479	1514	1452
1399091096582448388	1336	1479	1514	1451
1399091096592538335	1336	1477	1514	1453
1399091096602497583	1336	1476	1514	1452
1399091096612489358	1336	1477	1514	1450
1399091096617357643	1336	1474	1514	1449
1399091096627524581	1336	1475	1514	1450
1399091096632290100	1336	1476	1514	1448
1399091096642531868	1336	1472	1514	1448
1399091096647478163	1336	1473	1514	1448
1399091096662556017	1336	1472	1514	1447
1399091096667434248	1336	1471	1514	1445
1399091096669929181	1520	1516	1101	1105
1399091096770141408	1520	1516	1101	1105
1399091096870319874	1520	1516	1101	1105
1399091096970523860	1520	1516	1101	1105
1399091097070725513	1520	1516	1101	1105
1399091097170930867	1520	1516	1101	1105
1399091097271112920	1520	1516	1101	1105
1399091097371299178	1520	1516	1101	1105
1399091097471538201	1520	1516	1101	1105
1399091097571792959	1520	1516	1101	1105
1399091097672033837	1520	1516	1101	1105
1399091097772244865	1520	1516	1101	1105
1399091097872453918	1520	1516	1101	1105
1399091097972731610	1520	1516	1101	1105
1399091098072999060	1520	1516	1101	1105
1399091098173244965	1520	1516	1101	1105
1399091098273458509	1520	1516	1101	1105
1399091098373654985	1520	1516	1101	1105
1399091098473868841	1520	1516	1101	1105
1399091098574124523	1520	1516	1101	1105
1399091098674353712	1520	1516	1101	1105
1399091098774567175	1520	1516	1101	1105
1399091098874799709	1520	1516	1101	1105
1399091098975032089	1520	1516	1101	1105
1399091099075277042	1520	1516	1101	1105
1399091099175496179	1520	1516	1101	1105
1399091099275711677	1520	1516	1101	1105
1399091099375974234	1520	1516	1101	1105
1399091099476220342	1520	1516	1101	1105
1399091099576470454	1520	1516	1101	1105
1399091099676714871	1520	1516	1513	1105
1399091099701497007	1520	1516	1101	1105
1399091099801763348	1520	1516	1101	1105
1399091099902083713	1520	1516	1101	1105
1399091100002338379	1520	1516	1101	1105
1399091100102577257	1520	1516	1101	1105
1399091100202815905	1520	1516	1101	1105
1399091100303131929	1520	1516	1101	1105
1399091100403394524	1520	1516	1101	1105
1399091100503635788	1520	1516	1101	1105
1399091100603919913	1520	1516	1101	1105
1399091100704174263	1520	1516	1101	1105
1399091100804463832	1520	1516	1101	1105
1399091100904739694	1520	1516	1101	1105
1399091101004988805	1520	1516	1101	1105
1399091101105218137	1520	1516	1101	1105
1399091101205435803	1520	1516	1101	1105
1399091101305646353	1520	1516	1101	1105
1399091101405854520	1520	1516	1101	1105
1399091101506005660	1520	1516	1101	1105
1399091101606260456	1520	1516	1101	1105
1399091101706499450	1520	1516	1101	1105
1399091101806716448	1520	1516	1101	1105
1399091101907002896	1520	1516	1101	1105
1399091102007234581	1520	1516	1101	1105
1399091102107444056	1520	1516	1101	1105
1399091102207663044	1520	1516	1101	1105
1399091102307880076	1520	1516	1101	1105
1399091102408084496	1520	1516	1101	1105
1399091102508345151	1520	1516	1101	1105
1399091102608607095	1520	1516	1101	1105
1399091102708910419	1520	1516	1513	1105
1399091102712884634	1520	1516	1101	1105
1399091102813173719	1520	1516	1101	1105
1399091102913431088	1520	1516	1101	1105
1399091103013681341	1520	1516	1101	1105
1399091103113943638	1520	1516	1101	1105
1399091103214194502	1520	1516	1101	1105
1399091103314438635	1520	1516	1101	1105
1399091103414680100	1520	1516	1101	1105
1399091103514927852	1520	1516	1101	1105
1399091103615140895	1520	1516	1101	1105
1399091103715348376	1520	1516	1101	1105
1399091103815512632	1520	1516	1101	1105
1399091103915738905	1520	1516	1101	1105
1399091104015996712	1520	1516	1101	1105
1399091104116210523	1520	1516	1101	1105
1399091104216446027	1520	1516	1101	1105
1399091104316672905	1520	1516	1101	1105
1399091104416930427	1520	1516	1101	1105
1399091104517208848	1520	1516	1101	1105
1399091104617463971	1520	1516	1101	1105
1399091104717685515	1520	1516	1101	1105
1399091104817948649	1520	1516	1101	1105
1399091104918212292	1520	1516	1101	1105
1399091105018464807	1520	1516	1101	1105
1399091105118699885	1520	1516	1101	1105
1399091105218910422	1520	1516	1101	1105
1399091105319145913	1520	1516	1101	1105
1399091105419365933	1520	1516	1101	1105
1399091105519617376	1520	1516	1101	1105
1399091105619858844	1520	1516	1101	1105
1399091105720079902	1520	1516	1513	1105
1399091105723458560	1520	1516	1101	1105
1399091105823726532	1520	1516	1101	1105
1399091105924034920	1520	1516	1101	1105
1399091106024245679	1520	1516	1101	1105
1399091106124548546	1520	1516	1101	1105
1399091106224857666	1520	1516	1101	1105
1399091106325171064	1520	1516	1101	1105
1399091106425483126	1520	1516	1101	1105
1399091106525787388	1520	1516	1101	1105
1399091106626096175	1520	1516	1101	1105
1399091106726406791	1520	1516	1101	1105
1399091106826743701	1520	1516	1101	1105
1399091106927073518	1520	1516	1101	1105
1399091107027381197	1520	1516	1101	1105
1399091107127643262	1520	1516	1101	1105
1399091107227888052	1520	1516	1101	1105
1399091107328172506	1520	1516	1101	1105
1399091107428430912	1520	1516	1101	1105
1399091107528689547	1520	1516	1101	1105
1399091107628953618	1520	1516	1101	1105
1399091107729174248	1520	1516	1101	1105
1399091107829411501	1520	1516	1101	1105
1399091107929632194	1520	1516	1101	1105
1399091108029867493	1520	1516	1101	1105
1399091108130089613	1520	1516	1101	1105
1399091108230295133	1520	1516	1101	1105
1399091108330498361	1520	1516	1101	1105
1399091108430704207	1520	1516	1101	1105
1399091108530981921	1520	1516	1101	1105
1399091108631237294	1520	1516	1101	1105
1399091108731449214	1520	1516	1513	1105
1399091108734969350	1520	1516	1101	1105
1399091108835277261	1520	1516	1101	1105
1399091108935602998	1520	1516	1101	1105
1399091109035953980	1520	1516	1101	1105
1399091109136230108	1520	1516	1101	1105
1399091109236540401	1520	1516	1101	1105
1399091109336812230	1520	1516	1101	1105
1399091109437114565	1520	1516	1101	1105
1399091109537456831	1520	1516	1101	1105
1399091109637767008	1520	1516	1101	1105
1399091109738061192	1520	1516	1101	1105
1399091109838335561	1520	1516	1101	1105
1399091109938722806	1520	1516	1101	1105
1399091110039093800	1520	1516	1101	1105
1399091110139428792	1520	1516	1101	1105
1399091110239716857	1520	1516	1101	1105
1399091110339996511	1520	1516	1101	1105
1399091110440297356	1520	1516	1101	1105
1399091110540639678	1520	1516	1101	1105
1399091110640954097	1520	1516	1101	1105
1399091110741256722	1520	1516	1101	1105
1399091110841604099	1520	1516	1101	1105
1399091110941915801	1520	1516	1101	1105
1399091111042283654	1520	1516	1101	1105
1399091111142585167	1520	1516	1101	1105
1399091111227837297	1520	1516	1101	1105
1399091111328054894	1520	1516	1101	1105
1399091111428317237	1520	1516	1101	1105
1399091111528566000	1520	1516	1101	1105
1399091111628846774	1520	1516	1101	1105
1399091111729106885	1520	1516	1513	1105
