#Time	 Roll 	 Pitch 	 Yaw 	 Thrust
1399577033947613944	1490	1502	1506	1430
1399577033967581810	1485	1501	1506	1429
1399577033982493737	1485	1494	1506	1428
1399577034002536975	1478	1491	1506	1427
1399577034017537906	1483	1494	1506	1426
1399577034037533739	1480	1504	1506	1426
1399577034057532255	1482	1471	1506	1425
1399577034072557255	1478	1478	1506	1423
1399577034092510392	1479	1483	1506	1423
1399577034107550465	1472	1469	1506	1422
1399577034122481968	1478	1466	1507	1422
1399577034142463768	1473	1496	1507	1420
1399577034157489217	1478	1497	1507	1418
1399577034172544385	1484	1502	1508	1416
1399577034192571678	1468	1507	1508	1415
1399577034207477810	1477	1506	1508	1415
1399577034222533365	1474	1504	1509	1415
1399577034252591109	1470	1505	1509	1413
1399577034272545334	1474	1526	1509	1412
1399577034302507129	1477	1515	1509	1411
1399577034317515087	1469	1514	1509	1410
1399577034342508562	1462	1518	1510	1409
1399577034357567906	1470	1527	1510	1409
1399577034372565719	1482	1516	1510	1408
1399577034387568156	1468	1517	1510	1406
1399577034407561450	1464	1507	1510	1407
1399577034422552819	1472	1534	1510	1406
1399577034437541830	1476	1513	1510	1405
1399577034457569928	1483	1501	1511	1407
1399577034482601357	1478	1504	1511	1405
1399577034502579118	1481	1502	1511	1405
1399577034517517703	1495	1501	1511	1406
1399577034532536384	1494	1496	1511	1406
1399577034552498871	1483	1479	1510	1407
1399577034582619277	1496	1487	1511	1405
1399577034597549743	1497	1488	1511	1407
1399577034617551228	1493	1489	1511	1406
1399577034632524992	1505	1490	1511	1406
1399577034657508182	1487	1509	1511	1407
1399577034672584578	1482	1499	1511	1407
1399577034687549240	1488	1506	1511	1407
1399577034717569814	1477	1523	1510	1408
1399577034732555003	1478	1519	1510	1408
1399577034752522243	1473	1520	1510	1407
1399577034782605372	1482	1530	1510	1408
1399577034802529177	1480	1528	1510	1409
1399577034817590534	1470	1550	1510	1409
1399577034832587599	1485	1553	1510	1408
1399577034852584368	1476	1545	1509	1409
1399577034867518453	1481	1555	1509	1409
1399577034882515190	1484	1560	1509	1409
1399577034902511873	1495	1530	1509	1410
1399577034917548028	1504	1534	1509	1411
1399577034932481382	1494	1532	1508	1410
1399577034952522911	1504	1535	1508	1411
1399577034967499550	1505	1525	1508	1413
1399577034982583555	1498	1543	1507	1411
1399577035002593878	1508	1530	1507	1411
1399577035032629068	1507	1532	1507	1412
1399577035052555381	1504	1522	1506	1413
1399577035067504349	1507	1519	1506	1412
1399577035087517552	1509	1523	1506	1413
1399577035097538698	1503	1509	1506	1413
1399577035117516022	1506	1498	1506	1414
1399577035137547025	1507	1502	1506	1413
1399577035152498177	1507	1506	1506	1414
1399577035167493169	1506	1507	1505	1415
1399577035182466270	1508	1504	1505	1414
1399577035202585872	1509	1522	1505	1415
1399577035222493961	1502	1521	1505	1416
1399577035237542456	1515	1520	1505	1413
1399577035257521758	1509	1527	1505	1413
1399577035282531235	1502	1529	1505	1416
1399577035302572312	1492	1526	1505	1416
1399577035317552648	1506	1538	1505	1415
1399577035332591079	1503	1547	1505	1415
1399577035347535616	1499	1547	1505	1414
1399577035367512794	1500	1544	1505	1415
1399577035382519145	1499	1539	1505	1417
1399577035402549287	1493	1549	1505	1417
1399577035417522850	1500	1556	1506	1419
1399577035432617587	1496	1552	1506	1418
1399577035457522779	1500	1559	1506	1418
1399577035472523725	1496	1562	1506	1419
1399577035492487622	1504	1550	1506	1419
1399577035507505691	1508	1540	1506	1420
1399577035522547339	1504	1550	1506	1418
1399577035542510329	1504	1548	1506	1419
1399577035557524584	1510	1553	1506	1419
1399577035572518582	1520	1558	1506	1418
1399577035597539502	1522	1531	1507	1419
1399577035607457621	1510	1535	1507	1420
1399577035622550120	1517	1530	1507	1420
1399577035642558112	1513	1527	1506	1421
1399577035657572285	1515	1527	1506	1421
1399577035672573780	1525	1527	1506	1420
1399577035692486446	1523	1523	1506	1421
1399577035707506249	1527	1513	1506	1421
1399577035722457623	1512	1504	1506	1423
1399577035752536468	1515	1502	1506	1422
1399577035767544951	1512	1498	1506	1422
1399577035782531224	1509	1495	1506	1423
1399577035797550150	1505	1491	1506	1424
1399577035817517335	1504	1494	1506	1423
1399577035832483392	1502	1499	1506	1422
1399577035852565323	1507	1510	1506	1421
1399577035867524883	1507	1508	1506	1421
1399577035882548491	1503	1508	1506	1422
1399577035902544157	1502	1502	1506	1422
1399577035922589691	1497	1502	1506	1422
1399577035942577708	1492	1512	1506	1422
1399577035957550931	1493	1512	1506	1422
1399577035982536517	1490	1512	1506	1422
1399577036002550963	1493	1522	1506	1422
1399577036017540317	1491	1522	1506	1422
1399577036042538110	1490	1544	1506	1421
1399577036067498529	1491	1543	1506	1422
1399577036082542098	1488	1551	1506	1421
1399577036102523251	1494	1546	1506	1421
1399577036117563036	1495	1544	1506	1422
1399577036132513426	1493	1541	1505	1423
1399577036147555320	1497	1536	1505	1423
1399577036167612215	1498	1543	1505	1423
1399577036182601164	1498	1546	1505	1422
1399577036202549210	1505	1556	1505	1421
1399577036217482983	1499	1554	1505	1421
1399577036237545410	1501	1543	1505	1422
1399577036257630879	1505	1532	1504	1422
1399577036272519144	1506	1536	1504	1421
1399577036287565059	1510	1529	1504	1422
1399577036307549279	1508	1517	1504	1422
1399577036322540167	1507	1507	1504	1423
1399577036347530276	1509	1491	1503	1423
1399577036357466361	1514	1493	1503	1423
1399577036372550515	1511	1492	1503	1423
1399577036387582237	1518	1498	1503	1421
1399577036407550733	1512	1495	1503	1422
1399577036422519895	1499	1503	1503	1422
1399577036442549286	1495	1486	1502	1423
1399577036457510286	1496	1480	1502	1423
1399577036482586202	1496	1481	1502	1423
1399577036502583132	1489	1477	1502	1423
1399577036522570099	1497	1468	1502	1424
1399577036542541818	1483	1480	1502	1425
1399577036557553110	1481	1474	1502	1424
1399577036577562865	1477	1480	1502	1424
1399577036592523783	1489	1493	1502	1424
1399577036607571677	1470	1508	1502	1422
1399577036632533433	1477	1501	1502	1424
1399577036657540752	1477	1508	1502	1424
1399577036672503293	1469	1514	1502	1424
1399577036687536181	1467	1516	1502	1424
1399577036717540194	1472	1536	1502	1424
1399577036732542307	1475	1536	1502	1424
1399577036752519280	1477	1548	1502	1423
1399577036767482566	1471	1552	1502	1423
1399577036782553081	1476	1543	1502	1423
1399577036797503385	1480	1557	1502	1424
1399577036817525143	1485	1555	1502	1423
1399577036832527846	1490	1563	1502	1424
1399577036847569930	1485	1571	1502	1423
1399577036867545711	1489	1572	1502	1423
1399577036882572978	1488	1572	1502	1423
1399577036902553456	1505	1560	1502	1423
1399577036917629200	1501	1560	1502	1425
1399577036932552889	1505	1558	1502	1425
1399577036952529413	1513	1552	1502	1424
1399577036972501453	1517	1555	1502	1424
1399577036987554205	1515	1552	1502	1425
1399577037007530773	1521	1523	1502	1424
1399577037032544647	1528	1521	1502	1424
1399577037057513242	1518	1506	1502	1425
1399577037072469251	1528	1507	1502	1425
1399577037092514443	1516	1489	1502	1425
1399577037107565376	1519	1490	1502	1425
1399577037122560716	1526	1487	1503	1424
1399577037142558328	1523	1471	1503	1425
1399577037157540047	1519	1474	1503	1426
1399577037172553504	1519	1468	1503	1426
1399577037202561321	1514	1467	1503	1425
1399577037217478538	1508	1471	1503	1426
1399577037232483778	1515	1477	1503	1425
1399577037247494929	1498	1483	1503	1426
1399577037267536953	1501	1476	1504	1426
1399577037282520532	1500	1476	1504	1426
1399577037302559502	1488	1489	1504	1427
1399577037317558286	1484	1489	1504	1427
1399577037332533341	1481	1496	1504	1427
1399577037347568159	1476	1511	1504	1427
1399577037367540061	1480	1515	1505	1426
1399577037382597185	1474	1520	1505	1426
1399577037402564484	1474	1522	1505	1426
1399577037422514656	1472	1522	1505	1427
1399577037437597846	1473	1540	1505	1426
1399577037457554345	1474	1564	1505	1426
1399577037472541098	1471	1559	1505	1427
1399577037497547255	1477	1571	1505	1426
1399577037517529519	1484	1581	1505	1427
1399577037532497829	1489	1575	1505	1426
1399577037552521841	1484	1582	1505	1428
1399577037567543723	1495	1584	1505	1428
1399577037582502793	1493	1590	1505	1427
1399577037602524693	1510	1588	1505	1426
1399577037617531853	1502	1597	1505	1426
1399577037632516097	1505	1593	1505	1428
1399577037652560429	1520	1573	1505	1428
1399577037682559678	1523	1577	1505	1427
1399577037702594416	1536	1549	1505	1429
1399577037717506612	1537	1559	1505	1427
1399577037732486227	1535	1561	1505	1427
1399577037747583533	1549	1525	1505	1428
1399577037772578283	1555	1509	1505	1428
1399577037787547264	1557	1508	1504	1429
1399577037807852272	1555	1486	1504	1429
1399577037827758097	1550	1484	1504	1430
1399577037842850287	1550	1471	1504	1428
1399577037857800191	1557	1468	1504	1429
1399577037872787530	1551	1463	1504	1429
1399577037892855533	1537	1461	1504	1429
1399577037907855172	1542	1457	1505	1430
1399577037922815433	1539	1457	1505	1430
1399577037952847624	1513	1463	1505	1430
1399577037967899615	1509	1462	1505	1430
1399577037982868803	1513	1461	1505	1430
1399577037997841300	1489	1474	1506	1431
1399577038017880497	1488	1472	1505	1432
1399577038032761220	1491	1466	1506	1432
1399577038052912258	1469	1496	1506	1432
1399577038067781585	1472	1498	1506	1432
1399577038082913064	1466	1502	1506	1432
1399577038102802469	1468	1515	1506	1432
1399577038122846244	1463	1519	1507	1432
1399577038137640371	1457	1516	1507	1433
1399577038157603087	1459	1534	1507	1433
1399577038182647796	1455	1530	1507	1433
1399577038202587135	1460	1554	1507	1433
1399577038222608484	1458	1536	1507	1434
1399577038252621954	1467	1546	1507	1435
1399577038267589949	1467	1540	1507	1435
1399577038282563070	1473	1551	1507	1434
1399577038302849639	1526	1573	1507	1434
1399577038317844083	1528	1578	1507	1434
1399577038332871863	1530	1571	1507	1434
1399577038352889843	1545	1564	1507	1435
1399577038367869835	1547	1565	1507	1435
1399577038382846629	1551	1562	1507	1436
1399577038402871982	1574	1509	1507	1436
1399577038417860607	1571	1504	1506	1436
1399577038432919733	1589	1510	1506	1436
1399577038447893186	1593	1521	1506	1434
1399577038467821786	1594	1523	1506	1434
1399577038492595454	1600	1500	1506	1435
1399577038507839797	1602	1483	1506	1435
1399577038527831921	1609	1483	1506	1434
1399577038542858916	1587	1463	1505	1434
1399577038557806706	1598	1469	1505	1434
1399577038572846618	1596	1470	1505	1433
1399577038592877192	1529	1469	1505	1433
1399577038607864306	1528	1451	1505	1436
1399577038622644083	1538	1443	1504	1435
1399577038652953821	1522	1451	1504	1434
1399577038667877749	1514	1441	1504	1434
1399577038692575596	1502	1442	1504	1434
1399577038717479646	1494	1445	1504	1434
1399577038732740957	1488	1438	1505	1434
1399577038747860213	1466	1474	1505	1433
1399577038767728856	1453	1483	1505	1433
1399577038782794233	1452	1476	1505	1432
1399577038802817686	1489	1526	1506	1432
1399577038812853977	1480	1524	1506	1433
1399577038832860227	1479	1532	1506	1433
1399577038852710416	1494	1540	1506	1433
1399577038872832043	1493	1544	1507	1433
1399577038887772973	1499	1545	1507	1432
1399577038907700372	1528	1556	1507	1432
1399577038932813872	1525	1568	1507	1433
1399577038952636228	1538	1558	1508	1432
1399577038967623744	1533	1572	1508	1433
1399577038982610159	1537	1581	1508	1431
1399577039002631435	1549	1581	1509	1431
1399577039022620581	1545	1562	1509	1433
1399577039042637578	1568	1493	1509	1432
1399577039057602501	1580	1496	1510	1431
1399577039072615705	1577	1496	1510	1431
1399577039092765298	1562	1479	1510	1432
1399577039117820218	1569	1473	1511	1432
1399577039132707385	1568	1467	1511	1432
1399577039157919694	1557	1456	1512	1433
1399577039172940066	1558	1450	1512	1433
1399577039192907704	1542	1448	1512	1432
1399577039207899833	1541	1452	1512	1430
1399577039232814060	1539	1450	1513	1430
1399577039252868638	1513	1476	1514	1429
1399577039267900714	1499	1483	1514	1430
1399577039282862835	1495	1471	1515	1430
1399577039302792077	1490	1474	1516	1430
1399577039317769738	1480	1489	1517	1429
1399577039332758065	1486	1498	1518	1428
1399577039352803273	1488	1527	1518	1428
1399577039372912623	1492	1522	1519	1429
1399577039392871719	1488	1554	1520	1428
1399577039407770340	1491	1563	1521	1429
1399577039422868250	1481	1550	1522	1429
1399577039442879671	1497	1524	1522	1429
1399577039467884256	1497	1540	1523	1429
1399577039482901918	1486	1541	1524	1430
1399577039502990026	1516	1514	1524	1428
1399577039517892683	1496	1524	1524	1428
1399577039532828555	1502	1542	1525	1428
1399577039552765370	1512	1483	1525	1427
1399577039572815612	1507	1483	1525	1428
1399577039592861275	1502	1479	1525	1429
1399577039617832747	1499	1474	1526	1429
1399577039632811897	1508	1475	1525	1429
1399577039657760043	1490	1477	1525	1429
1399577039672840469	1490	1487	1525	1430
1399577039702839909	1486	1491	1525	1429
1399577039717849347	1497	1488	1524	1430
1399577039737869628	1485	1487	1524	1430
1399577039747841415	1480	1521	1523	1429
1399577039767741022	1474	1535	1523	1428
1399577039782836977	1475	1540	1523	1430
1399577039797818065	1478	1551	1522	1430
1399577039817874776	1477	1536	1522	1430
1399577039837877283	1477	1549	1521	1430
1399577039857778393	1485	1555	1520	1430
1399577039872800607	1473	1562	1520	1430
1399577039892625527	1482	1565	1520	1431
1399577039907855229	1488	1571	1519	1430
1399577039922824449	1484	1558	1519	1430
1399577039942913426	1494	1574	1519	1431
1399577039957701567	1487	1572	1518	1430
1399577039972806689	1493	1578	1518	1431
1399577040002832733	1490	1577	1518	1431
1399577040017807152	1494	1571	1517	1432
1399577040032797044	1492	1577	1517	1433
1399577040052584197	1496	1578	1517	1433
1399577040072854304	1486	1545	1516	1432
1399577040092855101	1491	1540	1516	1432
1399577040107765830	1502	1532	1515	1432
1399577040122824470	1501	1535	1515	1432
1399577040142894616	1478	1513	1514	1433
1399577040167796066	1489	1522	1514	1433
1399577040192814636	1492	1557	1513	1432
1399577040217865845	1494	1549	1512	1432
1399577040232718983	1494	1546	1512	1431
1399577040252813926	1501	1544	1512	1431
1399577040262897081	1503	1529	1511	1432
1399577040282864365	1500	1531	1511	1432
1399577040307862211	1506	1544	1510	1432
1399577040322659783	1507	1540	1510	1432
1399577040342765134	1508	1544	1509	1432
1399577040357777442	1520	1550	1509	1431
1399577040382818789	1497	1547	1508	1432
1399577040402936812	1515	1539	1508	1432
1399577040422833613	1509	1533	1507	1433
1399577040442595719	1510	1540	1507	1432
1399577040467827044	1505	1546	1506	1431
1399577040482726189	1514	1546	1506	1432
1399577040497766828	1516	1539	1505	1432
1399577040517611871	1512	1531	1505	1433
1399577040532840385	1516	1527	1505	1433
1399577040553020444	1507	1538	1504	1432
1399577040567915771	1514	1547	1504	1431
1399577040587852648	1518	1542	1503	1431
1399577040602856807	1509	1532	1503	1432
1399577040617795463	1507	1525	1502	1433
1399577040637953845	1503	1520	1502	1433
1399577040652736191	1511	1520	1501	1433
1399577040667727476	1513	1525	1501	1433
1399577040682811853	1514	1522	1501	1432
1399577040697792650	1509	1516	1500	1432
1399577040717732829	1509	1508	1500	1433
1399577040737792834	1509	1507	1499	1434
1399577040752900563	1509	1506	1499	1433
1399577040762887368	1509	1511	1499	1433
1399577040782909313	1514	1511	1499	1432
1399577040802867624	1515	1511	1498	1432
1399577040822832831	1507	1500	1498	1433
1399577040842683779	1512	1507	1498	1431
1399577040857856825	1516	1507	1498	1432
1399577040882880221	1511	1508	1497	1432
1399577040902849694	1515	1522	1497	1430
1399577040932834538	1513	1508	1497	1431
1399577040947782888	1512	1498	1497	1432
1399577040967882609	1514	1502	1497	1431
1399577040987861604	1512	1517	1497	1431
1399577040997873086	1509	1513	1497	1429
1399577041017804208	1520	1529	1498	1428
1399577041032856384	1511	1518	1498	1428
1399577041057837905	1517	1497	1498	1429
1399577041072870673	1514	1506	1498	1427
1399577041092879328	1516	1499	1499	1427
1399577041107691456	1510	1495	1499	1428
1399577041122846836	1519	1484	1499	1428
1399577041142528538	1514	1477	1499	1427
1399577041157808141	1513	1485	1500	1427
1399577041172779758	1518	1487	1500	1426
1399577041202794319	1518	1485	1501	1427
1399577041217837459	1518	1488	1501	1426
1399577041242651581	1513	1492	1501	1427
1399577041257895386	1514	1491	1502	1426
1399577041272795887	1521	1495	1502	1426
1399577041302821332	1520	1490	1502	1427
1399577041317815032	1509	1490	1503	1427
1399577041332781398	1511	1495	1503	1427
1399577041367900660	1516	1507	1503	1426
1399577041382911094	1521	1519	1504	1425
1399577041397859896	1503	1513	1504	1426
1399577041412858884	1505	1507	1504	1426
1399577041432908065	1502	1516	1504	1426
1399577041452878964	1501	1527	1505	1426
1399577041467844492	1496	1520	1505	1426
1399577041482803096	1498	1522	1505	1426
1399577041502855098	1495	1527	1505	1427
1399577041517600679	1492	1525	1505	1426
1399577041532877889	1495	1528	1505	1426
1399577041552651799	1492	1521	1505	1426
1399577041572788587	1492	1529	1506	1425
1399577041602830324	1498	1519	1506	1425
1399577041617829248	1497	1523	1506	1426
1399577041632842803	1493	1521	1506	1426
1399577041652801879	1501	1514	1507	1425
1399577041677811337	1498	1519	1507	1426
1399577041687739984	1501	1520	1507	1426
1399577041712838097	1509	1510	1507	1427
1399577041722849933	1511	1514	1507	1427
1399577041737810123	1517	1517	1507	1427
1399577041757826716	1520	1518	1507	1426
1399577041772768969	1522	1519	1507	1427
1399577041792810655	1519	1516	1507	1428
1399577041807765326	1529	1503	1507	1428
1399577041833011471	1530	1519	1508	1427
1399577041852732224	1524	1503	1508	1428
1399577041867877931	1533	1520	1507	1427
1399577041888009061	1525	1501	1507	1429
1399577041922850168	1521	1532	1507	1427
1399577041947839884	1520	1539	1507	1428
1399577041957810515	1530	1522	1507	1429
1399577041972836449	1525	1530	1507	1429
1399577041992872619	1515	1543	1507	1428
1399577042007793427	1521	1535	1506	1429
1399577042022808442	1506	1544	1506	1429
1399577042042850509	1519	1538	1506	1428
1399577042067869286	1506	1543	1505	1429
1399577042082804117	1517	1541	1505	1429
1399577042102824002	1491	1550	1505	1429
1399577042117786748	1494	1543	1504	1430
1399577042132852762	1481	1546	1504	1430
1399577042152785493	1487	1555	1504	1429
1399577042162615943	1487	1559	1503	1430
1399577042187913898	1483	1558	1503	1430
1399577042207742569	1483	1548	1502	1431
1399577042227885407	1488	1552	1502	1430
1399577042237883379	1487	1548	1502	1431
1399577042257876549	1497	1534	1502	1431
1399577042272822471	1495	1531	1501	1431
1399577042287896756	1490	1539	1501	1431
1399577042307816884	1495	1531	1501	1430
1399577042322844831	1500	1531	1500	1430
1399577042342848305	1507	1529	1500	1431
1399577042367867376	1503	1528	1500	1431
1399577042382904853	1511	1529	1500	1430
1399577042397898166	1512	1521	1499	1431
1399577042417662111	1509	1513	1499	1432
1399577042432785152	1508	1510	1499	1432
1399577042447840892	1524	1516	1499	1432
1399577042467862687	1526	1521	1499	1431
1399577042482785554	1527	1526	1498	1431
1399577042502844843	1527	1518	1498	1432
1399577042517882919	1529	1507	1498	1433
1399577042532801245	1531	1498	1498	1434
1399577042557846234	1525	1522	1498	1432
1399577042582899437	1522	1521	1498	1433
1399577042602872364	1514	1524	1498	1433
1399577042617802323	1517	1517	1498	1434
1399577042642818095	1504	1537	1498	1434
1399577042657840794	1504	1543	1498	1434
1399577042672810840	1508	1531	1498	1435
1399577042687779477	1503	1519	1498	1436
1399577042707877191	1505	1527	1498	1437
1399577042722926680	1498	1533	1497	1437
1399577042737871442	1503	1539	1497	1435
1399577042767860351	1496	1530	1497	1438
1399577042782876909	1493	1539	1497	1436
1399577042802601689	1498	1552	1497	1437
1399577042822490359	1498	1528	1497	1438
1399577042842472175	1502	1532	1497	1438
1399577042857559841	1499	1539	1497	1437
1399577042892505746	1509	1516	1497	1438
1399577042907519875	1514	1513	1497	1441
1399577042927498587	1508	1497	1497	1442
1399577042937491391	1510	1509	1497	1441
1399577042957467379	1522	1506	1497	1440
1399577042972471962	1523	1520	1497	1440
1399577042987562162	1526	1512	1497	1441
1399577043007507170	1535	1497	1497	1440
1399577043022543226	1536	1501	1497	1442
1399577043052534547	1536	1489	1497	1441
1399577043072674310	1545	1488	1497	1441
1399577043092549948	1546	1473	1497	1442
1399577043107492201	1542	1480	1497	1442
1399577043132531660	1546	1470	1498	1442
1399577043152497815	1531	1460	1498	1442
1399577043172507585	1544	1462	1498	1443
1399577043187503646	1532	1463	1499	1442
1399577043207566123	1516	1476	1499	1441
1399577043232511922	1518	1479	1500	1442
1399577043252542143	1508	1481	1500	1441
1399577043267541968	1496	1493	1500	1440
1399577043282582829	1500	1495	1500	1440
1399577043302525076	1480	1489	1501	1440
1399577043332574265	1474	1496	1501	1439
1399577043347516719	1466	1507	1502	1439
1399577043367576324	1469	1501	1502	1438
1399577043382579900	1457	1494	1502	1440
1399577043402508192	1453	1483	1503	1438
1399577043417541334	1456	1494	1503	1439
1399577043432565920	1457	1510	1503	1437
1399577043447557078	1460	1510	1504	1436
1399577043467515396	1443	1516	1505	1437
1399577043482563580	1440	1502	1505	1437
1399577043502545350	1457	1505	1506	1437
1399577043517539163	1450	1519	1506	1436
1399577043542575431	1467	1514	1507	1435
1399577043567508740	1473	1520	1508	1435
1399577043582569586	1472	1523	1508	1434
1399577043602573601	1504	1521	1509	1434
1399577043617640052	1504	1522	1509	1434
1399577043642491201	1546	1531	1509	1434
1399577043657453312	1547	1526	1510	1434
1399577043672515131	1547	1522	1510	1434
1399577043692484571	1553	1508	1510	1434
1399577043707520035	1559	1515	1511	1434
1399577043722504049	1558	1520	1511	1434
1399577043752548149	1555	1509	1511	1434
1399577043767557027	1557	1512	1512	1434
1399577043782596652	1563	1520	1512	1433
1399577043802508538	1565	1520	1512	1433
1399577043817496243	1567	1519	1512	1435
1399577043832507528	1568	1504	1512	1434
1399577043862554745	1579	1515	1511	1434
1399577043887494053	1590	1522	1511	1434
1399577043902541448	1605	1513	1512	1435
1399577043912447023	1597	1512	1512	1436
1399577043937530809	1614	1507	1512	1435
1399577043952529625	1568	1521	1512	1435
1399577043972570587	1570	1519	1511	1434
1399577043992530382	1551	1508	1511	1435
1399577044007451783	1558	1506	1511	1435
1399577044032480145	1544	1511	1511	1435
1399577044052496061	1506	1517	1511	1435
1399577044067480299	1501	1506	1511	1435
1399577044082499730	1491	1519	1511	1435
1399577044097474279	1460	1526	1511	1435
1399577044117511888	1454	1529	1510	1435
1399577044132523374	1462	1532	1511	1436
1399577044147522738	1435	1531	1511	1436
1399577044167631912	1451	1552	1511	1435
1399577044187538099	1427	1553	1510	1434
1399577044202513492	1452	1562	1511	1434
1399577044217511993	1436	1546	1511	1436
1399577044237496857	1440	1544	1511	1436
1399577044257483872	1473	1569	1511	1435
1399577044272511461	1466	1562	1511	1436
1399577044302563249	1518	1564	1511	1435
1399577044317444468	1510	1558	1512	1436
1399577044332500359	1524	1560	1512	1435
1399577044347485494	1552	1560	1512	1433
1399577044367526574	1562	1567	1513	1434
1399577044382551046	1562	1569	1513	1432
1399577044402608388	1583	1551	1513	1434
1399577044417554927	1581	1538	1513	1434
1399577044432464880	1595	1541	1513	1435
1399577044452511865	1578	1524	1513	1435
1399577044467527263	1589	1530	1513	1434
1399577044482541015	1592	1526	1513	1433
1399577044502602199	1558	1527	1513	1433
1399577044522548838	1548	1516	1513	1433
1399577044542516516	1487	1528	1513	1433
1399577044557501777	1489	1527	1512	1433
1399577044572551342	1485	1528	1512	1431
1399577044592460104	1459	1526	1512	1431
1399577044607526445	1466	1530	1512	1430
1399577044622518036	1465	1526	1511	1431
1399577044642494183	1463	1529	1511	1431
1399577044657521110	1461	1523	1511	1431
1399577044672557662	1453	1526	1511	1431
1399577044692528859	1484	1534	1511	1430
1399577044707559873	1486	1535	1511	1431
1399577044732526294	1481	1536	1511	1429
1399577044752547300	1496	1538	1511	1429
1399577044772543561	1494	1521	1511	1430
1399577044792529255	1520	1515	1511	1430
1399577044807535936	1520	1516	1511	1429
1399577044822533827	1524	1527	1511	1429
1399577044842525120	1532	1526	1511	1428
1399577044862541305	1527	1522	1511	1429
1399577044872555608	1531	1512	1511	1430
1399577044892554115	1520	1489	1511	1431
1399577044907533626	1522	1495	1511	1431
1399577044932552173	1523	1501	1511	1430
1399577044952527600	1524	1491	1511	1431
1399577044967523465	1526	1488	1510	1432
1399577044987519384	1535	1489	1510	1432
1399577045007595196	1488	1479	1510	1431
1399577045022516020	1497	1485	1510	1433
1399577045042523039	1483	1473	1509	1433
1399577045057568639	1490	1485	1509	1433
1399577045072552913	1479	1489	1508	1432
1399577045097566797	1477	1499	1508	1434
1399577045107532544	1477	1490	1508	1434
1399577045122552160	1479	1485	1508	1436
1399577045142501321	1496	1473	1507	1436
1399577045157512992	1483	1470	1507	1437
1399577045172542602	1491	1476	1506	1438
1399577045192590094	1487	1475	1506	1437
1399577045207559166	1494	1485	1506	1438
1399577045232580260	1492	1480	1505	1438
1399577045257549600	1498	1489	1505	1438
1399577045272563223	1491	1487	1505	1439
1399577045292525666	1487	1480	1505	1439
1399577045307497117	1494	1487	1504	1439
1399577045332519221	1491	1479	1504	1439
1399577045352520077	1495	1475	1504	1439
1399577045362536232	1496	1477	1504	1440
1399577045382551035	1500	1472	1504	1440
1399577045402560923	1489	1479	1504	1440
1399577045417508074	1496	1471	1504	1441
1399577045432575595	1492	1479	1504	1439
1399577045452543715	1496	1485	1504	1440
1399577045467511612	1484	1483	1505	1441
1399577045482564647	1490	1485	1505	1440
1399577045507525928	1488	1478	1505	1441
1399577045532515849	1486	1488	1505	1440
1399577045552548188	1496	1490	1505	1440
1399577045572531099	1492	1498	1505	1438
1399577045592581109	1492	1493	1505	1438
1399577045612530166	1495	1483	1506	1439
1399577045622551857	1495	1493	1506	1439
1399577045637496470	1491	1490	1506	1438
1399577045657562543	1494	1500	1506	1438
1399577045672559977	1504	1507	1506	1438
1399577045702515874	1506	1511	1506	1438
1399577045717545539	1509	1519	1506	1438
1399577045732560491	1515	1520	1506	1438
1399577045767617091	1517	1524	1506	1438
1399577045782579984	1518	1522	1506	1437
1399577045802550154	1521	1540	1506	1437
1399577045817542983	1522	1540	1506	1437
1399577045832509227	1526	1548	1507	1437
1399577045852469803	1516	1517	1507	1439
1399577045867473360	1514	1511	1506	1439
1399577045882501133	1519	1527	1507	1439
1399577045902540818	1517	1515	1506	1438
1399577045922529358	1513	1519	1506	1438
1399577045942505507	1517	1515	1507	1439
1399577045967568606	1515	1519	1507	1439
1399577045987568566	1510	1505	1506	1440
1399577046007492688	1517	1507	1506	1439
1399577046022477425	1506	1514	1506	1441
1399577046042459274	1502	1521	1506	1439
1399577046057529964	1508	1529	1506	1439
1399577046077493784	1510	1539	1506	1439
1399577046087532563	1508	1539	1506	1440
1399577046107476628	1521	1534	1506	1439
1399577046132468689	1524	1542	1507	1439
1399577046157544780	1531	1566	1507	1438
1399577046172485750	1530	1569	1506	1437
1399577046192572152	1539	1560	1507	1437
1399577046207543906	1539	1574	1507	1438
1399577046222547921	1538	1567	1507	1437
1399577046242486594	1536	1557	1507	1437
1399577046257525030	1549	1559	1507	1437
1399577046272543590	1537	1564	1507	1436
1399577046292583419	1542	1566	1508	1434
1399577046312577400	1546	1575	1508	1435
1399577046322524446	1541	1565	1508	1435
1399577046337515402	1545	1556	1509	1435
1399577046357502662	1533	1531	1509	1435
1399577046372538279	1535	1537	1509	1436
1399577046392573449	1524	1518	1509	1434
1399577046407529387	1528	1528	1510	1434
1399577046422562542	1528	1521	1510	1434
1399577046442573747	1528	1521	1511	1434
1399577046457507084	1529	1523	1511	1433
1399577046472517843	1519	1523	1512	1433
1399577046502551511	1521	1506	1512	1434
1399577046522557120	1523	1491	1513	1435
1399577046542551725	1514	1500	1514	1434
1399577046557543047	1510	1508	1514	1433
1399577046582488959	1516	1480	1515	1435
1399577046602564834	1517	1521	1515	1434
1399577046617490355	1519	1524	1516	1434
1399577046632581798	1520	1518	1516	1434
1399577046652567486	1529	1515	1517	1434
1399577046667483720	1526	1511	1517	1435
1399577046687530335	1524	1511	1517	1435
1399577046702488054	1526	1523	1517	1434
1399577046717544519	1524	1524	1517	1434
1399577046732484685	1528	1525	1518	1433
1399577046757547311	1535	1537	1518	1433
1399577046772453073	1533	1544	1518	1432
1399577046787506458	1540	1548	1518	1432
1399577046807567487	1549	1542	1518	1433
1399577046822534993	1542	1538	1518	1434
1399577046842561535	1544	1527	1518	1434
1399577046857522644	1547	1532	1518	1434
1399577046872584294	1546	1544	1518	1432
1399577046892502740	1549	1519	1518	1432
1399577046907544073	1553	1529	1517	1431
1399577046932526922	1550	1519	1517	1433
1399577046952563178	1541	1508	1517	1432
1399577046967498468	1540	1489	1517	1433
1399577046982575558	1540	1493	1517	1433
1399577047007537347	1546	1483	1516	1433
1399577047022513786	1534	1485	1516	1434
1399577047042595502	1535	1464	1516	1434
1399577047057577049	1533	1462	1516	1434
1399577047072514365	1532	1462	1516	1433
1399577047092510611	1518	1448	1516	1434
1399577047107567944	1512	1452	1515	1434
1399577047122533393	1519	1440	1515	1435
1399577047142559758	1517	1460	1515	1434
1399577047167612322	1514	1455	1515	1434
1399577047182626198	1517	1453	1515	1434
1399577047202517167	1517	1475	1515	1434
1399577047217512479	1521	1476	1515	1434
1399577047232467065	1517	1460	1515	1436
1399577047247536572	1517	1481	1515	1435
1399577047262512638	1524	1484	1515	1435
1399577047287524647	1518	1495	1515	1433
1399577047302540258	1537	1511	1515	1434
1399577047312538951	1531	1513	1515	1434
1399577047332512829	1530	1506	1515	1435
1399577047352526426	1546	1532	1515	1436
1399577047367518242	1535	1534	1515	1436
1399577047387579782	1543	1538	1515	1435
1399577047407561670	1540	1547	1515	1436
1399577047422530989	1547	1552	1515	1436
1399577047442541306	1543	1547	1515	1435
1399577047457601455	1542	1552	1515	1436
1399577047472570343	1540	1550	1515	1437
1399577047492626066	1531	1535	1515	1438
1399577047507523092	1531	1538	1514	1437
1399577047532539230	1530	1550	1514	1437
1399577047562514540	1517	1526	1514	1437
1399577047577575890	1516	1527	1514	1437
1399577047592538113	1508	1511	1513	1438
1399577047607518437	1505	1519	1513	1437
1399577047632536861	1504	1520	1512	1437
1399577047652564857	1486	1490	1512	1438
1399577047672602408	1486	1494	1512	1437
1399577047692611857	1486	1482	1511	1438
1399577047707535751	1484	1487	1511	1438
1399577047722573134	1485	1488	1511	1438
1399577047752567328	1483	1476	1510	1439
1399577047767543032	1482	1472	1510	1438
1399577047797826565	1487	1478	1510	1439
1399577047807782521	1493	1486	1509	1439
1399577047822824225	1492	1478	1509	1441
1399577047842728847	1498	1486	1509	1441
1399577047857761309	1502	1488	1509	1441
1399577047872712452	1502	1502	1508	1441
1399577047887667208	1513	1510	1508	1440
1399577047907775006	1514	1553	1508	1440
1399577047922758623	1527	1538	1508	1441
1399577047942586424	1529	1542	1508	1442
1399577047957763536	1529	1550	1507	1442
1399577047982761566	1532	1558	1507	1442
1399577047997873637	1538	1575	1507	1442
1399577048017927899	1545	1578	1507	1443
1399577048032866571	1540	1577	1506	1442
1399577048052780985	1544	1591	1506	1442
1399577048062775996	1546	1600	1506	1442
1399577048082566132	1545	1611	1506	1443
1399577048102575528	1536	1597	1506	1443
1399577048117576937	1534	1603	1506	1443
1399577048137555295	1542	1605	1506	1442
1399577048152582118	1536	1605	1506	1441
1399577048167558907	1535	1620	1506	1441
1399577048192620079	1529	1579	1506	1443
1399577048207593812	1524	1594	1506	1442
1399577048222548117	1519	1598	1506	1441
1399577048242632479	1519	1570	1506	1441
1399577048262598227	1516	1559	1507	1442
1399577048272561306	1522	1561	1507	1444
1399577048292651673	1483	1517	1507	1443
1399577048307578058	1480	1521	1507	1443
1399577048327597123	1484	1523	1508	1443
1399577048342578530	1479	1503	1508	1441
1399577048357585734	1483	1507	1509	1441
1399577048382503361	1485	1491	1510	1442
1399577048402853639	1480	1459	1510	1442
1399577048417787156	1478	1468	1511	1440
1399577048432879422	1477	1464	1511	1440
1399577048467901799	1485	1437	1512	1442
1399577048497902331	1485	1448	1513	1441
1399577048522806050	1485	1442	1514	1441
1399577048537851196	1484	1446	1514	1440
1399577048557792367	1499	1479	1514	1440
1399577048572919323	1505	1469	1515	1440
1399577048592799749	1528	1534	1515	1440
1399577048617818988	1528	1542	1516	1440
1399577048632804737	1531	1537	1516	1440
1399577048652815175	1534	1563	1517	1439
1399577048682879345	1536	1569	1517	1440
1399577048702855400	1537	1585	1517	1440
1399577048717854872	1542	1582	1518	1440
1399577048732929880	1543	1590	1518	1439
1399577048752904742	1548	1627	1519	1439
1399577048767811029	1552	1637	1519	1439
1399577048782746892	1554	1637	1519	1438
1399577048802831395	1547	1636	1520	1439
1399577048817815955	1539	1640	1520	1439
1399577048832584601	1548	1648	1520	1438
1399577048852853864	1551	1629	1520	1438
1399577048867855276	1550	1635	1520	1438
1399577048887877987	1552	1630	1520	1438
1399577048907917024	1532	1592	1520	1439
1399577048932807075	1533	1599	1520	1438
1399577048952844030	1507	1483	1520	1439
1399577048982890407	1501	1482	1520	1439
1399577048997898848	1504	1459	1520	1438
1399577049012800686	1495	1458	1519	1439
1399577049032876058	1489	1454	1519	1439
1399577049052541976	1490	1427	1519	1438
1399577049067872803	1488	1418	1519	1438
1399577049082732580	1486	1406	1519	1439
1399577049102797920	1491	1392	1518	1439
1399577049117928239	1487	1399	1518	1438
1399577049132573943	1486	1392	1518	1439
1399577049152763398	1513	1444	1518	1440
1399577049172774692	1511	1462	1517	1437
1399577049192716873	1526	1481	1517	1440
1399577049207579289	1534	1472	1517	1440
1399577049222770262	1524	1470	1517	1440
1399577049242747788	1557	1562	1517	1438
1399577049262769581	1556	1573	1516	1438
1399577049272806854	1561	1569	1516	1437
1399577049287816679	1560	1562	1516	1438
1399577049307871568	1556	1606	1516	1438
1399577049322772708	1565	1606	1516	1439
1399577049342773535	1544	1584	1515	1438
1399577049357817284	1545	1588	1515	1439
1399577049372868978	1548	1588	1514	1439
1399577049392705017	1525	1539	1514	1438
1399577049407835439	1519	1547	1514	1437
1399577049432854860	1520	1545	1513	1438
1399577049447908305	1511	1523	1513	1438
1399577049467697583	1501	1517	1512	1438
1399577049482814747	1506	1499	1512	1438
1399577049502811367	1491	1434	1511	1439
1399577049517890225	1488	1440	1511	1438
1399577049532852505	1486	1441	1510	1437
1399577049552826124	1502	1418	1509	1438
1399577049567805390	1499	1404	1509	1438
1399577049582688140	1490	1406	1508	1439
1399577049602883523	1512	1409	1508	1439
1399577049622913537	1508	1406	1507	1440
1399577049642839915	1505	1412	1506	1439
1399577049657840327	1517	1415	1506	1441
1399577049672843528	1514	1392	1506	1441
1399577049692826949	1518	1458	1505	1439
1399577049717844857	1526	1456	1504	1439
1399577049732801187	1518	1460	1504	1439
1399577049762845215	1537	1484	1503	1439
1399577049772808672	1531	1474	1502	1441
1399577049792803696	1524	1504	1502	1439
1399577049807778223	1540	1502	1501	1439
1399577049822832396	1526	1509	1501	1439
1399577049842880899	1542	1508	1500	1438
1399577049867870801	1542	1538	1500	1439
1399577049882686240	1537	1529	1499	1439
1399577049902846188	1519	1501	1499	1439
1399577049917528809	1521	1512	1499	1438
1399577049937481904	1519	1516	1498	1438
1399577049967487230	1517	1499	1498	1437
1399577049982528696	1522	1501	1498	1438
1399577049997531989	1516	1473	1498	1438
1399577050017526928	1514	1467	1498	1438
1399577050032529359	1522	1461	1498	1438
1399577050052557161	1533	1465	1498	1438
1399577050067538585	1532	1466	1497	1437
1399577050082492672	1538	1470	1498	1437
1399577050102504292	1546	1487	1498	1437
1399577050117525556	1549	1486	1498	1437
1399577050142603107	1545	1484	1498	1437
1399577050157610649	1555	1495	1498	1438
1399577050172538432	1548	1503	1499	1438
1399577050207489527	1559	1515	1500	1437
1399577050222481936	1565	1512	1500	1438
1399577050242555828	1552	1524	1500	1437
1399577050257518235	1573	1524	1501	1438
1399577050272541971	1560	1518	1501	1438
1399577050287540109	1568	1524	1502	1439
1399577050307578996	1557	1536	1502	1439
1399577050332479974	1561	1536	1503	1438
1399577050352546104	1556	1536	1504	1438
1399577050367527548	1556	1540	1504	1438
1399577050382539584	1557	1530	1505	1438
1399577050402560859	1546	1542	1506	1438
1399577050422532467	1543	1521	1507	1439
1399577050442548125	1546	1527	1507	1439
1399577050457516510	1542	1527	1508	1440
1399577050472572541	1551	1515	1509	1440
1399577050492458878	1526	1510	1510	1439
1399577050507481660	1530	1514	1511	1441
1399577050522512935	1538	1506	1512	1439
1399577050542557465	1543	1526	1512	1439
1399577050567529148	1545	1521	1514	1439
1399577050582532033	1540	1520	1515	1439
1399577050602494398	1540	1523	1515	1439
1399577050617479043	1541	1514	1516	1439
1399577050642549505	1544	1543	1518	1438
1399577050657520489	1547	1536	1519	1439
1399577050672497061	1534	1537	1519	1438
1399577050702480872	1542	1540	1520	1438
1399577050717492458	1542	1545	1521	1437
1399577050732461120	1539	1546	1522	1437
1399577050752576359	1542	1541	1523	1437
1399577050767543340	1540	1533	1523	1437
1399577050792557173	1540	1536	1524	1437
1399577050807428705	1548	1546	1524	1436
1399577050822501274	1542	1537	1525	1437
1399577050842507565	1524	1503	1525	1438
1399577050867561853	1529	1510	1525	1436
1399577050882531167	1524	1516	1526	1436
1399577050902581129	1512	1501	1526	1437
1399577050922516227	1510	1506	1526	1436
1399577050952539949	1496	1516	1526	1437
1399577050967524091	1487	1505	1526	1436
1399577050982525813	1490	1509	1526	1437
1399577051002515120	1483	1500	1526	1437
1399577051017516899	1486	1499	1526	1437
1399577051032519480	1482	1505	1526	1437
1399577051052442369	1491	1520	1526	1437
1399577051067485974	1481	1512	1526	1437
1399577051087513667	1483	1516	1526	1438
1399577051107535693	1503	1532	1526	1438
1399577051132589743	1495	1525	1526	1438
1399577051152528316	1509	1528	1526	1438
1399577051182567031	1509	1532	1525	1438
1399577051197511677	1503	1534	1525	1437
1399577051217557105	1508	1530	1525	1437
1399577051232517837	1513	1526	1525	1438
1399577051247484897	1508	1517	1525	1438
1399577051267539304	1515	1518	1524	1439
1399577051282532092	1509	1522	1524	1438
1399577051302610824	1495	1507	1524	1438
1399577051322606045	1488	1508	1524	1437
1399577051342567545	1495	1498	1524	1438
1399577051357468591	1508	1500	1524	1438
1399577051372564515	1498	1511	1523	1436
1399577051392531900	1495	1507	1523	1437
1399577051407535208	1488	1507	1523	1438
1399577051422527598	1493	1489	1523	1439
1399577051447558038	1485	1485	1523	1439
1399577051467566237	1487	1489	1522	1439
1399577051492544542	1482	1486	1522	1437
1399577051507555120	1484	1497	1522	1437
1399577051522507308	1479	1485	1522	1437
1399577051537592141	1482	1470	1522	1440
1399577051567529279	1491	1484	1521	1438
1399577051582497086	1495	1488	1521	1438
1399577051602548993	1494	1486	1521	1439
1399577051612501334	1505	1486	1520	1438
1399577051642556157	1511	1499	1520	1438
1399577051657560471	1514	1498	1520	1438
1399577051672538633	1517	1499	1519	1439
1399577051692567212	1523	1504	1519	1438
1399577051707523264	1523	1500	1519	1439
1399577051737540136	1532	1512	1518	1438
1399577051752560145	1534	1512	1518	1439
1399577051772559747	1536	1522	1518	1437
1399577051792554505	1537	1525	1518	1437
1399577051807540726	1543	1518	1517	1438
1399577051837621771	1547	1533	1517	1436
1399577051852605262	1535	1523	1517	1437
1399577051872548578	1546	1527	1516	1436
1399577051892560797	1526	1518	1516	1436
1399577051907558768	1524	1524	1516	1436
1399577051922625621	1534	1517	1516	1436
1399577051942549113	1530	1512	1515	1437
1399577051962622286	1529	1508	1515	1437
1399577051972516255	1524	1510	1515	1437
1399577051992533327	1520	1503	1514	1436
1399577052007518696	1516	1511	1514	1437
1399577052022522356	1521	1507	1514	1436
1399577052037508567	1517	1518	1513	1436
1399577052057576897	1525	1503	1513	1435
1399577052082554999	1520	1497	1513	1436
1399577052102592664	1528	1510	1512	1436
1399577052117506441	1529	1500	1512	1436
1399577052142572311	1541	1495	1512	1437
1399577052157598510	1537	1506	1512	1437
1399577052172497737	1541	1503	1512	1436
1399577052192551872	1551	1508	1512	1436
1399577052207562276	1540	1515	1512	1435
1399577052222493636	1540	1515	1512	1437
1399577052242508688	1554	1513	1512	1436
1399577052267552499	1550	1538	1512	1435
1399577052282502165	1556	1539	1512	1435
1399577052302556049	1547	1525	1512	1436
1399577052322517387	1549	1552	1513	1435
1399577052342555225	1540	1557	1513	1434
1399577052367550527	1538	1556	1513	1435
1399577052382620081	1536	1566	1513	1433
1399577052397476917	1531	1565	1513	1434
1399577052412505941	1526	1556	1513	1434
1399577052432532588	1526	1550	1513	1435
1399577052452604638	1520	1551	1513	1435
1399577052467592050	1513	1552	1513	1435
1399577052492477579	1509	1546	1513	1434
1399577052507487587	1511	1539	1513	1434
1399577052522536891	1503	1543	1513	1434
1399577052552488156	1510	1515	1513	1434
1399577052567522555	1504	1509	1513	1434
1399577052582528929	1503	1509	1512	1434
1399577052607503383	1517	1492	1513	1434
1399577052622539133	1512	1489	1513	1434
1399577052637551880	1508	1495	1513	1435
1399577052667536240	1512	1486	1513	1434
1399577052682533520	1512	1490	1513	1434
1399577052702603110	1514	1501	1513	1435
1399577052717553442	1519	1486	1513	1436
1399577052732526481	1516	1478	1513	1436
1399577052757465605	1515	1513	1513	1435
1399577052772512218	1517	1502	1513	1436
1399577052792868855	1520	1536	1513	1436
1399577052817894681	1515	1538	1513	1435
1399577052842781006	1521	1569	1513	1434
1399577052857844381	1518	1572	1513	1434
1399577052872887372	1525	1564	1513	1434
1399577052892841320	1512	1577	1513	1435
1399577052907857410	1506	1567	1513	1434
1399577052922889959	1507	1575	1513	1436
1399577052942744998	1509	1584	1513	1434
1399577052957859361	1501	1608	1513	1434
1399577052972717597	1513	1609	1513	1432
1399577052987600062	1501	1612	1513	1434
1399577053007781110	1492	1586	1512	1433
1399577053022795938	1491	1592	1512	1433
1399577053042809454	1477	1588	1512	1433
1399577053067549004	1481	1584	1511	1433
1399577053082592737	1478	1598	1511	1433
1399577053102567300	1474	1563	1511	1431
1399577053117618079	1468	1544	1510	1433
1399577053132548467	1471	1540	1511	1436
1399577053152573770	1465	1516	1510	1435
1399577053167620945	1453	1521	1510	1434
1399577053182571666	1469	1531	1510	1434
1399577053202577474	1456	1512	1509	1432
1399577053217858094	1451	1503	1509	1434
1399577053232810949	1466	1496	1509	1435
1399577053252809448	1464	1496	1509	1435
1399577053272859830	1461	1498	1509	1438
1399577053292614898	1479	1487	1509	1436
1399577053307634201	1478	1494	1509	1435
1399577053332904864	1479	1477	1509	1436
1399577053347843745	1490	1487	1509	1437
1399577053367741970	1493	1480	1508	1435
1399577053382856054	1493	1475	1508	1438
1399577053402899694	1506	1469	1508	1438
1399577053412787089	1503	1466	1508	1440
1399577053432823947	1502	1463	1508	1439
1399577053447914557	1518	1514	1508	1439
1399577053467901451	1522	1524	1508	1438
1399577053482816591	1521	1530	1508	1437
1399577053502867004	1530	1542	1508	1438
1399577053522728606	1527	1538	1508	1438
1399577053542971519	1516	1563	1509	1439
1399577053557600556	1520	1560	1509	1438
1399577053572912078	1528	1563	1509	1438
1399577053592903197	1521	1568	1509	1439
1399577053612769231	1521	1570	1509	1439
1399577053622996993	1520	1566	1510	1439
1399577053652913909	1514	1575	1510	1439
1399577053667878912	1515	1574	1510	1439
1399577053692964248	1496	1570	1510	1439
1399577053707898486	1494	1570	1510	1440
1399577053722841100	1497	1566	1510	1440
1399577053753079312	1475	1553	1511	1440
1399577053767857840	1476	1543	1511	1441
1399577053782804760	1477	1548	1511	1440
1399577053817897450	1467	1532	1511	1440
1399577053847913317	1472	1513	1510	1441
1399577053867805444	1464	1512	1510	1441
1399577053882917974	1474	1511	1510	1440
1399577053902876585	1485	1474	1510	1440
1399577053917736838	1485	1477	1510	1440
1399577053932931232	1492	1459	1510	1441
1399577053952787911	1512	1448	1510	1441
1399577053967676098	1514	1442	1510	1442
1399577053982864308	1507	1443	1510	1441
1399577054002860899	1533	1436	1510	1441
1399577054032938726	1536	1430	1510	1442
1399577054052923969	1541	1431	1509	1442
1399577054067874076	1550	1438	1509	1441
1399577054082941510	1547	1428	1508	1442
1399577054097815877	1558	1441	1508	1443
1399577054112824306	1557	1450	1508	1444
1399577054137871055	1564	1444	1508	1443
1399577054147801119	1577	1503	1507	1442
1399577054167831994	1580	1514	1507	1442
1399577054182836075	1584	1507	1507	1442
1399577054207861976	1568	1548	1507	1443
1399577054222800833	1561	1551	1506	1442
1399577054242846361	1548	1577	1506	1443
1399577054267889287	1551	1573	1506	1443
1399577054282917593	1549	1576	1506	1443
1399577054302853345	1544	1576	1506	1444
1399577054322950631	1545	1595	1506	1442
1399577054342936692	1519	1580	1506	1443
1399577054362801176	1521	1572	1506	1444
1399577054372769699	1515	1581	1506	1444
1399577054392936541	1489	1538	1506	1444
1399577054407633829	1498	1551	1506	1444
1399577054422820945	1485	1552	1506	1442
1399577054437857645	1498	1564	1506	1442
1399577054457937257	1490	1525	1506	1442
1399577054472866384	1490	1522	1506	1443
1399577054502990940	1490	1506	1506	1443
1399577054522781548	1481	1502	1507	1444
1399577054542926141	1487	1484	1507	1444
1399577054557823265	1490	1487	1507	1444
1399577054572819781	1492	1490	1508	1443
1399577054597843706	1506	1417	1508	1441
1399577054607629725	1513	1414	1508	1441
1399577054622790224	1515	1401	1508	1443
1399577054642910740	1523	1386	1509	1443
1399577054657888907	1525	1376	1509	1444
1399577054672800194	1521	1378	1510	1444
1399577054687810935	1512	1379	1510	1442
1399577054707613782	1555	1368	1510	1441
1399577054732809011	1557	1360	1511	1442
1399577054752790360	1582	1364	1511	1443
1399577054767848255	1567	1369	1512	1442
1399577054782804022	1582	1361	1512	1442
1399577054797762024	1583	1360	1512	1442
1399577054812786086	1613	1417	1513	1443
1399577054837884617	1617	1423	1513	1443
1399577054862797849	1609	1457	1514	1443
1399577054872696436	1619	1457	1514	1443
1399577054887918763	1616	1460	1515	1442
1399577054907793030	1611	1558	1515	1442
1399577054922917810	1615	1562	1515	1442
1399577054942926966	1601	1590	1516	1442
1399577054957618214	1608	1594	1516	1442
1399577054982794908	1602	1604	1517	1441
1399577055002810404	1575	1636	1517	1442
1399577055017949568	1577	1642	1518	1442
1399577055032831648	1574	1645	1518	1442
1399577055047769193	1545	1658	1518	1442
1399577055072796840	1544	1683	1518	1442
1399577055102586617	1514	1663	1517	1441
1399577055117696398	1493	1672	1516	1442
1399577055142796999	1476	1635	1515	1441
1399577055157808972	1474	1625	1514	1442
1399577055172802522	1461	1639	1513	1441
1399577055202877717	1460	1539	1512	1443
1399577055217808651	1450	1541	1512	1442
1399577055237797061	1453	1529	1512	1443
1399577055267913099	1458	1416	1511	1443
1399577055282893039	1465	1400	1511	1443
1399577055307863800	1481	1355	1510	1442
1399577055332885356	1474	1332	1510	1443
1399577055352834969	1507	1332	1511	1443
1399577055362847307	1505	1332	1510	1444
1399577055382840109	1503	1332	1510	1443
1399577055402725582	1520	1332	1511	1444
1399577055417850012	1522	1332	1511	1443
1399577055432769503	1522	1332	1511	1442
1399577055452842648	1565	1431	1511	1441
1399577055467891134	1583	1424	1511	1441
1399577055487889616	1578	1405	1511	1441
1399577055507922927	1595	1463	1510	1441
1399577055522640944	1599	1469	1510	1441
1399577055542787784	1597	1563	1510	1441
1399577055562794487	1594	1582	1511	1439
1399577055582791523	1601	1601	1511	1439
1399577055597811663	1594	1655	1512	1439
1399577055612743139	1595	1658	1512	1439
1399577055642810622	1532	1694	1513	1438
1399577055657879642	1528	1699	1514	1437
1399577055672841286	1534	1699	1515	1436
1399577055692868757	1535	1699	1515	1436
1399577055707835232	1508	1699	1515	1435
1399577055722840642	1516	1699	1516	1435
1399577055737603778	1518	1699	1516	1435
1399577055757797446	1473	1602	1516	1434
1399577055772664723	1470	1608	1516	1434
1399577055807791054	1448	1485	1517	1435
1399577055822772911	1455	1468	1517	1436
1399577055842804630	1489	1358	1517	1435
1399577055857863298	1484	1366	1518	1433
1399577055872800386	1481	1354	1518	1433
1399577055887855503	1477	1344	1519	1433
1399577055907829092	1523	1345	1520	1435
1399577055922798406	1518	1336	1520	1434
1399577055942800877	1536	1348	1521	1434
1399577055957814795	1534	1332	1522	1434
1399577055982773598	1532	1332	1522	1435
1399577056002833181	1554	1469	1523	1436
1399577056017840372	1546	1462	1524	1435
1399577056032827826	1569	1468	1524	1435
1399577056057804108	1563	1525	1524	1436
1399577056072782102	1569	1526	1525	1435
1399577056092877073	1563	1538	1525	1434
1399577056107811801	1543	1625	1526	1435
1399577056122815767	1548	1642	1527	1435
1399577056142861884	1531	1605	1527	1434
1399577056157866844	1536	1617	1528	1435
1399577056172814342	1537	1634	1529	1435
1399577056202796997	1527	1557	1529	1435
1399577056217804545	1538	1580	1530	1435
1399577056232746622	1530	1573	1530	1436
1399577056247858672	1508	1551	1530	1436
1399577056267804685	1514	1579	1530	1436
1399577056282799789	1518	1582	1530	1435
1399577056297875106	1501	1499	1529	1435
1399577056320981138	1520	1516	1514	1350
1399577056340782677	1520	1516	1514	1349
1399577056360462846	1520	1516	1514	1348
1399577056381091901	1520	1516	1514	1346
1399577056400966676	1520	1516	1514	1345
1399577056421084836	1520	1516	1514	1344
1399577056440591755	1520	1516	1514	1343
1399577056460327305	1520	1516	1514	1342
1399577056480822928	1520	1516	1514	1341
1399577056500439292	1520	1516	1514	1340
1399577056520849308	1520	1516	1514	1339
1399577056540695568	1520	1516	1514	1338
1399577056560388178	1520	1516	1514	1337
1399577056580870666	1520	1516	1514	1335
1399577056600671651	1520	1516	1514	1334
1399577056620208323	1520	1516	1514	1333
1399577056641026221	1520	1516	1514	1332
1399577056661026483	1520	1516	1514	1331
1399577056680465675	1520	1516	1514	1330
1399577056700654952	1520	1516	1514	1329
1399577056720291203	1520	1516	1514	1328
1399577056740849894	1520	1516	1514	1327
1399577056760888771	1520	1516	1514	1326
1399577056780990695	1520	1516	1514	1325
1399577056800952804	1520	1516	1514	1323
1399577056820299993	1520	1516	1514	1322
1399577056840988281	1520	1516	1514	1321
1399577056861211476	1520	1516	1514	1320
1399577056880892816	1520	1516	1514	1319
1399577056900742330	1520	1516	1514	1318
1399577056920206959	1520	1516	1514	1317
1399577056940985318	1520	1516	1514	1316
1399577056960893516	1520	1516	1514	1315
1399577056981017856	1520	1516	1514	1314
1399577057000654121	1520	1516	1514	1312
1399577057020645170	1520	1516	1514	1311
1399577057040996200	1520	1516	1514	1310
1399577057060978238	1520	1516	1514	1309
1399577057080912377	1520	1516	1514	1308
1399577057100591683	1520	1516	1514	1307
1399577057120442429	1520	1516	1514	1306
1399577057140907842	1520	1516	1514	1305
1399577057160805430	1520	1516	1514	1304
1399577057180264647	1520	1516	1514	1303
1399577057200917172	1520	1516	1514	1302
1399577057220734288	1520	1516	1514	1300
1399577057241113900	1520	1516	1514	1299
1399577057261016006	1520	1516	1514	1298
1399577057280116405	1520	1516	1514	1297
1399577057300823017	1520	1516	1514	1296
1399577057320827609	1520	1516	1514	1295
1399577057341334981	1520	1516	1101	1105
1399577057441609072	1520	1516	1101	1105
1399577057541899532	1520	1516	1101	1105
1399577057642168359	1520	1516	1101	1105
1399577057742486103	1520	1516	1101	1105
1399577057842671496	1520	1516	1101	1105
1399577057942849541	1520	1516	1101	1105
1399577058043028814	1520	1516	1101	1105
1399577058143201482	1520	1516	1101	1105
1399577058243394500	1520	1516	1101	1105
1399577058343564515	1520	1516	1101	1105
1399577058443787729	1520	1516	1101	1105
1399577058543966901	1520	1516	1101	1105
1399577058644135374	1520	1516	1101	1105
1399577058744308903	1520	1516	1101	1105
1399577058844534369	1520	1516	1101	1105
1399577058944691430	1520	1516	1101	1105
1399577059044860711	1520	1516	1101	1105
1399577059145062106	1520	1516	1101	1105
1399577059245229274	1520	1516	1101	1105
1399577059345380899	1520	1516	1101	1105
1399577059445582617	1520	1516	1101	1105
1399577059545754062	1520	1516	1101	1105
1399577059645912585	1520	1516	1101	1105
1399577059746068389	1520	1516	1101	1105
1399577059846220257	1520	1516	1101	1105
1399577059946374107	1520	1516	1101	1105
1399577060046532408	1520	1516	1101	1105
1399577060146691728	1520	1516	1101	1105
1399577060246846549	1520	1516	1101	1105
1399577060347023642	1520	1516	1513	1105
