#Time	 Roll 	 Pitch 	 Yaw 	 Thrust
1400061966651913778	1530	1499	1515	1378
1400061966666800223	1522	1497	1515	1379
1400061966681822912	1529	1497	1515	1379
1400061966706708366	1525	1496	1515	1381
1400061966721721488	1526	1499	1515	1382
1400061966751907666	1526	1496	1515	1382
1400061966766973492	1524	1496	1515	1383
1400061966801865829	1527	1496	1515	1385
1400061966816842314	1527	1495	1515	1385
1400061966831804164	1529	1500	1515	1386
1400061966851905163	1530	1497	1515	1387
1400061966866874196	1527	1500	1515	1387
1400061966881960608	1524	1495	1515	1388
1400061966901852279	1528	1502	1515	1389
1400061966916476930	1529	1494	1515	1389
1400061966941833138	1525	1499	1515	1391
1400061966956818705	1525	1496	1515	1392
1400061966981874842	1528	1496	1515	1392
1400061967016936062	1525	1497	1515	1393
1400061967041797460	1526	1498	1515	1395
1400061967066758429	1526	1495	1515	1395
1400061967081831664	1526	1495	1515	1396
1400061967096874905	1532	1498	1515	1396
1400061967116885681	1524	1494	1515	1396
1400061967131845993	1523	1501	1515	1396
1400061967151870717	1528	1497	1515	1398
1400061967166739863	1525	1501	1515	1398
1400061967181875107	1526	1502	1515	1399
1400061967196736685	1522	1497	1515	1401
1400061967231923730	1529	1496	1515	1401
1400061967266850807	1525	1498	1515	1402
1400061967301878588	1526	1493	1515	1404
1400061967316610876	1532	1497	1515	1402
1400061967331809660	1532	1499	1515	1404
1400061967351814476	1529	1497	1515	1405
1400061967366903115	1526	1498	1515	1407
1400061967381837670	1523	1495	1515	1408
1400061967401828898	1526	1493	1515	1409
1400061967416803686	1526	1493	1515	1410
1400061967451902662	1528	1494	1515	1410
1400061967466837790	1534	1496	1515	1409
1400061967501826272	1526	1499	1515	1410
1400061967521840181	1532	1498	1515	1409
1400061967541868914	1521	1490	1515	1407
1400061967556856933	1524	1496	1515	1407
1400061967571865458	1522	1504	1515	1406
1400061967591861147	1507	1509	1515	1404
1400061967606776780	1515	1495	1515	1404
1400061967621834374	1525	1504	1515	1404
1400061967641789667	1515	1499	1515	1403
1400061967656829393	1506	1491	1515	1404
1400061967681884538	1511	1504	1514	1402
1400061967696808095	1508	1498	1515	1401
1400061967731895450	1518	1506	1514	1399
1400061967756852238	1516	1495	1514	1400
1400061967781866170	1508	1499	1514	1397
1400061967801863235	1520	1501	1514	1396
1400061967816734448	1504	1507	1514	1396
1400061967831804324	1488	1488	1514	1397
1400061967846812453	1506	1496	1514	1394
1400061967866795165	1500	1508	1513	1396
1400061967881838433	1499	1506	1513	1395
1400061967901895536	1511	1497	1513	1394
1400061967916879509	1503	1515	1513	1395
1400061967931855523	1505	1501	1513	1396
1400061967951954786	1510	1507	1513	1393
1400061967981820655	1501	1500	1513	1395
1400061968016910460	1508	1505	1513	1396
1400061968031834591	1527	1488	1512	1396
1400061968056864428	1525	1499	1512	1397
1400061968071929298	1528	1502	1512	1393
1400061968091888211	1532	1508	1512	1397
1400061968106967455	1523	1489	1512	1395
1400061968121862001	1515	1488	1511	1395
1400061968141814744	1513	1486	1511	1399
1400061968156855008	1506	1489	1511	1397
1400061968181807638	1512	1481	1511	1397
1400061968216837189	1519	1485	1511	1398
1400061968231903193	1509	1471	1511	1399
1400061968266884004	1515	1492	1511	1399
1400061968291837671	1517	1486	1511	1400
1400061968316831697	1516	1493	1511	1401
1400061968331862555	1520	1491	1511	1401
1400061968346821632	1517	1487	1511	1404
1400061968366844773	1524	1481	1511	1404
1400061968381801384	1531	1478	1511	1404
1400061968396730048	1523	1480	1511	1404
1400061968431844721	1531	1488	1511	1404
1400061968456776113	1526	1483	1512	1406
1400061968481827388	1527	1490	1512	1407
1400061968506784989	1529	1486	1512	1407
1400061968521876840	1534	1490	1512	1409
1400061968541782090	1529	1493	1512	1407
1400061968556879654	1533	1480	1512	1410
1400061968571838001	1530	1491	1512	1410
1400061968591916869	1538	1486	1512	1409
1400061968606831104	1529	1485	1512	1410
1400061968621744803	1530	1493	1512	1411
1400061968641797337	1542	1497	1511	1411
1400061968666809340	1536	1482	1512	1411
1400061968701866144	1525	1489	1511	1411
1400061968731934240	1534	1484	1511	1408
1400061968751841958	1536	1484	1511	1409
1400061968771908326	1529	1477	1511	1410
1400061968791853719	1537	1490	1511	1407
1400061968806850723	1530	1491	1511	1408
1400061968821842945	1534	1490	1511	1406
1400061968841788212	1531	1490	1511	1406
1400061968856837840	1531	1499	1511	1406
1400061968871879874	1520	1490	1511	1406
1400061968901913529	1530	1492	1511	1403
1400061968931832301	1530	1491	1511	1402
1400061968966832692	1524	1496	1511	1401
1400061968981828197	1526	1498	1511	1401
1400061969006836492	1523	1498	1511	1402
1400061969031908282	1523	1497	1511	1400
1400061969051879011	1513	1511	1511	1399
1400061969066972875	1519	1492	1511	1399
1400061969081856600	1534	1489	1511	1398
1400061969096804644	1528	1498	1511	1396
1400061969116575434	1521	1491	1511	1397
1400061969151819434	1521	1497	1511	1396
1400061969166940089	1521	1488	1511	1396
1400061969201899734	1526	1496	1511	1396
1400061969216751892	1532	1494	1511	1397
1400061969231888942	1506	1504	1511	1395
1400061969266865573	1522	1504	1511	1396
1400061969281841210	1522	1506	1511	1396
1400061969296749847	1525	1500	1510	1397
1400061969316951508	1522	1505	1510	1398
1400061969336949863	1534	1505	1510	1397
1400061969346534663	1527	1510	1510	1397
1400061969366871118	1524	1516	1510	1400
1400061969391894067	1526	1506	1510	1401
1400061969416854984	1517	1512	1510	1398
1400061969441966176	1527	1510	1510	1398
1400061969466871632	1517	1512	1510	1400
1400061969481833997	1526	1517	1510	1401
1400061969501912611	1526	1516	1510	1402
1400061969516865772	1528	1501	1510	1401
1400061969531842750	1520	1509	1510	1401
1400061969551877326	1528	1507	1510	1403
1400061969566777893	1516	1504	1510	1404
1400061969581880692	1530	1502	1509	1404
1400061969601789639	1525	1499	1509	1405
1400061969616833964	1529	1508	1509	1405
1400061969631840690	1536	1504	1509	1405
1400061969666819432	1530	1509	1510	1405
1400061969701841250	1519	1505	1509	1406
1400061969721684538	1529	1502	1509	1406
1400061969751842439	1530	1506	1509	1407
1400061969766894673	1522	1512	1509	1407
1400061969781826046	1526	1507	1509	1407
1400061969801806413	1531	1505	1509	1407
1400061969816907988	1533	1496	1510	1408
1400061969831855600	1524	1493	1510	1408
1400061969851898855	1525	1487	1510	1408
1400061969866848582	1533	1494	1510	1408
1400061969891868170	1534	1489	1510	1409
1400061969906805128	1536	1486	1510	1408
1400061969931882996	1530	1487	1509	1408
1400061969946873099	1528	1487	1509	1409
1400061969966848127	1529	1483	1509	1409
1400061969981759662	1522	1483	1509	1409
1400061970001807702	1529	1482	1509	1408
1400061970021925412	1534	1487	1509	1407
1400061970041853526	1533	1487	1509	1408
1400061970056851297	1536	1489	1509	1407
1400061970071881568	1533	1487	1509	1407
1400061970091786522	1534	1482	1509	1409
1400061970116983265	1534	1488	1509	1407
1400061970141838133	1535	1488	1508	1407
1400061970166897307	1522	1490	1508	1407
1400061970191880308	1523	1493	1508	1407
1400061970217018807	1518	1496	1508	1406
1400061970251853907	1513	1495	1508	1407
1400061970266829878	1506	1501	1507	1406
1400061970281880898	1512	1496	1507	1406
1400061970301862844	1512	1497	1507	1407
1400061970316869868	1510	1497	1507	1406
1400061970331903098	1507	1492	1507	1406
1400061970351841522	1505	1498	1507	1404
1400061970371783069	1518	1485	1507	1406
1400061970401806647	1514	1484	1507	1406
1400061970431898718	1524	1485	1507	1405
1400061970466779339	1513	1489	1507	1404
1400061970481862490	1512	1476	1507	1405
1400061970496811749	1510	1486	1507	1405
1400061970516766298	1510	1492	1507	1403
1400061970531932117	1511	1490	1507	1403
1400061970546857436	1517	1497	1507	1404
1400061970566817726	1518	1485	1507	1404
1400061970586888684	1514	1482	1507	1405
1400061970601761074	1518	1483	1507	1405
1400061970616841857	1520	1480	1508	1403
1400061970651944564	1518	1491	1507	1403
1400061970681806883	1519	1486	1508	1404
1400061970706839911	1523	1492	1507	1403
1400061970721776867	1522	1492	1507	1404
1400061970741873733	1532	1491	1507	1404
1400061970756878990	1528	1493	1507	1404
1400061970771835114	1517	1495	1507	1405
1400061970791859279	1513	1488	1507	1405
1400061970806890776	1517	1490	1507	1406
1400061970821876753	1527	1498	1507	1405
1400061970841858467	1526	1500	1507	1405
1400061970866741345	1526	1497	1507	1405
1400061970881753923	1522	1501	1507	1406
1400061970916729834	1520	1503	1507	1407
1400061970951832298	1527	1505	1507	1407
1400061970971827408	1528	1496	1508	1407
1400061971001820788	1528	1492	1508	1408
1400061971016882126	1536	1490	1508	1409
1400061971031797186	1535	1495	1508	1408
1400061971051813855	1531	1501	1507	1408
1400061971066757157	1535	1500	1508	1410
1400061971081836832	1537	1489	1508	1408
1400061971116822928	1537	1500	1508	1409
1400061971131875109	1529	1492	1508	1410
1400061971166775630	1544	1487	1508	1411
1400061971191795215	1537	1499	1508	1410
1400061971216915481	1543	1490	1508	1412
1400061971231810459	1548	1497	1508	1412
1400061971251912672	1543	1502	1508	1410
1400061971266769250	1554	1492	1508	1411
1400061971281764274	1545	1498	1508	1413
1400061971301928230	1552	1500	1508	1412
1400061971316871397	1546	1502	1508	1413
1400061971332170610	1544	1494	1508	1413
1400061971366891022	1548	1492	1508	1412
1400061971391842532	1543	1488	1508	1414
1400061971406768940	1549	1483	1508	1414
1400061971421789754	1551	1490	1508	1413
1400061971441788946	1556	1496	1508	1413
1400061971456738297	1555	1485	1508	1413
1400061971471785998	1542	1487	1508	1414
1400061971492039375	1549	1479	1508	1414
1400061971506844518	1543	1475	1508	1413
1400061971521777422	1536	1487	1507	1413
1400061971541781385	1540	1484	1507	1413
1400061971556774867	1540	1486	1507	1414
1400061971581841368	1529	1483	1507	1414
1400061971616755874	1543	1480	1507	1413
1400061971631840623	1545	1476	1507	1414
1400061971666982833	1547	1480	1507	1413
1400061971681870891	1545	1480	1507	1413
1400061971701820016	1546	1475	1507	1413
1400061971716807818	1539	1481	1507	1413
1400061971731842877	1541	1481	1507	1413
1400061971751839310	1542	1478	1507	1413
1400061971766846780	1545	1479	1507	1413
1400061971781804409	1543	1481	1507	1412
1400061971801814514	1539	1477	1507	1413
1400061971816836006	1537	1471	1507	1414
1400061971851869071	1540	1477	1507	1413
1400061971866838604	1538	1484	1507	1413
1400061971901817517	1536	1472	1507	1413
1400061971931966951	1537	1472	1507	1413
1400061971951824356	1534	1473	1507	1413
1400061971966885367	1534	1472	1507	1412
1400061971986887547	1533	1475	1508	1412
1400061971996487855	1532	1472	1508	1414
1400061972016782844	1533	1476	1508	1414
1400061972031867142	1528	1470	1508	1414
1400061972046819255	1527	1469	1509	1414
1400061972081665981	1531	1481	1509	1414
1400061972096815279	1535	1478	1510	1415
1400061972131900055	1529	1479	1510	1415
1400061972156790073	1530	1476	1510	1416
1400061972171845243	1531	1475	1511	1416
1400061972201863230	1532	1479	1511	1417
1400061972221960367	1532	1480	1511	1417
1400061972241779729	1535	1483	1511	1418
1400061972256624395	1533	1478	1511	1418
1400061972271791053	1531	1477	1511	1419
1400061972301917409	1534	1477	1511	1419
1400061972316834875	1525	1477	1511	1419
1400061972351827197	1532	1484	1511	1419
1400061972381820717	1537	1482	1511	1419
1400061972401852324	1537	1484	1511	1419
1400061972421825250	1531	1483	1511	1420
1400061972441776912	1533	1488	1511	1420
1400061972456822267	1541	1492	1511	1419
1400061972471773760	1540	1492	1511	1418
1400061972491838512	1533	1490	1511	1419
1400061972506889643	1535	1489	1511	1418
1400061972521738433	1538	1495	1511	1418
1400061972541746292	1543	1492	1511	1418
1400061972556809571	1541	1490	1511	1418
1400061972581854116	1538	1497	1511	1418
1400061972616789309	1541	1496	1510	1418
1400061972631882741	1542	1497	1510	1417
1400061972666817102	1542	1489	1510	1417
1400061972681795990	1538	1495	1509	1418
1400061972696751338	1537	1499	1509	1417
1400061972716817175	1546	1499	1509	1416
1400061972731823075	1539	1494	1509	1417
1400061972751800707	1537	1491	1508	1416
1400061972766700259	1541	1491	1508	1418
1400061972781874803	1535	1487	1508	1416
1400061972801880058	1536	1487	1508	1417
1400061972816882881	1541	1494	1507	1417
1400061972851912729	1534	1489	1507	1416
1400061972881845415	1545	1496	1506	1416
1400061972896821122	1543	1498	1506	1416
1400061972916876125	1544	1495	1506	1416
1400061972931868396	1532	1496	1506	1417
1400061972951810802	1534	1496	1506	1417
1400061972966824180	1539	1499	1506	1416
1400061972986882795	1536	1500	1506	1416
1400061973001865805	1541	1496	1506	1414
1400061973016792966	1534	1495	1505	1414
1400061973031815069	1534	1492	1506	1415
1400061973066871190	1533	1492	1506	1415
1400061973091813682	1524	1486	1505	1415
1400061973116855851	1523	1493	1505	1414
1400061973141844556	1530	1491	1506	1414
1400061973156825381	1522	1490	1506	1414
1400061973181872261	1518	1480	1506	1414
1400061973201802838	1520	1481	1506	1414
1400061973216848527	1517	1477	1506	1414
1400061973231857570	1525	1471	1506	1414
1400061973251968607	1520	1479	1506	1414
1400061973266857593	1526	1475	1506	1414
1400061973301889666	1527	1474	1506	1414
1400061973321799565	1527	1478	1506	1413
1400061973351864721	1525	1480	1506	1414
1400061973371792228	1522	1481	1507	1413
1400061973391849650	1525	1474	1507	1413
1400061973406775106	1536	1476	1507	1413
1400061973421891819	1521	1463	1507	1413
1400061973441794210	1523	1477	1508	1411
1400061973456792552	1518	1480	1508	1410
1400061973471765056	1524	1485	1508	1410
1400061973491809127	1524	1482	1508	1410
1400061973506819897	1511	1477	1508	1409
1400061973531797470	1521	1480	1509	1409
1400061973556779149	1518	1475	1509	1408
1400061973581901316	1516	1470	1509	1408
1400061973616866034	1514	1471	1510	1408
1400061973631763542	1521	1477	1510	1407
1400061973656830745	1511	1483	1510	1407
1400061973671849827	1508	1481	1510	1407
1400061973691883552	1505	1483	1510	1408
1400061973706879833	1499	1481	1510	1408
1400061973721753656	1502	1485	1510	1409
1400061973741938705	1510	1486	1510	1410
1400061973756883036	1502	1485	1511	1410
1400061973781864591	1512	1495	1511	1409
1400061973801846336	1507	1486	1511	1410
1400061973821777633	1522	1495	1511	1409
1400061973841851478	1521	1499	1511	1411
1400061973866845939	1517	1502	1511	1411
1400061973881780046	1516	1504	1511	1410
1400061973901772873	1518	1504	1511	1410
1400061973916876126	1522	1505	1511	1411
1400061973931876054	1519	1505	1511	1412
1400061973951880404	1518	1509	1511	1411
1400061973966850682	1521	1512	1511	1410
1400061973986803092	1530	1514	1510	1410
1400061974001826836	1523	1509	1510	1411
1400061974016814375	1531	1507	1510	1411
1400061974051781399	1526	1508	1510	1411
1400061974071823249	1533	1511	1510	1412
1400061974091850586	1532	1510	1510	1412
1400061974106862224	1537	1513	1510	1412
1400061974121801386	1535	1519	1509	1411
1400061974141808405	1533	1512	1509	1412
1400061974156775634	1537	1507	1509	1413
1400061974171860701	1519	1498	1509	1414
1400061974191888183	1521	1494	1509	1414
1400061974206857238	1521	1497	1509	1415
1400061974231833571	1518	1482	1508	1414
1400061974251849330	1517	1477	1508	1415
1400061974266825003	1527	1497	1508	1414
1400061974301891901	1525	1499	1507	1415
1400061974331860549	1525	1496	1507	1415
1400061974351870794	1521	1491	1507	1416
1400061974366848499	1525	1493	1507	1416
1400061974381829414	1520	1492	1507	1416
1400061974401795566	1522	1493	1506	1416
1400061974416823855	1530	1498	1506	1417
1400061974431835670	1526	1499	1506	1418
1400061974451877693	1520	1492	1506	1418
1400061974466777425	1522	1488	1506	1419
1400061974481825169	1521	1486	1506	1419
1400061974501881355	1530	1491	1507	1419
1400061974516864943	1531	1496	1507	1418
1400061974541453348	1533	1489	1507	1419
1400061974566792893	1524	1490	1507	1420
1400061974581875417	1527	1490	1507	1420
1400061974606826223	1523	1479	1507	1420
1400061974621827895	1528	1482	1507	1420
1400061974641830571	1524	1476	1508	1422
1400061974656776066	1520	1473	1508	1421
1400061974671799953	1520	1471	1508	1422
1400061974691824274	1527	1482	1508	1420
1400061974706864761	1535	1483	1508	1421
1400061974721797985	1527	1488	1508	1421
1400061974751754335	1534	1485	1508	1420
1400061974771881465	1532	1468	1508	1420
1400061974801836161	1528	1472	1508	1419
1400061974816856961	1525	1468	1507	1419
1400061974851912349	1526	1468	1507	1418
1400061974866974527	1521	1470	1507	1417
1400061974881889056	1523	1484	1507	1417
1400061974896899219	1521	1475	1507	1418
1400061974916901250	1523	1473	1507	1418
1400061974941892062	1520	1482	1507	1417
1400061974956832316	1522	1480	1507	1418
1400061974981861609	1521	1491	1507	1417
1400061975001959328	1526	1495	1507	1415
1400061975031844692	1530	1493	1506	1417
1400061975046775162	1527	1494	1506	1417
1400061975081833987	1529	1479	1506	1416
1400061975101857290	1533	1477	1506	1416
1400061975116881114	1532	1488	1506	1415
1400061975131984709	1534	1487	1506	1416
1400061975151831184	1534	1486	1505	1416
1400061975166878287	1534	1484	1505	1417
1400061975181899621	1529	1478	1505	1417
1400061975196777259	1539	1479	1505	1418
1400061975231985794	1533	1486	1505	1417
1400061975251939102	1536	1483	1504	1416
1400061975271452698	1538	1486	1504	1417
1400061975301762528	1537	1495	1504	1417
1400061975331924567	1532	1493	1504	1417
1400061975346689944	1539	1496	1504	1418
1400061975366717575	1532	1504	1504	1418
1400061975381776388	1524	1496	1504	1417
1400061975401804637	1526	1502	1504	1416
1400061975416784046	1528	1508	1504	1416
1400061975431851944	1529	1511	1504	1417
1400061975451785228	1517	1508	1504	1417
1400061975466944899	1516	1506	1505	1417
1400061975481983446	1517	1507	1505	1416
1400061975506825400	1505	1500	1505	1419
1400061975531892272	1534	1502	1505	1418
1400061975556548709	1539	1505	1506	1418
1400061975581641479	1531	1506	1506	1419
1400061975606844530	1536	1507	1507	1419
1400061975621797343	1535	1498	1507	1419
1400061975641765817	1532	1498	1508	1420
1400061975656799232	1539	1490	1508	1422
1400061975671770081	1534	1488	1508	1423
1400061975691893019	1533	1485	1508	1420
1400061975706782307	1534	1486	1508	1421
1400061975731853067	1523	1496	1508	1422
1400061975746841463	1526	1492	1508	1421
1400061975781828772	1525	1504	1508	1421
1400061975816883833	1520	1503	1509	1422
1400061975836815022	1519	1505	1509	1422
1400061975846722182	1521	1502	1509	1422
1400061975866773154	1518	1498	1509	1422
1400061975881797970	1514	1496	1509	1422
1400061975896785243	1517	1500	1509	1422
1400061975916750698	1516	1504	1509	1422
1400061975931880762	1523	1501	1510	1422
1400061975966895858	1525	1485	1510	1423
1400061975981900878	1531	1483	1510	1423
1400061976016854112	1521	1484	1511	1422
1400061976031859875	1533	1482	1512	1421
1400061976051814247	1533	1476	1512	1421
1400061976066731113	1535	1477	1512	1421
1400061976086741986	1521	1465	1512	1422
1400061976101862571	1531	1464	1513	1420
1400061976116826399	1532	1468	1513	1420
1400061976136925579	1538	1475	1514	1420
1400061976151852966	1537	1464	1514	1420
1400061976166931387	1527	1472	1514	1421
1400061976186819033	1523	1471	1514	1420
1400061976201864208	1536	1466	1515	1420
1400061976216809891	1535	1471	1515	1419
1400061976251880194	1534	1463	1515	1420
1400061976282055475	1536	1467	1516	1420
1400061976317004161	1537	1464	1516	1421
1400061976331775128	1544	1461	1516	1419
1400061976351870215	1525	1462	1516	1419
1400061976366925366	1541	1462	1516	1420
1400061976381888384	1541	1466	1516	1421
1400061976401836859	1536	1458	1516	1421
1400061976416906784	1537	1457	1516	1420
1400061976431770951	1545	1458	1516	1422
1400061976451853804	1542	1465	1516	1421
1400061976466773003	1529	1466	1516	1422
1400061976491868179	1531	1462	1516	1422
1400061976516939802	1534	1461	1515	1423
1400061976531883693	1537	1470	1515	1422
1400061976546797523	1541	1468	1515	1423
1400061976571903601	1530	1477	1515	1423
1400061976591855082	1534	1485	1515	1424
1400061976606767903	1534	1478	1514	1424
1400061976621802594	1535	1478	1514	1424
1400061976641842357	1536	1481	1514	1424
1400061976656943825	1537	1485	1514	1424
1400061976671940205	1538	1486	1514	1424
1400061976701831728	1533	1487	1514	1424
1400061976721794905	1529	1485	1514	1424
1400061976751792348	1528	1488	1513	1425
1400061976781750479	1527	1494	1513	1424
1400061976801906815	1522	1495	1513	1423
1400061976816902569	1522	1500	1513	1423
1400061976836823917	1524	1497	1513	1423
1400061976851808846	1521	1498	1513	1424
1400061976866787008	1525	1496	1513	1424
1400061976886801807	1518	1500	1512	1423
1400061976901825912	1523	1512	1512	1423
1400061976916863924	1521	1507	1512	1422
1400061976951855387	1528	1506	1511	1423
1400061976966823983	1526	1502	1511	1423
1400061977001893218	1525	1510	1510	1423
1400061977031908885	1538	1502	1509	1423
1400061977056867247	1541	1510	1508	1422
1400061977071780531	1537	1490	1508	1424
1400061977091797035	1531	1504	1507	1422
1400061977116929150	1543	1498	1507	1425
1400061977151950222	1540	1516	1506	1424
1400061977166785401	1532	1523	1506	1423
1400061977191887962	1536	1505	1505	1425
1400061977216783027	1545	1512	1505	1424
1400061977251988710	1547	1509	1505	1424
1400061977281802907	1552	1502	1504	1425
1400061977316972807	1547	1503	1504	1424
1400061977331933590	1550	1501	1504	1425
1400061977346790922	1541	1494	1504	1424
1400061977366838003	1544	1502	1504	1423
1400061977381840428	1537	1506	1504	1423
1400061977401792490	1549	1501	1504	1422
1400061977421761408	1545	1494	1504	1422
1400061977441920316	1549	1501	1504	1422
1400061977466857748	1549	1488	1505	1421
1400061977491826530	1536	1483	1505	1420
1400061977506898002	1535	1480	1505	1420
1400061977521787285	1542	1479	1505	1420
1400061977551903562	1534	1483	1506	1419
1400061977566808292	1532	1480	1506	1418
1400061977581791232	1532	1477	1506	1419
1400061977601828186	1532	1478	1506	1419
1400061977616848152	1518	1476	1507	1418
1400061977631804361	1525	1475	1507	1416
1400061977651850418	1529	1476	1507	1416
1400061977666803935	1530	1476	1507	1414
1400061977701747707	1520	1467	1508	1415
1400061977721785453	1533	1463	1508	1414
1400061977751804311	1523	1457	1508	1414
1400061977786908254	1527	1455	1508	1415
1400061977796844814	1528	1452	1508	1415
1400061977821877242	1532	1461	1509	1415
1400061977841808427	1538	1462	1509	1415
1400061977856823235	1528	1464	1509	1415
1400061977871860855	1530	1451	1509	1418
1400061977891799305	1532	1454	1509	1417
1400061977916916511	1535	1459	1509	1418
1400061977951875853	1537	1455	1509	1419
1400061977966846839	1537	1460	1509	1420
1400061978001877713	1527	1452	1509	1420
1400061978016779120	1533	1463	1510	1421
1400061978041877292	1529	1467	1509	1421
1400061978056771887	1534	1466	1510	1422
1400061978071830027	1533	1465	1510	1422
1400061978091839223	1523	1463	1510	1424
1400061978106865775	1524	1456	1510	1424
1400061978121832683	1523	1469	1510	1424
1400061978156833697	1517	1469	1510	1423
1400061978181781501	1526	1465	1510	1423
1400061978201839952	1523	1466	1510	1423
1400061978231976002	1523	1472	1510	1423
1400061978256709059	1525	1475	1510	1423
1400061978271523727	1533	1479	1510	1422
1400061978291847508	1533	1480	1510	1422
1400061978306770415	1533	1483	1510	1422
1400061978321751358	1530	1482	1510	1423
1400061978341751239	1525	1478	1510	1423
1400061978356693627	1525	1477	1510	1424
1400061978371819282	1521	1472	1510	1424
1400061978401782522	1518	1474	1510	1423
1400061978416759658	1512	1477	1510	1424
1400061978431808722	1512	1477	1510	1423
1400061978466831544	1514	1481	1510	1423
1400061978481862674	1517	1492	1510	1424
1400061978506777861	1518	1493	1511	1423
1400061978531819081	1514	1494	1511	1423
1400061978546751419	1513	1501	1511	1422
1400061978566825943	1519	1500	1511	1424
1400061978581748178	1519	1498	1511	1423
1400061978596642018	1513	1511	1511	1423
1400061978616700122	1517	1505	1511	1423
1400061978641785819	1519	1500	1511	1422
1400061978656764915	1523	1502	1511	1422
1400061978681832798	1514	1503	1511	1422
1400061978706816949	1509	1503	1511	1422
1400061978721755827	1522	1493	1511	1422
1400061978751880742	1510	1494	1511	1421
1400061978771813518	1519	1506	1511	1421
1400061978791808901	1516	1493	1511	1421
1400061978806748266	1517	1500	1511	1420
1400061978821939520	1520	1501	1511	1420
1400061978841769552	1519	1500	1511	1420
1400061978856711653	1522	1499	1511	1420
1400061978871726292	1518	1505	1510	1419
1400061978901877955	1522	1500	1510	1419
1400061978931842342	1525	1488	1510	1420
1400061978946772707	1524	1487	1510	1419
1400061978981826149	1528	1490	1510	1419
1400061979001744391	1534	1489	1510	1418
1400061979016777783	1525	1486	1510	1419
1400061979031846578	1526	1476	1509	1420
1400061979051930257	1529	1474	1509	1419
1400061979066499914	1533	1482	1509	1419
1400061979081836786	1543	1478	1509	1419
1400061979101823190	1538	1478	1509	1418
1400061979116756497	1538	1478	1509	1420
1400061979131773078	1544	1474	1509	1420
1400061979166869911	1547	1474	1509	1421
1400061979181836101	1547	1467	1508	1422
1400061979206814742	1555	1463	1509	1424
1400061979221745656	1555	1463	1508	1422
1400061979241832100	1556	1466	1508	1424
1400061979256796200	1550	1475	1508	1423
1400061979271892484	1558	1478	1508	1424
1400061979291938834	1560	1470	1508	1425
1400061979306772138	1554	1469	1508	1424
1400061979342018034	1557	1474	1508	1425
1400061979356768212	1564	1466	1508	1425
1400061979381760518	1560	1476	1508	1425
1400061979401772784	1556	1487	1509	1426
1400061979431839741	1556	1485	1509	1425
1400061979466861733	1552	1487	1509	1426
1400061979491835156	1552	1486	1509	1424
1400061979516911937	1558	1488	1510	1425
1400061979531843723	1550	1488	1510	1424
1400061979546728405	1546	1491	1510	1424
1400061979566759793	1549	1494	1510	1423
1400061979581766982	1548	1499	1510	1423
1400061979596738043	1538	1499	1510	1423
1400061979631829672	1544	1493	1510	1421
1400061979646927345	1537	1492	1510	1422
1400061979681817163	1534	1489	1510	1420
1400061979716918336	1543	1487	1510	1419
1400061979751842220	1531	1487	1510	1417
1400061979766848691	1569	1475	1510	1416
1400061979781786105	1557	1473	1510	1416
1400061979801768967	1558	1476	1510	1414
1400061979816809572	1558	1467	1510	1414
1400061979831797309	1550	1469	1510	1414
1400061979851937377	1552	1466	1510	1414
1400061979866822207	1563	1463	1510	1412
1400061979881739151	1557	1460	1510	1413
1400061979916817496	1555	1467	1510	1412
1400061979951887061	1551	1476	1510	1413
1400061979966775103	1546	1473	1510	1411
1400061979981821033	1543	1472	1509	1413
1400061980001809378	1538	1482	1509	1414
1400061980016823670	1535	1482	1509	1414
1400061980031869844	1539	1473	1509	1412
1400061980051872464	1541	1479	1509	1413
1400061980067005142	1530	1499	1509	1414
1400061980081830377	1534	1500	1508	1413
1400061980101825999	1533	1490	1508	1413
1400061980116789148	1533	1478	1508	1414
1400061980151836623	1528	1484	1507	1416
1400061980166824715	1533	1473	1507	1417
1400061980191873636	1525	1477	1507	1417
1400061980206841482	1523	1482	1507	1416
1400061980221812071	1525	1482	1507	1416
1400061980241981297	1522	1483	1507	1416
1400061980256780010	1519	1481	1507	1418
1400061980271872378	1519	1476	1507	1419
1400061980291815433	1514	1485	1507	1419
1400061980306780216	1518	1483	1507	1420
1400061980321681791	1511	1491	1507	1418
1400061980341910078	1513	1489	1507	1421
1400061980366884940	1506	1498	1507	1420
1400061980381857538	1510	1487	1507	1418
1400061980416892808	1503	1496	1507	1421
1400061980451869824	1500	1494	1507	1421
1400061980466769197	1494	1492	1507	1423
1400061980481856779	1490	1487	1507	1422
1400061980501751230	1505	1482	1507	1424
1400061980517026624	1498	1478	1507	1422
1400061980531780285	1502	1479	1507	1423
1400061980551764479	1503	1480	1507	1422
1400061980566947213	1495	1484	1507	1424
1400061980581824241	1501	1505	1508	1423
1400061980616831992	1491	1495	1508	1424
1400061980651556444	1496	1490	1509	1425
1400061980667038557	1497	1490	1509	1424
1400061980681805260	1521	1479	1510	1425
1400061980696710942	1510	1481	1510	1426
1400061980731887978	1508	1484	1511	1425
1400061980751912794	1506	1487	1512	1425
1400061980766764176	1514	1484	1512	1424
1400061980781950585	1516	1471	1513	1426
1400061980801823652	1521	1473	1513	1425
1400061980816766342	1515	1473	1514	1425
1400061980831702092	1524	1471	1514	1425
1400061980846900258	1523	1470	1514	1426
1400061980881814784	1527	1471	1515	1426
1400061980896788558	1530	1472	1515	1426
1400061980916844220	1530	1475	1515	1427
1400061980931882546	1539	1474	1515	1427
1400061980946972059	1533	1469	1515	1427
1400061980966978754	1538	1465	1515	1428
1400061980981781511	1537	1464	1515	1428
1400061980996705961	1545	1467	1515	1428
1400061981016839424	1538	1472	1516	1428
1400061981031802688	1547	1476	1516	1428
1400061981051868588	1548	1464	1516	1429
1400061981066749280	1548	1463	1516	1428
1400061981081833508	1554	1469	1516	1428
1400061981116901138	1559	1472	1516	1428
1400061981131826658	1562	1464	1516	1428
1400061981166915676	1569	1474	1517	1426
1400061981181734583	1574	1469	1517	1426
1400061981201853149	1586	1471	1517	1426
1400061981216924735	1573	1468	1517	1426
1400061981231815658	1582	1465	1517	1424
1400061981251992792	1589	1480	1517	1424
1400061981266713686	1580	1467	1517	1423
1400061981281834163	1577	1469	1517	1423
1400061981301771794	1574	1467	1517	1424
1400061981316855951	1555	1473	1517	1422
1400061981351810702	1567	1471	1517	1421
1400061981366823300	1553	1468	1516	1421
1400061981381725363	1562	1474	1516	1422
1400061981416819304	1581	1473	1516	1421
1400061981431845865	1588	1476	1516	1419
1400061981451778844	1579	1478	1515	1421
1400061981466973494	1573	1466	1515	1420
1400061981481760229	1571	1472	1514	1420
1400061981501757641	1563	1474	1514	1420
1400061981516801991	1571	1469	1513	1421
1400061981531907074	1567	1482	1513	1419
1400061981551860491	1576	1471	1513	1421
1400061981566840796	1576	1476	1512	1421
1400061981591876961	1577	1468	1512	1422
1400061981616863070	1572	1482	1511	1422
1400061981651932592	1567	1483	1510	1423
1400061981666900751	1568	1480	1510	1422
1400061981701888400	1563	1483	1509	1424
1400061981716837405	1562	1477	1509	1424
1400061981731833963	1557	1472	1508	1425
1400061981746795059	1556	1474	1508	1425
1400061981766870875	1549	1478	1508	1425
1400061981781790953	1546	1476	1507	1425
1400061981801990865	1543	1478	1507	1424
1400061981831943008	1539	1485	1507	1425
1400061981866949215	1534	1486	1506	1425
1400061981891784798	1528	1487	1506	1426
1400061981916952002	1520	1487	1505	1425
1400061981931683709	1527	1478	1505	1427
1400061981951969312	1520	1487	1505	1425
1400061981966894308	1522	1473	1505	1427
1400061981981699714	1523	1477	1505	1427
1400061982001799784	1522	1486	1505	1426
1400061982016767599	1526	1488	1506	1427
1400061982031793902	1521	1492	1506	1424
1400061982051790692	1522	1480	1506	1426
1400061982081988960	1514	1490	1506	1425
1400061982116820577	1512	1494	1507	1426
1400061982151820256	1500	1497	1507	1424
1400061982166817442	1516	1495	1507	1424
1400061982181884555	1505	1500	1507	1421
1400061982201886355	1502	1502	1507	1424
1400061982216843632	1506	1504	1508	1422
1400061982231827865	1497	1496	1508	1423
1400061982251852317	1507	1492	1508	1422
1400061982266993503	1503	1480	1508	1421
1400061982281787909	1510	1496	1508	1422
1400061982301823584	1511	1501	1508	1420
1400061982316777633	1515	1499	1508	1421
1400061982341823366	1512	1492	1509	1421
1400061982366858112	1514	1504	1509	1421
1400061982401910167	1510	1502	1510	1421
1400061982416858115	1529	1499	1510	1421
1400061982432165742	1511	1498	1510	1420
1400061982446861290	1520	1497	1511	1422
1400061982471856974	1520	1498	1511	1421
1400061982491902385	1519	1499	1511	1421
1400061982516808505	1523	1494	1512	1422
1400061982531864494	1532	1493	1512	1422
1400061982566900306	1527	1489	1512	1423
1400061982591874598	1534	1486	1513	1423
1400061982616883598	1530	1485	1513	1424
1400061982641736392	1526	1482	1514	1424
1400061982666941302	1530	1485	1514	1425
1400061982691822773	1531	1484	1514	1425
1400061982706777761	1532	1480	1514	1427
1400061982721863324	1528	1479	1514	1426
1400061982741738859	1538	1485	1514	1426
1400061982756755203	1539	1483	1514	1426
1400061982781801751	1541	1478	1515	1428
1400061982816816188	1540	1473	1515	1428
1400061982831847221	1538	1475	1515	1428
1400061982866792327	1543	1475	1515	1428
1400061982881804674	1544	1467	1515	1428
1400061982906738623	1547	1464	1515	1429
1400061982921693113	1539	1476	1516	1429
1400061982941788458	1546	1475	1516	1427
1400061982956796201	1541	1469	1516	1428
1400061982971985884	1537	1466	1515	1429
1400061982991818874	1530	1472	1515	1429
1400061983006808752	1538	1463	1515	1430
1400061983021482985	1536	1473	1515	1430
1400061983051886353	1525	1467	1514	1429
1400061983066839146	1534	1455	1514	1431
1400061983101843616	1530	1466	1513	1430
1400061983131797591	1542	1458	1513	1430
1400061983151837118	1535	1459	1512	1432
1400061983166759822	1536	1463	1512	1431
1400061983181736776	1538	1461	1512	1431
1400061983201755539	1538	1461	1511	1430
1400061983216780545	1537	1468	1511	1430
1400061983231842633	1532	1470	1511	1431
1400061983246739717	1523	1472	1511	1432
1400061983281835483	1532	1473	1510	1431
1400061983301795302	1531	1475	1510	1431
1400061983331895495	1532	1476	1509	1432
1400061983366795138	1534	1478	1508	1432
1400061983382191677	1534	1474	1508	1432
1400061983401751977	1534	1473	1507	1433
1400061983416937538	1531	1479	1507	1432
1400061983431839300	1534	1480	1506	1431
1400061983456732712	1530	1477	1506	1432
1400061983471777477	1531	1486	1505	1432
1400061983501834210	1526	1483	1505	1433
1400061983521895227	1523	1484	1504	1433
1400061983551843972	1518	1487	1503	1434
1400061983571833617	1522	1489	1503	1434
1400061983601777214	1521	1493	1503	1434
1400061983616790490	1514	1496	1502	1435
1400061983636816677	1524	1493	1502	1435
1400061983646787150	1526	1492	1502	1435
1400061983666898261	1521	1492	1502	1435
1400061983686854011	1518	1494	1502	1436
1400061983701772352	1519	1489	1502	1436
1400061983716823484	1535	1485	1502	1436
1400061983731798667	1535	1489	1502	1435
1400061983751800195	1532	1492	1502	1435
1400061983766688818	1531	1483	1502	1435
1400061983791780576	1520	1492	1502	1436
1400061983816838548	1522	1494	1503	1435
1400061983851930945	1531	1490	1503	1435
1400061983871854399	1522	1497	1503	1436
1400061983891863738	1523	1495	1503	1435
1400061983906883092	1526	1496	1504	1436
1400061983921830421	1525	1494	1504	1436
1400061983941902967	1526	1495	1504	1435
1400061983956804416	1527	1499	1505	1435
1400061983971717875	1526	1496	1505	1434
1400061983991781805	1525	1496	1505	1434
1400061984017043318	1527	1498	1506	1434
1400061984031863032	1529	1489	1506	1434
1400061984066859150	1531	1490	1507	1432
1400061984081765771	1531	1495	1507	1431
1400061984101817082	1534	1490	1508	1431
1400061984116754893	1534	1492	1508	1429
1400061984131764054	1535	1487	1508	1430
1400061984151813547	1536	1483	1509	1428
1400061984166844907	1533	1481	1509	1428
1400061984181852601	1525	1476	1510	1427
1400061984201955552	1525	1481	1510	1426
1400061984216898278	1535	1487	1511	1425
1400061984231795080	1533	1482	1511	1425
1400061984266955602	1537	1481	1512	1423
1400061984281864611	1538	1484	1513	1422
1400061984316851911	1539	1473	1514	1422
1400061984351947779	1549	1476	1515	1421
1400061984366811848	1552	1477	1516	1420
1400061984386909390	1549	1474	1516	1420
1400061984401814005	1548	1471	1517	1420
1400061984416742494	1552	1473	1517	1418
1400061984436990731	1555	1476	1518	1419
1400061984451947061	1560	1478	1518	1417
1400061984466810818	1559	1472	1519	1418
1400061984501799884	1562	1474	1519	1416
1400061984516819457	1562	1476	1520	1417
1400061984551887491	1569	1471	1520	1417
1400061984581788984	1563	1474	1521	1417
1400061984601881221	1575	1465	1521	1417
1400061984616708865	1576	1468	1521	1417
1400061984631800958	1577	1463	1522	1418
1400061984666807528	1574	1464	1522	1418
1400061984681784220	1573	1464	1521	1419
1400061984696896564	1581	1465	1522	1419
1400061984716886236	1572	1463	1521	1419
1400061984731905813	1571	1464	1521	1419
1400061984751830660	1578	1468	1521	1420
1400061984781844844	1574	1466	1521	1421
1400061984796835769	1569	1471	1521	1421
1400061984831887462	1564	1469	1520	1422
1400061984841842220	1563	1474	1520	1422
1400061984856772171	1564	1473	1520	1422
1400061984871823763	1579	1469	1520	1422
1400061984891871891	1576	1465	1520	1423
1400061984906865323	1571	1471	1520	1423
1400061984921916444	1574	1473	1520	1424
1400061984941844367	1575	1470	1519	1423
1400061984956813022	1572	1467	1519	1425
1400061984971822338	1556	1472	1519	1425
1400061985001960440	1563	1471	1519	1426
1400061985031868540	1566	1476	1519	1427
1400061985056747449	1554	1472	1519	1427
1400061985081807757	1553	1469	1518	1427
1400061985096880198	1551	1473	1518	1427
1400061985116806748	1549	1477	1518	1428
1400061985131868082	1551	1478	1518	1429
1400061985151758326	1549	1478	1517	1429
1400061985166806863	1545	1478	1517	1429
1400061985181846463	1544	1480	1517	1429
1400061985201908508	1540	1484	1517	1429
1400061985216773457	1543	1483	1516	1429
1400061985231855911	1538	1476	1516	1430
1400061985266817510	1539	1487	1515	1429
1400061985301829715	1528	1486	1514	1429
1400061985321800333	1531	1489	1514	1427
1400061985341858761	1530	1491	1513	1428
1400061985356868295	1521	1491	1513	1426
1400061985371914383	1524	1493	1513	1428
1400061985391793711	1523	1490	1512	1426
1400061985406842743	1526	1500	1512	1424
1400061985421858897	1534	1492	1512	1426
1400061985441774860	1528	1494	1511	1425
1400061985466984092	1523	1496	1511	1425
1400061985501831951	1523	1497	1510	1425
1400061985521821371	1521	1486	1509	1424
1400061985541844044	1523	1489	1509	1424
1400061985556831491	1524	1493	1509	1424
1400061985571872453	1517	1503	1508	1423
1400061985591863316	1534	1504	1508	1423
1400061985606668004	1520	1496	1507	1422
1400061985631744427	1537	1503	1507	1422
1400061985651831784	1534	1502	1507	1422
1400061985666735587	1538	1503	1507	1423
1400061985681749033	1539	1495	1506	1421
1400061985706831553	1550	1500	1506	1423
1400061985731876188	1536	1501	1506	1421
1400061985756887387	1548	1501	1506	1422
1400061985781850418	1548	1494	1506	1421
1400061985816802008	1548	1498	1506	1422
1400061985831817179	1554	1498	1506	1422
1400061985851793385	1550	1490	1506	1423
1400061985866820717	1553	1492	1506	1423
1400061985881716283	1559	1495	1506	1421
1400061985901822808	1555	1495	1506	1421
1400061985916955105	1569	1491	1505	1422
1400061985931890311	1571	1490	1506	1421
1400061985951834541	1569	1495	1506	1424
1400061985966837479	1572	1484	1506	1423
1400061986001778549	1568	1491	1505	1422
1400061986031895385	1573	1484	1505	1424
1400061986066918194	1579	1484	1505	1424
1400061986081834721	1568	1480	1505	1423
1400061986096825811	1578	1492	1505	1424
1400061986116832280	1574	1486	1505	1422
1400061986131820906	1573	1486	1506	1424
1400061986151890369	1574	1478	1506	1424
1400061986166901840	1562	1472	1506	1424
1400061986181879905	1573	1477	1506	1425
1400061986216763986	1565	1478	1506	1425
1400061986231783870	1567	1475	1507	1424
1400061986266897999	1555	1478	1507	1425
1400061986281821194	1548	1477	1507	1425
1400061986306688256	1546	1477	1507	1425
1400061986321821992	1538	1471	1507	1425
1400061986341779046	1536	1474	1507	1425
1400061986356768478	1532	1472	1508	1425
1400061986371700596	1535	1472	1508	1426
1400061986391758526	1532	1460	1508	1426
1400061986406664892	1534	1462	1508	1426
1400061986421802551	1526	1463	1508	1426
1400061986451901788	1534	1465	1509	1426
1400061986466791443	1535	1459	1509	1427
1400061986501793860	1542	1462	1509	1426
1400061986521765543	1537	1460	1509	1427
1400061986541950304	1529	1461	1509	1426
1400061986556774373	1545	1466	1509	1426
1400061986571909262	1527	1470	1509	1425
1400061986591799004	1531	1469	1509	1425
1400061986606824199	1522	1467	1509	1426
1400061986621750836	1524	1477	1508	1427
1400061986641824324	1515	1468	1508	1427
1400061986656797990	1526	1474	1508	1425
1400061986671763821	1500	1473	1507	1426
1400061986691818631	1521	1484	1507	1425
1400061986716664813	1510	1475	1506	1426
1400061986751772204	1509	1479	1506	1426
1400061986766923893	1501	1480	1505	1427
1400061986786829923	1507	1473	1505	1427
1400061986796783459	1501	1482	1504	1426
1400061986821815976	1499	1478	1504	1428
1400061986841757672	1508	1475	1503	1429
1400061986856760310	1503	1483	1503	1428
1400061986871921159	1513	1477	1502	1427
1400061986891780269	1506	1481	1502	1428
1400061986906777666	1497	1479	1502	1427
1400061986921887438	1514	1489	1501	1428
1400061986941737091	1506	1490	1501	1426
1400061986966686049	1505	1497	1501	1427
1400061986991806281	1508	1490	1501	1428
1400061987006780709	1503	1494	1501	1427
1400061987021872715	1511	1494	1500	1427
1400061987051799884	1506	1495	1500	1426
1400061987066855035	1515	1496	1500	1425
1400061987081800704	1506	1497	1500	1425
1400061987101933390	1503	1485	1500	1425
1400061987116770454	1517	1496	1500	1424
1400061987131763803	1515	1504	1500	1423
1400061987166717767	1524	1489	1500	1424
1400061987181833398	1525	1496	1501	1422
1400061987216601374	1526	1490	1501	1423
1400061987231788753	1526	1480	1501	1424
1400061987266743133	1535	1489	1502	1423
1400061987291888747	1534	1495	1502	1422
1400061987316813426	1542	1492	1503	1421
1400061987331810779	1547	1486	1504	1422
1400061987346755039	1545	1498	1504	1422
1400061987389954328	1552	1489	1505	1421
1400061987401810293	1556	1494	1506	1422
1400061987416782900	1558	1491	1506	1420
1400061987451915499	1561	1488	1508	1421
1400061987466994249	1549	1479	1508	1422
1400061987491867278	1571	1483	1509	1421
1400061987506905136	1559	1488	1510	1421
1400061987521883967	1569	1484	1510	1422
1400061987541847085	1556	1466	1511	1422
1400061987556728770	1555	1473	1511	1422
1400061987571471254	1568	1478	1512	1423
1400061987591909350	1584	1481	1512	1421
1400061987606677846	1576	1487	1513	1421
1400061987621862124	1578	1490	1513	1421
1400061987641836097	1574	1478	1513	1422
1400061987666817885	1573	1481	1514	1423
1400061987701827685	1568	1484	1514	1423
1400061987721814780	1579	1480	1514	1423
1400061987741834673	1572	1483	1515	1424
1400061987756753107	1577	1490	1514	1423
1400061987771737600	1569	1489	1514	1424
1400061987791859315	1577	1480	1514	1422
1400061987806770863	1564	1475	1514	1425
1400061987821827896	1585	1474	1514	1424
1400061987841895704	1571	1467	1514	1426
1400061987856816109	1577	1464	1514	1426
1400061987871822082	1567	1463	1514	1425
1400061987891797554	1567	1463	1514	1424
1400061987906798260	1576	1464	1514	1425
1400061987921703219	1567	1472	1514	1425
1400061987951837442	1571	1468	1514	1423
1400061987966526359	1570	1471	1514	1423
1400061987986744539	1569	1477	1514	1423
1400061987996807933	1567	1473	1514	1424
1400061988016792466	1566	1469	1513	1424
1400061988041809016	1574	1479	1514	1423
1400061988056756717	1564	1474	1514	1424
1400061988071770315	1558	1467	1514	1424
1400061988091917075	1559	1465	1514	1423
1400061988106750045	1559	1467	1514	1424
1400061988131551048	1555	1466	1513	1424
1400061988151876553	1550	1465	1513	1424
1400061988166830936	1553	1464	1513	1424
1400061988191835402	1545	1463	1513	1424
1400061988216762194	1547	1463	1513	1423
1400061988251877215	1544	1466	1513	1423
1400061988271822294	1542	1474	1513	1423
1400061988301842415	1532	1471	1513	1423
1400061988321817779	1539	1459	1513	1423
1400061988341792508	1534	1463	1513	1423
1400061988356769684	1545	1465	1513	1422
1400061988371871421	1540	1476	1513	1422
1400061988401858319	1540	1468	1513	1423
1400061988421832191	1544	1464	1512	1424
1400061988451993356	1549	1468	1512	1422
1400061988481815883	1535	1466	1512	1423
1400061988516930646	1546	1464	1512	1422
1400061988531934410	1544	1470	1512	1421
1400061988551846060	1552	1464	1512	1422
1400061988566941859	1545	1459	1512	1422
1400061988581778776	1552	1466	1513	1422
1400061988601850693	1551	1465	1513	1421
1400061988616790657	1552	1465	1513	1421
1400061988631970992	1548	1465	1513	1422
1400061988656915294	1557	1466	1513	1420
1400061988681818563	1542	1468	1514	1421
1400061988716821576	1531	1475	1514	1420
1400061988741822640	1536	1472	1514	1420
1400061988756946859	1534	1471	1514	1420
1400061988771726477	1539	1478	1514	1419
1400061988791831134	1541	1471	1514	1420
1400061988806862574	1536	1469	1514	1421
1400061988821754774	1533	1469	1514	1420
1400061988841821288	1542	1479	1515	1420
1400061988856764364	1539	1481	1515	1420
1400061988881790708	1546	1478	1515	1420
1400061988901824281	1540	1483	1515	1420
1400061988916860421	1533	1485	1515	1421
1400061988951930120	1540	1483	1515	1420
1400061988971997978	1536	1484	1515	1419
1400061988991885685	1527	1479	1515	1420
1400061989016751719	1535	1481	1515	1420
1400061989031873559	1527	1483	1515	1419
1400061989046708030	1540	1474	1515	1420
1400061989066861469	1519	1481	1515	1419
1400061989081754455	1532	1483	1515	1419
1400061989096848117	1527	1488	1515	1419
1400061989121857064	1533	1479	1515	1419
1400061989151776116	1538	1482	1515	1418
1400061989171745851	1534	1486	1515	1418
1400061989201800424	1532	1487	1515	1418
1400061989231851843	1530	1485	1515	1417
1400061989256730026	1531	1488	1515	1417
1400061989271763533	1531	1482	1515	1418
1400061989291763152	1529	1483	1515	1418
1400061989306820791	1534	1482	1515	1417
1400061989321851958	1528	1480	1515	1418
1400061989341758568	1531	1478	1515	1418
1400061989356840024	1536	1481	1515	1419
1400061989381871673	1536	1481	1516	1419
1400061989406702810	1527	1487	1516	1421
1400061989431734829	1530	1479	1516	1421
1400061989466801100	1534	1483	1516	1422
1400061989481831220	1534	1482	1516	1423
1400061989501828820	1533	1480	1516	1423
1400061989516803869	1537	1479	1516	1425
1400061989531900896	1534	1483	1516	1425
1400061989546757809	1537	1483	1516	1426
1400061989566941950	1538	1478	1516	1427
1400061989586547720	1532	1476	1516	1428
1400061989596780209	1532	1478	1516	1428
1400061989631841546	1538	1479	1516	1430
1400061989646785854	1541	1477	1515	1429
1400061989681818969	1544	1479	1515	1430
1400061989706830902	1544	1479	1515	1431
1400061989721805503	1547	1485	1514	1430
1400061989741765120	1549	1486	1514	1431
1400061989756737167	1548	1486	1514	1431
1400061989771974057	1547	1489	1513	1429
1400061989791822827	1545	1493	1513	1430
1400061989806752085	1547	1493	1513	1429
1400061989821735900	1543	1482	1512	1429
1400061989851962129	1547	1481	1512	1430
1400061989871842883	1545	1484	1511	1430
1400061989901792340	1548	1484	1511	1429
1400061989921828956	1544	1486	1510	1429
1400061989941789197	1549	1481	1510	1429
1400061989956839924	1554	1485	1509	1427
1400061989971797027	1550	1492	1509	1428
1400061990001758642	1550	1492	1508	1428
1400061990016720591	1548	1494	1508	1426
1400061990031821139	1556	1482	1507	1426
1400061990051844049	1552	1488	1507	1427
1400061990066816699	1547	1488	1507	1427
1400061990101840400	1546	1493	1506	1425
1400061990116824881	1551	1493	1506	1424
1400061990136681394	1550	1500	1505	1423
1400061990156810577	1551	1492	1505	1423
1400061990171890859	1554	1484	1505	1422
1400061990191899924	1559	1488	1505	1421
1400061990206882200	1550	1484	1504	1421
1400061990221844223	1547	1487	1504	1421
1400061990241877212	1551	1488	1504	1421
1400061990256868629	1548	1482	1504	1420
1400061990271854453	1550	1483	1504	1419
1400061990291772073	1541	1479	1504	1420
1400061990306877709	1544	1481	1505	1420
1400061990321861291	1541	1475	1505	1420
1400061990351883708	1535	1472	1505	1419
1400061990381898457	1540	1484	1505	1418
1400061990396847900	1530	1482	1506	1420
1400061990431786408	1544	1489	1506	1417
1400061990446687573	1530	1496	1506	1418
1400061990466785159	1536	1488	1506	1417
1400061990481900851	1532	1495	1507	1417
1400061990496768262	1525	1489	1507	1419
1400061990516705007	1526	1484	1507	1419
1400061990531802596	1524	1479	1507	1418
1400061990551824798	1524	1481	1507	1420
1400061990566750083	1521	1482	1507	1418
1400061990586825277	1519	1476	1507	1419
1400061990601763487	1517	1487	1507	1420
1400061990636838474	1512	1482	1507	1419
1400061990651785667	1509	1479	1507	1420
1400061990671920344	1514	1474	1507	1419
1400061990691800584	1514	1478	1507	1419
1400061990706775833	1506	1476	1507	1419
1400061990721711603	1509	1486	1507	1420
1400061990741826656	1510	1475	1507	1419
1400061990756751388	1502	1487	1507	1419
1400061990771830462	1512	1480	1507	1417
1400061990801863166	1515	1481	1507	1419
1400061990816785000	1519	1474	1507	1419
1400061990851860350	1517	1482	1506	1418
1400061990866834713	1525	1484	1506	1417
1400061990901802494	1508	1465	1506	1418
1400061990921846572	1510	1479	1506	1418
1400061990941781963	1512	1471	1506	1418
1400061990956779590	1520	1473	1506	1419
1400061990971778480	1513	1472	1507	1418
1400061990991981459	1520	1471	1507	1419
1400061991006922380	1518	1472	1507	1418
1400061991021885764	1517	1471	1507	1419
1400061991041800255	1520	1473	1507	1419
1400061991066893482	1526	1474	1507	1419
1400061991101847268	1528	1474	1507	1420
1400061991116785547	1530	1478	1508	1420
1400061991151842644	1532	1472	1508	1421
1400061991166964303	1535	1471	1508	1422
1400061991181762257	1528	1472	1508	1423
1400061991216877399	1529	1477	1509	1423
1400061991231850674	1533	1481	1509	1424
1400061991251826611	1533	1479	1509	1424
1400061991266825200	1533	1477	1510	1425
1400061991281785008	1542	1478	1510	1426
1400061991301824840	1541	1477	1510	1427
1400061991316754390	1544	1474	1510	1428
1400061991351705225	1542	1471	1510	1428
1400061991381831661	1545	1479	1511	1429
1400061991396784496	1548	1480	1511	1430
1400061991421484986	1546	1485	1511	1428
1400061991441628535	1547	1481	1512	1429
1400061991456468488	1538	1483	1512	1428
1400061991471777743	1538	1485	1512	1429
1400061991491880904	1538	1487	1512	1428
1400061991506766171	1532	1491	1512	1427
1400061991521828783	1519	1498	1512	1427
1400061991541830708	1521	1498	1512	1426
1400061991566867682	1516	1499	1512	1426
1400061991581521316	1512	1502	1512	1426
1400061991616834071	1533	1488	1512	1426
1400061991631872966	1532	1490	1512	1425
1400061991646812050	1519	1493	1512	1426
1400061991666913142	1521	1492	1512	1425
1400061991681837495	1518	1492	1512	1426
1400061991696789188	1515	1495	1511	1425
1400061991716898388	1517	1504	1511	1424
1400061991731815044	1523	1507	1511	1424
1400061991746813547	1521	1506	1510	1424
1400061991766951842	1513	1500	1510	1425
1400061991791910431	1526	1500	1510	1424
1400061991806777182	1522	1496	1509	1426
1400061991831910654	1524	1489	1509	1425
1400061991851661684	1529	1494	1508	1424
1400061991881682875	1512	1495	1507	1425
1400061991906908372	1518	1504	1507	1424
1400061991921783471	1523	1502	1507	1424
1400061991941660669	1522	1492	1506	1425
1400061991966595200	1520	1494	1506	1425
1400061991981772657	1520	1499	1505	1425
1400061992001584009	1518	1496	1505	1425
1400061992016823920	1517	1491	1505	1426
1400061992031818274	1521	1486	1505	1426
1400061992046788178	1524	1486	1505	1426
1400061992081768293	1525	1486	1505	1425
1400061992096736912	1524	1482	1505	1425
1400061992131848744	1532	1481	1505	1425
1400061992151783056	1534	1485	1506	1425
1400061992166653165	1531	1477	1506	1425
1400061992201844063	1539	1473	1506	1424
1400061992216845227	1540	1479	1506	1424
1400061992231872973	1540	1480	1507	1422
1400061992251490570	1543	1480	1507	1421
1400061992266807910	1549	1469	1507	1422
1400061992281865898	1549	1481	1507	1422
1400061992301787754	1554	1477	1508	1423
1400061992331856910	1557	1472	1508	1423
1400061992366808680	1557	1478	1508	1423
1400061992381813938	1560	1473	1508	1423
1400061992396796905	1555	1480	1509	1424
1400061992416850305	1565	1472	1509	1424
1400061992431850898	1558	1470	1509	1425
1400061992446860142	1565	1470	1509	1426
1400061992466794488	1555	1478	1509	1424
1400061992481841803	1565	1482	1509	1424
1400061992501795163	1551	1480	1509	1424
1400061992516742639	1563	1481	1509	1426
1400061992551824593	1544	1475	1509	1426
1400061992566865554	1535	1482	1510	1426
1400061992601718188	1565	1470	1510	1425
1400061992621746290	1559	1473	1510	1426
1400061992641777154	1570	1469	1510	1426
1400061992656830553	1567	1471	1510	1426
1400061992671783759	1573	1471	1510	1428
1400061992691850542	1571	1475	1510	1426
1400061992706811202	1564	1483	1510	1426
1400061992721818922	1573	1479	1510	1426
1400061992741871332	1560	1480	1510	1427
1400061992766896582	1567	1478	1510	1427
1400061992791844174	1561	1481	1510	1428
1400061992816881646	1558	1479	1510	1428
1400061992831854840	1557	1479	1510	1428
1400061992852096000	1556	1476	1510	1428
1400061992871810853	1548	1488	1510	1428
1400061992891763171	1543	1485	1510	1428
1400061992906822699	1543	1483	1510	1429
1400061992921832209	1545	1484	1510	1428
1400061992951884905	1537	1488	1510	1428
1400061992966750351	1548	1485	1510	1427
1400061992981861324	1546	1482	1510	1428
1400061993001908501	1544	1482	1510	1428
1400061993016804956	1543	1483	1510	1428
1400061993031771879	1541	1486	1510	1427
1400061993066782244	1539	1488	1510	1426
1400061993081802432	1542	1488	1510	1426
1400061993106804691	1534	1484	1510	1425
1400061993121874565	1532	1486	1510	1425
1400061993141844773	1536	1494	1509	1424
1400061993156811438	1531	1495	1509	1424
1400061993171800806	1530	1486	1509	1424
1400061993191804525	1526	1482	1509	1423
1400061993206858056	1526	1485	1509	1423
1400061993221887315	1530	1482	1509	1422
1400061993241827584	1527	1492	1508	1422
1400061993256845190	1527	1484	1508	1420
1400061993281943451	1533	1482	1508	1421
1400061993301882613	1525	1493	1508	1420
1400061993316871875	1529	1485	1508	1420
1400061993341843480	1535	1481	1508	1420
1400061993356803481	1524	1481	1507	1419
1400061993371529856	1528	1483	1508	1418
1400061993391833122	1526	1483	1507	1418
1400061993406803476	1529	1479	1507	1419
1400061993421793690	1517	1481	1507	1420
1400061993441962658	1511	1473	1507	1420
1400061993456792020	1518	1472	1507	1420
1400061993471776966	1515	1477	1507	1419
1400061993491921151	1519	1478	1508	1419
1400061993516814772	1526	1473	1508	1420
1400061993531832877	1515	1475	1508	1422
1400061993566898550	1518	1472	1509	1421
1400061993581934827	1524	1472	1509	1421
1400061993616840995	1529	1464	1510	1423
1400061993631764557	1529	1467	1510	1424
1400061993651844076	1532	1467	1510	1425
1400061993666759045	1534	1465	1511	1426
1400061993681827857	1552	1464	1511	1425
1400061993701793197	1550	1468	1512	1427
1400061993716858337	1541	1468	1512	1426
1400061993731995584	1551	1466	1512	1427
1400061993766477913	1551	1468	1513	1429
1400061993781564544	1549	1466	1513	1430
1400061993806807652	1557	1461	1514	1430
1400061993831893931	1539	1459	1514	1431
1400061993856841716	1547	1462	1514	1431
1400061993871768092	1537	1459	1514	1432
1400061993891800316	1538	1454	1514	1433
1400061993906799670	1539	1458	1515	1432
1400061993931536469	1539	1462	1515	1433
1400061993951891719	1528	1465	1515	1433
1400061993966891256	1526	1414	1515	1433
1400061993981804952	1549	1413	1515	1431
1400061994001912033	1554	1423	1515	1433
1400061994016768240	1551	1436	1515	1432
1400061994041799336	1547	1446	1514	1433
1400061994066826829	1548	1455	1514	1432
1400061994091808410	1555	1460	1514	1432
1400061994106766635	1553	1457	1514	1433
1400061994121730178	1546	1461	1513	1432
1400061994141812312	1547	1457	1513	1432
1400061994156730252	1546	1449	1513	1432
1400061994171964293	1540	1454	1513	1432
1400061994191793780	1540	1442	1512	1432
1400061994206830466	1544	1429	1512	1431
1400061994221819079	1544	1405	1512	1431
1400061994241741187	1539	1395	1512	1431
1400061994266754938	1538	1378	1511	1430
1400061994281906789	1530	1367	1511	1430
1400061994316849280	1529	1357	1510	1430
1400061994341863290	1534	1353	1510	1428
1400061994356763718	1523	1353	1510	1428
1400061994371872162	1523	1368	1510	1427
1400061994391894201	1529	1391	1510	1426
1400061994406831488	1526	1404	1509	1427
1400061994421783781	1529	1450	1509	1427
1400061994441785273	1521	1492	1509	1425
1400061994456785807	1525	1522	1509	1425
1400061994471782064	1537	1558	1509	1425
1400061994501792604	1537	1626	1509	1424
1400061994516832363	1517	1632	1509	1426
1400061994551869465	1524	1672	1509	1424
1400061994566622062	1533	1691	1509	1423
1400061994591834882	1524	1699	1509	1424
1400061994606799253	1536	1699	1509	1422
1400061994621668065	1519	1699	1509	1421
1400061994641858789	1520	1699	1509	1421
1400061994656776536	1526	1699	1510	1421
1400061994671792981	1516	1699	1510	1419
1400061994691819989	1514	1690	1510	1420
1400061994706691949	1521	1683	1510	1419
1400061994731914010	1519	1635	1510	1419
1400061994746740558	1520	1609	1511	1418
1400061994781831566	1518	1584	1511	1419
1400061994816886321	1531	1476	1512	1420
1400061994841846817	1536	1434	1512	1422
1400061994856869642	1527	1413	1512	1423
1400061994871778932	1520	1458	1512	1421
1400061994891756573	1542	1434	1513	1422
1400061994906758777	1535	1426	1513	1423
1400061994921785163	1520	1451	1513	1422
1400061994941788251	1522	1446	1513	1422
1400061994966856653	1526	1463	1513	1423
1400061994981857287	1524	1464	1513	1424
1400061995016598693	1529	1521	1513	1423
1400061995041881235	1534	1544	1513	1422
1400061995066845614	1527	1579	1513	1422
1400061995081740107	1537	1590	1513	1421
1400061995101886166	1540	1601	1513	1421
1400061995116850301	1545	1590	1513	1420
1400061995131896275	1544	1531	1513	1421
1400061995151891796	1541	1522	1513	1423
1400061995166728832	1548	1515	1513	1424
1400061995186831726	1551	1504	1513	1424
1400061995201796612	1557	1493	1513	1422
1400061995216504574	1542	1436	1513	1421
1400061995251867751	1547	1407	1513	1422
1400061995281860232	1542	1347	1512	1422
1400061995316896014	1547	1332	1511	1422
1400061995331776369	1553	1332	1511	1420
1400061995351853304	1545	1332	1510	1422
1400061995366887730	1550	1332	1510	1422
1400061995381850113	1546	1332	1509	1423
1400061995401856511	1547	1332	1509	1423
1400061995416822996	1556	1343	1508	1422
1400061995431820326	1573	1354	1508	1421
1400061995451884286	1561	1382	1507	1421
1400061995466800428	1568	1432	1506	1422
1400061995501974395	1579	1479	1505	1421
1400061995531926378	1573	1486	1504	1422
1400061995566803055	1575	1515	1503	1423
1400061995581773861	1573	1481	1503	1423
1400061995601884214	1562	1487	1503	1424
1400061995616888345	1563	1479	1503	1424
1400061995631823524	1548	1471	1503	1424
1400061995651902505	1552	1464	1502	1423
1400061995666859924	1554	1409	1502	1423
1400061995681830901	1555	1398	1502	1422
1400061995716852877	1557	1378	1502	1420
1400061995741867738	1546	1332	1501	1421
1400061995766761193	1545	1332	1501	1419
1400061995791830016	1537	1332	1501	1419
1400061995806846171	1542	1332	1502	1418
1400061995821795973	1541	1332	1502	1418
1400061995841810228	1535	1332	1502	1419
1400061995856764499	1531	1332	1502	1418
1400061995871874769	1530	1332	1503	1417
1400061995891838281	1523	1336	1503	1419
1400061995906758877	1526	1354	1503	1417
1400061995931856325	1540	1416	1504	1417
1400061995966568369	1535	1485	1504	1417
1400061995981630037	1541	1528	1505	1417
1400061996016980226	1542	1609	1505	1417
1400061996031825230	1543	1627	1506	1417
1400061996056820598	1541	1661	1506	1418
1400061996071814621	1547	1692	1507	1418
1400061996091925901	1546	1699	1507	1417
1400061996116826567	1540	1699	1508	1417
1400061996136837000	1534	1699	1509	1417
1400061996146791397	1519	1699	1509	1417
1400061996166870722	1526	1699	1510	1416
1400061996201786355	1513	1656	1511	1416
1400061996216868884	1511	1649	1511	1415
1400061996251712191	1501	1629	1512	1414
1400061996266865638	1501	1597	1513	1415
1400061996291813632	1497	1539	1514	1413
1400061996316878066	1495	1590	1514	1413
1400061996331811853	1500	1566	1515	1411
1400061996351855521	1495	1551	1515	1412
1400061996366583953	1486	1475	1515	1411
1400061996381714747	1495	1459	1516	1413
1400061996401777836	1503	1439	1516	1413
1400061996421739088	1496	1472	1517	1413
1400061996441824986	1478	1470	1517	1415
1400061996466793838	1493	1502	1517	1416
1400061996491800863	1484	1496	1517	1416
1400061996516898087	1496	1525	1517	1417
1400061996531774835	1499	1510	1517	1416
1400061996556769125	1501	1507	1517	1417
1400061996571920971	1506	1542	1517	1417
1400061996591773985	1516	1547	1516	1416
1400061996606776450	1513	1529	1516	1418
1400061996621793170	1502	1472	1516	1419
1400061996641825830	1498	1454	1516	1419
1400061996656761753	1510	1435	1516	1419
1400061996671773677	1515	1433	1516	1420
1400061996701952235	1511	1396	1515	1419
1400061996721752655	1493	1344	1515	1420
1400061996751947292	1507	1332	1515	1421
1400061996781842663	1510	1332	1514	1423
1400061996796933105	1508	1332	1514	1423
1400061996821797580	1523	1332	1514	1425
1400061996841856388	1522	1332	1513	1426
1400061996856818636	1513	1332	1513	1426
1400061996871777083	1517	1332	1513	1427
1400061996891881213	1531	1338	1512	1428
1400061996906880103	1534	1354	1512	1428
1400061996931826723	1538	1420	1511	1429
1400061996956636009	1537	1474	1511	1430
1400061996981775547	1543	1556	1510	1431
1400061997006731621	1547	1599	1510	1430
1400061997031761766	1543	1645	1510	1432
1400061997051803704	1541	1679	1510	1433
