#Time	 Roll 	 Pitch 	 Yaw 	 Thrust
1399577844284912078	1530	1520	1510	1378
1399577844304933366	1524	1520	1510	1378
1399577844334898814	1526	1518	1510	1378
1399577844364909216	1526	1518	1510	1434
1399577844384998915	1526	1518	1510	1380
1399577844409950777	1527	1518	1510	1380
1399577844434963210	1525	1520	1510	1380
1399577844459866504	1528	1519	1510	1380
1399577844484871920	1528	1518	1510	1382
1399577844504917124	1527	1520	1510	1382
1399577844519984917	1526	1519	1510	1383
1399577844534943144	1526	1519	1510	1383
1399577844569952696	1525	1519	1510	1434
1399577844599957396	1527	1521	1510	1384
1399577844609910625	1524	1520	1510	1384
1399577844629936651	1525	1517	1511	1384
1399577844644913794	1526	1521	1510	1384
1399577844659859411	1525	1517	1510	1384
1399577844689861909	1526	1518	1510	1386
1399577844704927567	1522	1521	1511	1386
1399577844734998729	1528	1519	1510	1386
1399577844754908171	1525	1520	1510	1386
1399577844784910907	1523	1515	1510	1388
1399577844804937135	1525	1520	1511	1388
1399577844819934433	1524	1519	1511	1388
1399577844839917012	1525	1515	1511	1389
1399577844854898427	1519	1519	1510	1388
1399577844879913094	1525	1517	1510	1435
1399577844894883915	1525	1520	1510	1390
1399577844919817087	1525	1519	1510	1390
1399577844939915077	1522	1516	1510	1391
1399577844969950145	1523	1518	1511	1435
1399577844984863932	1522	1517	1510	1392
1399577845004973373	1525	1518	1511	1392
1399577845034891458	1524	1519	1511	1393
1399577845054922522	1522	1527	1511	1392
1399577845069929450	1523	1526	1511	1394
1399577845089912290	1526	1524	1511	1394
1399577845104928680	1521	1524	1511	1395
1399577845119916570	1521	1524	1511	1395
1399577845139933669	1523	1520	1511	1395
1399577845159934309	1521	1521	1510	1395
1399577845184939280	1521	1519	1511	1397
1399577845204940537	1522	1521	1510	1397
1399577845219846649	1525	1520	1510	1398
1399577845239907536	1519	1522	1510	1398
1399577845254936538	1521	1517	1510	1399
1399577845274949853	1521	1515	1511	1401
1399577845284865849	1522	1507	1511	1402
1399577845304918528	1519	1505	1511	1402
1399577845319909957	1517	1511	1511	1401
1399577845344880036	1523	1517	1511	1400
1399577845369940366	1521	1518	1511	1436
1399577845389981812	1521	1523	1511	1402
1399577845409934602	1517	1517	1511	1402
1399577845429920004	1518	1513	1510	1404
1399577845454913153	1522	1516	1511	1403
1399577845479953131	1523	1512	1511	1405
1399577845504946638	1522	1516	1511	1405
1399577845529941166	1518	1516	1511	1405
1399577845554920928	1520	1518	1511	1406
1399577845569934964	1522	1513	1511	1437
1399577845589954319	1521	1509	1510	1408
1399577845604949928	1525	1515	1511	1408
1399577845619928808	1523	1518	1510	1407
1399577845639892567	1526	1519	1511	1407
1399577845659845389	1519	1518	1511	1408
1399577845679885450	1519	1517	1510	1410
1399577845704914881	1519	1520	1511	1410
1399577845729969482	1520	1518	1511	1409
1399577845754918641	1522	1520	1511	1408
1399577845784924469	1514	1523	1510	1410
1399577845794926460	1515	1524	1510	1409
1399577845809929115	1511	1518	1510	1409
1399577845830031145	1508	1515	1510	1409
1399577845844851840	1504	1517	1510	1409
1399577845860010754	1503	1519	1510	1409
1399577845879887540	1507	1506	1510	1411
1399577845894922757	1505	1507	1510	1412
1399577845919896301	1491	1513	1510	1410
1399577845954901753	1494	1513	1510	1410
1399577845969872451	1499	1510	1510	1439
1399577845984915960	1493	1507	1509	1411
1399577846004907647	1482	1504	1509	1410
1399577846019880801	1497	1517	1509	1410
1399577846039894921	1498	1505	1509	1411
1399577846054903657	1493	1509	1509	1410
1399577846069900009	1513	1515	1508	1440
1399577846089946272	1505	1520	1508	1412
1399577846104895188	1503	1524	1508	1411
1399577846119976648	1513	1524	1508	1411
1399577846144959647	1507	1527	1508	1412
1399577846169939773	1522	1526	1508	1441
1399577846189869614	1515	1513	1508	1413
1399577846219916256	1505	1534	1507	1413
1399577846239839640	1512	1525	1507	1412
1399577846254974949	1498	1536	1507	1411
1399577846269927366	1527	1520	1507	1442
1399577846289920988	1514	1523	1506	1414
1399577846304894814	1503	1529	1506	1414
1399577846319909962	1496	1511	1506	1412
1399577846344882499	1499	1520	1506	1412
1399577846369912907	1500	1500	1506	1442
1399577846389918855	1491	1503	1506	1416
1399577846410076483	1480	1508	1506	1414
1399577846429898997	1496	1504	1507	1414
1399577846454947085	1496	1501	1507	1415
1399577846484926759	1487	1494	1507	1415
1399577846519963899	1507	1494	1508	1417
1399577846539934086	1495	1496	1508	1416
1399577846554964784	1494	1498	1508	1415
1399577846569892848	1514	1497	1508	1444
1399577846589959376	1502	1487	1508	1416
1399577846604918751	1504	1497	1508	1418
1399577846624901987	1514	1498	1508	1416
1399577846639906640	1508	1517	1509	1416
1399577846654924546	1518	1501	1509	1416
1399577846669881447	1523	1519	1509	1445
1399577846704925648	1513	1510	1509	1419
1399577846734858842	1510	1513	1509	1418
1399577846754904482	1520	1521	1509	1418
1399577846779871252	1507	1519	1509	1421
1399577846794858262	1513	1520	1509	1420
1399577846819848505	1511	1523	1509	1421
1399577846839971416	1508	1513	1509	1420
1399577846854950342	1517	1524	1509	1418
1399577846880039556	1509	1523	1509	1418
1399577846894941411	1506	1521	1509	1418
1399577846919949693	1500	1520	1509	1416
1399577846954985042	1504	1523	1509	1415
1399577846979937682	1496	1517	1509	1415
1399577846994904474	1494	1506	1509	1415
1399577847009907123	1491	1497	1509	1415
1399577847029959574	1497	1505	1508	1414
1399577847044922862	1506	1501	1508	1412
1399577847059870907	1497	1514	1508	1413
1399577847079974589	1511	1498	1508	1413
1399577847094908004	1520	1489	1508	1413
1399577847119907513	1525	1494	1508	1412
1399577847134933822	1529	1498	1508	1414
1399577847169976388	1535	1497	1508	1413
1399577847204955140	1527	1499	1509	1413
1399577847229909281	1547	1484	1509	1414
1399577847244911534	1531	1486	1509	1414
1399577847259897798	1548	1491	1509	1414
1399577847279984622	1548	1499	1509	1415
1399577847294918681	1541	1500	1509	1415
1399577847309942253	1559	1504	1509	1415
1399577847339934112	1550	1504	1510	1416
1399577847354934743	1568	1511	1510	1415
1399577847374967766	1549	1514	1510	1416
1399577847394920700	1540	1520	1510	1416
1399577847419922082	1538	1520	1510	1418
1399577847439911054	1536	1521	1510	1418
1399577847469903618	1529	1530	1510	1419
1399577847484899572	1529	1533	1510	1418
1399577847504929968	1535	1532	1510	1419
1399577847534946285	1530	1526	1510	1420
1399577847544918996	1522	1531	1510	1421
1399577847559865795	1524	1536	1510	1421
1399577847584916669	1511	1535	1509	1420
1399577847594890327	1512	1535	1510	1421
1399577847619911719	1508	1530	1509	1422
1399577847644935355	1506	1533	1509	1422
1399577847669911547	1502	1513	1509	1422
1399577847689886047	1505	1534	1509	1422
1399577847719890701	1510	1509	1509	1424
1399577847744930630	1514	1515	1509	1423
1399577847759950160	1512	1523	1509	1423
1399577847779920148	1522	1516	1509	1423
1399577847804942239	1518	1508	1509	1424
1399577847820017641	1536	1499	1509	1424
1399577847840248266	1534	1502	1509	1424
1399577847860292739	1538	1496	1509	1425
1399577847885177423	1539	1499	1509	1425
1399577847905190839	1538	1493	1510	1425
1399577847920180630	1548	1495	1510	1425
1399577847940254964	1549	1499	1510	1425
1399577847960169389	1546	1490	1510	1426
1399577847989970715	1546	1490	1510	1426
1399577848004944665	1546	1491	1510	1426
1399577848019962560	1557	1507	1510	1426
1399577848039978164	1556	1509	1510	1425
1399577848054974375	1556	1513	1510	1425
1399577848074946292	1553	1525	1510	1425
1399577848089969948	1543	1529	1510	1425
1399577848109941415	1548	1525	1510	1424
1399577848135316068	1526	1540	1510	1426
1399577848170285531	1516	1548	1510	1425
1399577848190037510	1512	1543	1510	1427
1399577848210275756	1517	1555	1510	1425
1399577848230223877	1506	1549	1509	1426
1399577848245152340	1507	1541	1510	1427
1399577848265239806	1503	1544	1509	1426
1399577848280244718	1495	1548	1509	1427
1399577848295008466	1491	1545	1509	1426
1399577848309990830	1498	1553	1509	1426
1399577848329943470	1482	1548	1509	1427
1399577848354998543	1477	1543	1509	1427
1399577848384905060	1486	1536	1510	1427
1399577848419912973	1483	1531	1510	1427
1399577848439901240	1485	1523	1510	1427
1399577848454934490	1474	1528	1510	1427
1399577848469944814	1496	1509	1510	1427
1399577848484965151	1492	1501	1510	1428
1399577848529941338	1501	1486	1511	1428
1399577848554985718	1502	1483	1511	1427
1399577848574969068	1507	1467	1511	1428
1399577848589922875	1513	1473	1511	1429
1399577848619936465	1524	1469	1512	1428
1399577848634900725	1521	1466	1512	1427
1399577848669999705	1531	1478	1512	1428
1399577848684997071	1532	1485	1513	1428
1399577848704971716	1541	1474	1513	1430
1399577848735026945	1533	1492	1513	1429
1399577848744938351	1538	1486	1513	1429
1399577848759924706	1541	1476	1513	1430
1399577848780254711	1533	1499	1513	1431
1399577848795232037	1539	1501	1514	1431
1399577848820254403	1530	1504	1514	1431
1399577848840340631	1542	1505	1513	1431
1399577848870239924	1521	1535	1514	1432
1399577848905231187	1515	1537	1514	1432
1399577848920222512	1511	1552	1513	1432
1399577848940183065	1510	1560	1513	1431
1399577848955224568	1509	1564	1513	1430
1399577848970101597	1497	1573	1513	1430
1399577848990215343	1493	1576	1513	1431
1399577849005154308	1489	1573	1513	1431
1399577849020191057	1468	1549	1512	1432
1399577849035045873	1467	1552	1512	1432
1399577849055165898	1467	1557	1512	1431
1399577849070278769	1464	1538	1512	1429
1399577849090177331	1460	1539	1511	1429
1399577849120240389	1461	1512	1511	1429
1399577849155279433	1463	1506	1510	1428
1399577849180238720	1473	1477	1510	1428
1399577849205182891	1475	1487	1509	1427
1399577849220320106	1481	1468	1509	1427
1399577849240285890	1490	1466	1509	1427
1399577849255219847	1483	1455	1508	1428
1399577849270196991	1514	1444	1508	1427
1399577849290166764	1514	1450	1508	1427
1399577849320220317	1540	1462	1507	1427
1399577849340212721	1539	1467	1507	1426
1399577849370182240	1554	1473	1506	1427
1399577849405170883	1554	1472	1506	1427
1399577849430230155	1553	1523	1506	1427
1399577849445347587	1559	1522	1505	1427
1399577849460331562	1563	1530	1505	1427
1399577849480146115	1557	1540	1505	1428
1399577849495132524	1553	1543	1505	1428
1399577849520183801	1523	1565	1505	1427
1399577849540179877	1522	1564	1505	1427
1399577849560217239	1525	1569	1504	1427
1399577849585158333	1505	1566	1504	1427
1399577849610194441	1508	1571	1504	1427
1399577849630236509	1489	1535	1503	1427
1399577849655206647	1484	1544	1503	1428
1399577849680187191	1474	1529	1503	1429
1399577849705177379	1474	1528	1503	1428
1399577849730089205	1489	1489	1502	1428
1399577849755235667	1490	1471	1502	1429
1399577849785163107	1513	1469	1502	1429
1399577849805034378	1516	1472	1502	1428
1399577849835249659	1541	1455	1502	1430
1399577849845277105	1531	1459	1502	1429
1399577849870244143	1552	1483	1502	1430
1399577849905264505	1558	1475	1502	1430
1399577849930263908	1561	1493	1503	1430
1399577849945212034	1568	1494	1503	1431
1399577849960188601	1564	1488	1503	1431
1399577849980137384	1565	1511	1504	1431
1399577850005287010	1564	1515	1505	1431
1399577850020255205	1536	1533	1505	1432
1399577850040115387	1535	1540	1506	1432
1399577850070208168	1528	1542	1507	1431
1399577850090253429	1528	1542	1507	1432
1399577850119994445	1524	1526	1508	1431
1399577850140305284	1525	1523	1509	1431
1399577850165251512	1518	1521	1509	1432
1399577850180286776	1521	1521	1510	1432
1399577850194904661	1521	1515	1510	1432
1399577850220198497	1516	1519	1511	1433
1399577850240261020	1513	1515	1511	1433
1399577850255263333	1514	1510	1511	1433
1399577850275342872	1507	1510	1511	1432
1399577850290254916	1506	1514	1512	1432
1399577850310158901	1507	1498	1512	1435
1399577850335220410	1512	1498	1513	1434
1399577850370221365	1533	1518	1514	1434
1399577850395245142	1531	1519	1514	1435
1399577850410396736	1532	1519	1515	1435
1399577850430254953	1538	1520	1515	1435
1399577850450163090	1535	1511	1516	1436
1399577850470124301	1527	1525	1516	1436
1399577850490159456	1524	1522	1517	1436
1399577850505185343	1521	1527	1517	1435
1399577850520201857	1515	1543	1517	1435
1399577850540266459	1517	1550	1518	1434
1399577850555163365	1520	1548	1518	1435
1399577850585220878	1511	1537	1519	1435
1399577850605239392	1512	1538	1519	1435
1399577850620246302	1510	1533	1520	1434
1399577850650013607	1510	1538	1520	1434
1399577850660192316	1508	1544	1520	1434
1399577850685154381	1508	1534	1520	1434
1399577850710214283	1507	1534	1520	1434
1399577850730248961	1497	1516	1520	1434
1399577850745169080	1504	1520	1520	1434
1399577850770178203	1489	1509	1520	1434
1399577850790173678	1485	1509	1520	1434
1399577850810184675	1487	1505	1520	1435
1399577850835223363	1486	1500	1520	1435
1399577850860296164	1491	1515	1520	1433
1399577850880264107	1488	1504	1520	1434
1399577850895414000	1489	1489	1520	1435
1399577850910232982	1488	1493	1520	1437
1399577850930316192	1491	1499	1519	1436
1399577850945243852	1483	1508	1519	1434
1399577850960262165	1496	1510	1519	1434
1399577850990183373	1502	1534	1519	1435
1399577851005273502	1498	1525	1519	1435
1399577851020212604	1498	1527	1519	1436
1399577851040222335	1500	1522	1519	1437
1399577851060233844	1493	1523	1518	1437
1399577851085241314	1496	1518	1518	1437
1399577851105229539	1502	1521	1517	1437
1399577851130235806	1490	1531	1517	1436
1399577851155298362	1493	1521	1516	1437
1399577851170214996	1492	1520	1516	1437
1399577851190171984	1495	1524	1515	1437
1399577851210207511	1495	1530	1515	1437
1399577851230222811	1492	1523	1514	1438
1399577851245177121	1497	1523	1514	1438
1399577851269966688	1500	1522	1513	1439
1399577851290237726	1502	1527	1513	1438
1399577851304960667	1503	1535	1512	1437
1399577851330116012	1495	1521	1512	1440
1399577851355219332	1495	1526	1511	1440
1399577851380088359	1504	1531	1510	1440
1399577851395185125	1499	1526	1510	1441
1399577851410140014	1501	1521	1509	1442
1399577851430196679	1509	1526	1509	1442
1399577851445284327	1509	1532	1508	1441
1399577851460197210	1511	1534	1508	1441
1399577851480241419	1513	1526	1508	1442
1399577851505213332	1511	1528	1507	1442
1399577851530283581	1506	1523	1507	1443
1399577851555261802	1509	1524	1507	1443
1399577851585234337	1509	1524	1506	1443
1399577851610190081	1509	1524	1506	1443
1399577851630208601	1512	1526	1506	1442
1399577851645189258	1514	1524	1505	1442
1399577851660172634	1515	1530	1506	1442
1399577851680185706	1521	1521	1506	1442
1399577851695211177	1519	1528	1506	1443
1399577851710151329	1517	1528	1505	1442
1399577851735184589	1521	1525	1505	1440
1399577851755186257	1526	1529	1505	1441
1399577851770116329	1521	1526	1505	1441
1399577851795235519	1526	1512	1505	1442
1399577851820156928	1523	1524	1505	1440
1399577851845125978	1528	1539	1505	1439
1399577851860206100	1530	1537	1505	1438
1399577851880190337	1528	1533	1505	1440
1399577851895168330	1527	1523	1505	1441
1399577851915101768	1533	1517	1506	1440
1399577851930142040	1533	1539	1506	1437
1399577851945125303	1535	1546	1506	1436
1399577851970143043	1537	1523	1506	1438
1399577851990233540	1534	1539	1506	1437
1399577852005227374	1529	1547	1507	1436
1399577852035227300	1527	1527	1507	1436
1399577852070226001	1537	1529	1508	1435
1399577852084947162	1534	1529	1508	1434
1399577852110217098	1540	1526	1509	1434
1399577852130138369	1528	1530	1509	1433
1399577852155161069	1530	1531	1510	1433
1399577852190042782	1541	1538	1510	1431
1399577852210200363	1535	1531	1511	1431
1399577852235217141	1532	1538	1511	1430
1399577852259959243	1533	1550	1511	1430
1399577852285106290	1529	1542	1511	1430
1399577852305195073	1528	1543	1511	1429
1399577852335226446	1524	1556	1511	1428
1399577852355240316	1520	1547	1511	1428
1399577852370226899	1524	1551	1511	1427
1399577852390205656	1533	1552	1511	1427
1399577852405205444	1525	1557	1511	1427
1399577852425136366	1537	1523	1511	1429
1399577852440236912	1530	1522	1511	1430
1399577852460184227	1527	1518	1511	1429
1399577852485121755	1537	1513	1511	1429
1399577852495151863	1526	1509	1511	1430
1399577852520259840	1533	1505	1511	1429
1399577852540328646	1529	1503	1510	1430
1399577852570199320	1530	1505	1510	1429
1399577852590213758	1537	1509	1511	1429
1399577852615259996	1528	1512	1511	1430
1399577852630119699	1533	1513	1511	1430
1399577852645163108	1533	1511	1511	1431
1399577852660262628	1527	1502	1511	1431
1399577852680067133	1524	1513	1511	1432
1399577852695241866	1528	1516	1512	1431
1399577852715284151	1517	1541	1512	1430
1399577852730207906	1510	1539	1512	1431
1399577852755280667	1510	1534	1512	1432
1399577852785246075	1503	1545	1512	1432
1399577852805154800	1501	1548	1512	1432
1399577852820034621	1495	1547	1512	1431
1399577852849935247	1495	1541	1512	1433
1399577852859917529	1488	1542	1511	1431
1399577852879925869	1495	1537	1511	1433
1399577852894938839	1491	1534	1511	1433
1399577852909988841	1481	1528	1511	1434
1399577852929954172	1497	1528	1510	1434
1399577852945000670	1493	1529	1510	1433
1399577852959933765	1490	1527	1509	1434
1399577852979882863	1487	1519	1509	1435
1399577853004902656	1492	1518	1508	1436
1399577853029964859	1509	1504	1507	1434
1399577853044964103	1489	1504	1507	1436
1399577853059927428	1503	1495	1507	1437
1399577853084975676	1509	1485	1506	1438
1399577853099976232	1499	1482	1506	1439
1399577853109940561	1493	1482	1505	1437
1399577853129940048	1504	1503	1505	1437
1399577853144897965	1499	1498	1504	1437
1399577853159895687	1495	1495	1504	1436
1399577853184926290	1487	1499	1503	1438
1399577853209913625	1493	1504	1503	1437
1399577853234949829	1484	1492	1502	1438
1399577853259924505	1492	1495	1502	1439
1399577853284955663	1468	1512	1501	1439
1399577853319867424	1471	1513	1501	1439
1399577853339909282	1459	1519	1501	1440
1399577853354928986	1465	1520	1500	1440
1399577853369874001	1467	1516	1500	1441
1399577853389908350	1466	1513	1500	1441
1399577853404903707	1458	1521	1500	1440
1399577853424919228	1466	1521	1500	1439
1399577853444926694	1462	1525	1499	1440
1399577853469959663	1469	1506	1500	1440
1399577853494921358	1466	1506	1499	1440
1399577853519918397	1475	1500	1499	1440
1399577853544934299	1479	1498	1499	1440
1399577853559975661	1475	1492	1498	1442
1399577853579927384	1483	1486	1498	1442
1399577853599898258	1484	1491	1498	1441
1399577853609879252	1482	1498	1498	1440
1399577853629947706	1482	1499	1498	1440
1399577853644890572	1496	1495	1498	1441
1399577853659886752	1492	1487	1497	1442
1399577853679882874	1487	1487	1497	1443
1399577853704935786	1488	1489	1497	1442
1399577853729936254	1493	1484	1497	1442
1399577853754939670	1492	1483	1496	1441
1399577853789988376	1485	1492	1496	1441
1399577853804942688	1488	1491	1496	1441
1399577853819933434	1484	1492	1495	1440
1399577853839983364	1484	1494	1495	1440
1399577853854908789	1481	1495	1495	1440
1399577853869908781	1484	1506	1495	1440
1399577853889902697	1488	1505	1495	1440
1399577853909928641	1488	1502	1495	1440
1399577853934933632	1488	1504	1495	1440
1399577853954912645	1491	1505	1495	1439
1399577853984788672	1497	1518	1494	1439
1399577854004952131	1503	1515	1494	1439
1399577854024940532	1503	1519	1494	1438
1399577854039906676	1504	1522	1494	1439
1399577854054888869	1509	1517	1494	1439
1399577854099892021	1520	1506	1495	1439
1399577854109899687	1526	1516	1495	1438
1399577854129861105	1521	1504	1495	1437
1399577854154895645	1524	1503	1495	1438
1399577854184899535	1529	1504	1496	1438
1399577854194831908	1536	1499	1496	1439
1399577854219881991	1538	1486	1496	1438
1399577854239988512	1545	1488	1496	1438
1399577854254900059	1548	1487	1497	1438
1399577854284886693	1538	1483	1497	1438
1399577854304896210	1544	1494	1498	1437
1399577854319896978	1545	1505	1499	1438
1399577854339915505	1538	1503	1499	1437
1399577854354979309	1538	1506	1499	1438
1399577854379922558	1549	1510	1500	1436
1399577854394895809	1551	1518	1501	1436
1399577854419955967	1566	1515	1502	1436
1399577854439958758	1573	1521	1503	1435
1399577854469927715	1567	1514	1504	1436
1399577854489918690	1571	1511	1505	1436
1399577854519964851	1569	1523	1506	1435
1399577854539977748	1567	1528	1507	1435
1399577854554961538	1577	1519	1508	1436
1399577854569873350	1562	1522	1509	1437
1399577854589938208	1563	1517	1510	1436
1399577854604886810	1566	1522	1510	1434
1399577854624931139	1563	1517	1511	1434
1399577854639897340	1559	1530	1512	1434
1399577854659893854	1562	1524	1513	1434
1399577854684955426	1558	1518	1514	1434
1399577854719974156	1554	1518	1515	1434
1399577854739957841	1558	1524	1516	1434
1399577854759918907	1550	1522	1517	1435
1399577854779910328	1551	1525	1518	1434
1399577854794938308	1556	1519	1518	1435
1399577854809899838	1555	1514	1519	1434
1399577854829914295	1581	1527	1519	1434
1399577854844915032	1576	1524	1519	1434
1399577854869944288	1568	1527	1520	1435
1399577854889909904	1563	1532	1520	1435
1399577854909973488	1563	1530	1520	1435
1399577854929973735	1566	1521	1521	1437
1399577854954867882	1570	1523	1521	1436
1399577854984869353	1564	1527	1522	1436
1399577855004927932	1561	1520	1522	1437
1399577855019974439	1573	1524	1522	1436
1399577855034945877	1583	1525	1522	1436
1399577855079910454	1569	1527	1523	1436
1399577855094978942	1570	1523	1523	1435
1399577855109923328	1559	1517	1523	1437
1399577855129920412	1551	1512	1524	1437
1399577855154957435	1548	1521	1524	1437
1399577855179896102	1542	1516	1524	1436
1399577855204926002	1536	1518	1524	1437
1399577855229939231	1532	1525	1524	1436
1399577855254841051	1528	1521	1524	1437
1399577855284897212	1536	1526	1524	1437
1399577855304943232	1532	1528	1524	1438
1399577855319884205	1530	1517	1524	1439
1399577855339871849	1525	1514	1524	1439
1399577855354892962	1520	1528	1523	1439
1399577855369905711	1531	1523	1523	1438
1399577855389898058	1527	1525	1523	1439
1399577855409885531	1528	1523	1523	1440
1399577855434932642	1530	1522	1523	1440
1399577855454882817	1523	1519	1522	1442
1399577855469912823	1523	1517	1522	1441
1399577855484884928	1517	1514	1522	1443
1399577855519908319	1519	1525	1521	1442
1399577855534903502	1514	1534	1520	1441
1399577855554879682	1512	1525	1520	1442
1399577855569900664	1505	1525	1519	1443
1399577855589899981	1501	1520	1519	1444
1399577855604915708	1505	1526	1518	1443
1399577855619958808	1503	1530	1517	1442
1399577855639925560	1497	1536	1517	1443
1399577855654912468	1488	1528	1516	1446
1399577855679920070	1485	1541	1515	1444
1399577855694934287	1477	1536	1515	1446
1399577855724987259	1469	1536	1514	1446
1399577855734880456	1473	1535	1513	1445
1399577855784982945	1464	1528	1512	1446
1399577855794925745	1455	1534	1511	1445
1399577855809937817	1464	1540	1511	1445
1399577855829969153	1474	1533	1510	1446
1399577855854948452	1471	1525	1510	1447
1399577855869879148	1486	1517	1509	1444
1399577855889931877	1479	1518	1509	1446
1399577855919956165	1493	1508	1509	1446
1399577855939937429	1490	1505	1508	1447
1399577855969923215	1495	1501	1508	1446
1399577855989929770	1501	1508	1508	1446
1399577856009910281	1502	1507	1507	1446
1399577856034959627	1494	1511	1507	1446
1399577856054921082	1496	1514	1507	1446
1399577856079960194	1490	1514	1506	1446
1399577856094913695	1499	1509	1506	1447
1399577856119914444	1475	1530	1506	1446
1399577856139927574	1467	1528	1506	1446
1399577856154927265	1477	1525	1505	1445
1399577856184934675	1475	1523	1505	1446
1399577856194884567	1461	1531	1505	1445
1399577856209935843	1470	1528	1505	1444
1399577856229925961	1447	1543	1505	1445
1399577856255017338	1446	1535	1505	1445
1399577856279983136	1438	1531	1505	1445
1399577856294915157	1436	1536	1505	1447
1399577856319898626	1440	1535	1505	1447
1399577856344925257	1439	1535	1504	1446
1399577856369967313	1446	1537	1504	1447
1399577856404877037	1445	1535	1504	1447
1399577856430026129	1482	1519	1504	1447
1399577856454935098	1475	1520	1503	1447
1399577856480039342	1497	1519	1503	1447
1399577856504890056	1496	1511	1503	1448
1399577856519938814	1519	1510	1503	1448
1399577856534849075	1522	1521	1503	1446
1399577856554952441	1524	1527	1502	1446
1399577856574951330	1539	1517	1502	1447
1399577856589893363	1544	1501	1502	1448
1399577856604929305	1546	1496	1502	1449
1399577856629891160	1550	1510	1502	1448
1399577856654970927	1552	1507	1501	1448
1399577856679965522	1540	1509	1501	1448
1399577856704886662	1543	1507	1501	1448
1399577856729910784	1520	1513	1501	1448
1399577856744979678	1520	1517	1500	1448
1399577856759886698	1520	1515	1500	1448
1399577856779858571	1504	1514	1500	1449
1399577856794918442	1505	1520	1500	1448
1399577856819898555	1495	1529	1500	1448
1399577856845070723	1489	1536	1500	1447
1399577856869958491	1501	1527	1500	1447
1399577856905022834	1500	1524	1500	1447
1399577856934920320	1496	1526	1501	1446
1399577856959964106	1501	1525	1501	1446
1399577856979930579	1497	1520	1501	1448
1399577856994943302	1497	1526	1501	1446
1399577857019891219	1513	1518	1501	1445
1399577857054975085	1510	1519	1502	1445
1399577857069979346	1512	1512	1502	1444
1399577857089949643	1520	1516	1502	1444
1399577857120012614	1522	1512	1502	1444
1399577857144915437	1532	1511	1503	1444
1399577857169944427	1583	1497	1503	1443
1399577857204929446	1582	1498	1503	1442
1399577857234874609	1588	1497	1504	1442
1399577857259901980	1589	1507	1504	1441
1399577857289914337	1597	1498	1504	1441
1399577857304903822	1603	1500	1505	1441
1399577857324892333	1579	1502	1505	1442
1399577857344897441	1587	1508	1505	1439
1399577857369940131	1567	1516	1506	1440
1399577857404963002	1567	1512	1506	1440
1399577857429891887	1548	1522	1507	1440
1399577857444877022	1545	1526	1507	1439
1399577857459835226	1543	1530	1507	1440
1399577857484916791	1530	1530	1508	1439
1399577857504939814	1524	1535	1508	1441
1399577857519924565	1526	1520	1508	1440
1399577857539883786	1523	1524	1509	1439
1399577857554913393	1516	1530	1509	1440
1399577857569952180	1518	1517	1509	1438
1399577857594879223	1519	1519	1509	1438
1399577857619863410	1521	1521	1510	1437
1399577857654895754	1517	1519	1511	1437
1399577857684986056	1559	1501	1511	1436
1399577857704934398	1552	1501	1512	1436
1399577857719982095	1555	1499	1513	1436
1399577857734950966	1549	1498	1513	1435
1399577857754887141	1556	1500	1514	1435
1399577857769912981	1560	1503	1514	1435
1399577857794952526	1562	1497	1515	1435
1399577857820237561	1562	1515	1515	1435
1399577857840243006	1553	1511	1516	1435
1399577857870035757	1559	1523	1516	1435
1399577857905162154	1558	1521	1517	1435
1399577857935263420	1536	1520	1517	1435
1399577857955100800	1529	1518	1518	1436
1399577857970273599	1530	1520	1518	1435
1399577857990191409	1519	1524	1518	1437
1399577858010240044	1517	1526	1518	1435
1399577858030208048	1493	1525	1519	1435
1399577858045195877	1494	1536	1518	1436
1399577858060138173	1483	1541	1518	1435
1399577858084928165	1484	1528	1518	1436
1399577858120274970	1483	1524	1518	1437
1399577858140039679	1481	1526	1518	1438
1399577858170257673	1486	1524	1518	1438
1399577858190241970	1486	1523	1518	1439
1399577858205252287	1477	1523	1518	1438
1399577858235248292	1490	1517	1518	1439
1399577858255328065	1487	1520	1518	1438
1399577858270252161	1506	1505	1518	1440
1399577858290171730	1513	1504	1518	1441
1399577858310155772	1499	1500	1518	1439
1399577858335225351	1519	1517	1518	1439
1399577858360245784	1514	1506	1518	1439
1399577858385280432	1518	1519	1518	1440
1399577858410170937	1520	1524	1517	1439
1399577858430209253	1514	1524	1517	1439
1399577858450240989	1521	1511	1517	1442
1399577858460206733	1509	1515	1517	1442
1399577858480278477	1504	1521	1517	1442
1399577858505174150	1507	1517	1517	1442
1399577858530222048	1499	1535	1516	1439
1399577858545183001	1504	1527	1516	1443
1399577858570205849	1477	1531	1516	1442
1399577858590248374	1477	1537	1516	1442
1399577858605312654	1478	1531	1516	1444
1399577858635180311	1471	1531	1515	1443
1399577858670168575	1466	1516	1515	1444
1399577858690299248	1465	1525	1514	1444
1399577858705191893	1465	1514	1514	1445
1399577858730204291	1462	1518	1513	1445
1399577858745184230	1464	1521	1513	1445
1399577858760207753	1457	1520	1513	1446
1399577858785265408	1480	1517	1512	1445
1399577858805259995	1474	1511	1512	1447
1399577858830250162	1489	1507	1511	1448
1399577858855316720	1488	1509	1510	1448
1399577858870191068	1502	1506	1510	1448
1399577858905226043	1506	1507	1509	1448
1399577858920253040	1515	1514	1508	1448
1399577858940264978	1518	1514	1508	1448
1399577858955060646	1518	1506	1508	1449
1399577858970166442	1527	1504	1507	1449
1399577858990275515	1534	1504	1507	1449
1399577859005223689	1529	1516	1506	1448
1399577859020271772	1547	1527	1506	1447
1399577859040180424	1544	1519	1505	1448
1399577859070193377	1544	1517	1504	1449
1399577859105249149	1555	1517	1504	1448
1399577859120311043	1544	1518	1504	1448
1399577859155288161	1548	1513	1503	1449
1399577859180211431	1539	1524	1503	1448
1399577859205138987	1541	1519	1502	1448
1399577859220211132	1523	1510	1502	1448
1399577859240223615	1513	1518	1502	1447
1399577859255180835	1521	1523	1502	1446
1399577859270128112	1514	1506	1501	1448
1399577859290149497	1507	1494	1501	1449
1399577859305108431	1503	1494	1501	1449
1399577859340236473	1507	1501	1501	1448
1399577859355244682	1501	1505	1501	1449
1399577859385084127	1514	1495	1501	1449
1399577859395145341	1511	1498	1501	1448
1399577859410232640	1506	1489	1501	1449
1399577859435166351	1529	1492	1500	1449
1399577859455308397	1526	1484	1501	1449
1399577859480316689	1535	1496	1500	1449
1399577859495252978	1534	1488	1501	1449
1399577859510071408	1530	1500	1500	1449
1399577859530109980	1568	1503	1501	1447
1399577859555182557	1569	1499	1501	1449
1399577859580169502	1579	1497	1501	1449
1399577859605184706	1576	1507	1502	1448
1399577859635170623	1587	1517	1502	1448
1399577859660196374	1594	1519	1502	1446
1399577859679939138	1578	1526	1502	1446
1399577859695273084	1587	1520	1503	1446
1399577859715261399	1589	1511	1503	1446
1399577859730219645	1590	1518	1504	1447
1399577859745143608	1591	1518	1504	1446
1399577859760179673	1586	1517	1504	1445
1399577859785259897	1582	1521	1505	1444
1399577859810180341	1584	1526	1506	1444
1399577859835147734	1571	1520	1506	1443
1399577859870232920	1560	1515	1507	1443
1399577859905073536	1560	1514	1508	1442
1399577859919983175	1540	1503	1509	1441
1399577859934982767	1534	1500	1509	1442
1399577859954923931	1533	1495	1510	1442
1399577859979961920	1522	1500	1510	1440
1399577859994913709	1521	1501	1511	1442
1399577860019935888	1506	1491	1512	1441
1399577860054948870	1502	1489	1513	1441
1399577860079906693	1497	1501	1514	1441
1399577860104894380	1495	1500	1514	1442
1399577860129859498	1507	1496	1515	1441
1399577860154905843	1506	1503	1516	1442
1399577860169941271	1525	1512	1516	1441
1399577860184885075	1521	1518	1517	1442
1399577860204887448	1521	1514	1517	1442
1399577860219915288	1534	1538	1518	1443
1399577860244891699	1541	1532	1519	1442
1399577860259803836	1529	1539	1519	1442
1399577860279934092	1534	1540	1520	1442
1399577860304942462	1534	1538	1520	1442
1399577860319985250	1539	1540	1520	1443
1399577860354901824	1539	1544	1521	1442
1399577860369946474	1535	1534	1521	1442
1399577860389893106	1540	1533	1521	1443
1399577860404917553	1541	1532	1521	1442
1399577860419883736	1535	1524	1522	1442
1399577860439895627	1528	1522	1522	1442
1399577860454895486	1534	1526	1522	1441
1399577860479979633	1513	1517	1522	1442
1399577860489869067	1501	1519	1522	1441
1399577860504942674	1498	1516	1522	1442
1399577860519987573	1478	1494	1523	1443
1399577860544913159	1487	1501	1523	1441
1399577860569933811	1461	1496	1523	1441
1399577860594903145	1453	1491	1524	1443
1399577860609945737	1454	1495	1524	1443
1399577860629925451	1454	1499	1524	1443
1399577860644927925	1448	1497	1524	1442
1399577860660068600	1451	1495	1525	1441
1399577860679982941	1444	1503	1525	1443
1399577860694975428	1438	1503	1525	1443
1399577860719952851	1447	1526	1525	1442
1399577860740036973	1456	1522	1525	1442
1399577860759870255	1463	1520	1525	1444
1399577860779887096	1459	1533	1525	1443
1399577860804954244	1466	1529	1525	1444
1399577860834941972	1489	1544	1525	1444
1399577860854914788	1493	1548	1525	1444
1399577860879983339	1504	1561	1524	1444
1399577860904951225	1509	1573	1524	1444
1399577860919930619	1504	1560	1524	1444
1399577860939984709	1506	1549	1524	1446
1399577860954903860	1502	1547	1523	1446
1399577860974942957	1513	1546	1523	1447
1399577861004948659	1516	1546	1523	1445
1399577861024920655	1499	1526	1523	1446
1399577861039932397	1501	1519	1522	1445
1399577861059880439	1503	1526	1522	1446
1399577861084905389	1507	1511	1521	1445
1399577861109899598	1508	1509	1521	1444
1399577861139915018	1469	1471	1520	1445
1399577861154891592	1469	1479	1519	1445
1399577861179890626	1459	1464	1518	1445
1399577861194857645	1461	1465	1517	1445
1399577861219872184	1458	1464	1516	1446
1399577861244956914	1462	1460	1515	1446
1399577861269920035	1460	1471	1513	1446
1399577861304892161	1464	1466	1512	1447
1399577861334928430	1464	1489	1510	1446
1399577861359921683	1464	1489	1510	1446
1399577861379959106	1484	1508	1509	1447
1399577861394879663	1492	1508	1508	1447
1399577861414924762	1507	1522	1508	1446
1399577861429908306	1510	1530	1508	1446
1399577861444892947	1514	1537	1508	1446
1399577861469895499	1525	1536	1507	1445
1399577861484889585	1533	1543	1507	1445
1399577861504903563	1535	1548	1507	1445
1399577861534925718	1569	1557	1507	1445
1399577861569948210	1571	1551	1507	1444
1399577861589910026	1580	1544	1507	1445
1399577861619890801	1574	1542	1507	1443
1399577861639917183	1584	1547	1506	1442
1399577861679903512	1570	1515	1506	1443
1399577861704927689	1574	1517	1505	1443
1399577861724934818	1544	1486	1505	1444
1399577861754931962	1554	1478	1504	1443
1399577861774947247	1532	1464	1504	1443
1399577861804929477	1533	1450	1504	1443
1399577861834940430	1522	1440	1503	1442
1399577861859917900	1520	1431	1502	1441
1399577861889960516	1504	1444	1502	1442
1399577861904951437	1504	1440	1502	1440
1399577861919919136	1511	1448	1502	1443
1399577861939990374	1514	1439	1502	1444
1399577861959936513	1510	1435	1502	1444
1399577861984932106	1518	1451	1501	1443
1399577862004909130	1516	1458	1501	1444
1399577862034967623	1524	1478	1501	1443
1399577862054861789	1530	1480	1501	1443
1399577862084925142	1605	1536	1501	1445
1399577862114919623	1607	1553	1501	1445
1399577862129890208	1610	1560	1500	1445
1399577862144897426	1610	1562	1500	1445
1399577862164913007	1623	1555	1500	1445
1399577862179821467	1624	1564	1500	1445
1399577862204892088	1627	1566	1500	1444
1399577862229935635	1614	1550	1500	1447
1399577862254893362	1619	1560	1499	1445
1399577862284896340	1610	1534	1500	1444
1399577862319966443	1599	1512	1499	1443
1399577862349994510	1599	1513	1499	1442
1399577862359977950	1602	1512	1499	1443
1399577862379925347	1577	1486	1499	1443
1399577862394911283	1571	1481	1499	1442
1399577862409910865	1578	1480	1499	1441
1399577862439917278	1549	1447	1499	1441
1399577862460028307	1544	1443	1500	1442
1399577862479980520	1524	1460	1501	1442
1399577862504969231	1525	1455	1502	1441
1399577862529845409	1514	1472	1503	1442
1399577862554880671	1509	1478	1503	1441
1399577862584903863	1502	1505	1505	1440
1399577862614883605	1515	1550	1506	1440
1399577862629934483	1510	1547	1507	1440
1399577862644884957	1503	1558	1507	1441
1399577862669840113	1522	1571	1509	1441
1399577862689901443	1515	1572	1509	1441
1399577862709917258	1513	1574	1510	1440
1399577862734983610	1533	1573	1511	1441
1399577862759929326	1529	1568	1512	1442
1399577862784900423	1546	1584	1513	1441
1399577862820273045	1555	1566	1514	1441
1399577862840303421	1555	1572	1515	1439
1399577862855288991	1557	1583	1515	1439
1399577862870254400	1552	1564	1516	1438
1399577862895278321	1548	1559	1516	1440
1399577862910120247	1541	1566	1517	1438
1399577862930107317	1530	1531	1517	1439
1399577862955181989	1530	1526	1518	1440
1399577862985157632	1504	1504	1519	1440
1399577863005063364	1492	1503	1519	1439
1399577863035141611	1453	1491	1520	1439
1399577863055004736	1453	1493	1520	1439
1399577863070000384	1435	1488	1521	1440
1399577863100046692	1427	1506	1521	1438
1399577863109989457	1421	1496	1521	1439
1399577863134952433	1419	1506	1522	1440
1399577863154968465	1417	1501	1522	1439
1399577863170016259	1419	1520	1523	1440
1399577863189984605	1418	1514	1523	1440
1399577863220174118	1433	1531	1523	1441
1399577863240102939	1434	1527	1524	1440
1399577863270249764	1454	1547	1524	1441
1399577863305266439	1451	1547	1524	1442
1399577863335192865	1474	1559	1524	1442
1399577863345024007	1474	1554	1524	1442
1399577863365129041	1483	1565	1524	1442
1399577863379981384	1487	1572	1524	1442
1399577863394911312	1494	1569	1524	1442
1399577863419925034	1483	1544	1524	1442
1399577863444948534	1485	1540	1524	1443
1399577863470047432	1474	1508	1524	1443
1399577863504995044	1480	1504	1524	1443
1399577863524952435	1488	1489	1524	1443
1399577863535143693	1490	1493	1523	1443
1399577863554971081	1495	1499	1523	1442
1399577863600179255	1478	1472	1522	1443
1399577863610250217	1483	1468	1522	1442
1399577863630196003	1478	1480	1521	1443
1399577863645023988	1474	1473	1520	1443
1399577863660162469	1484	1476	1520	1443
1399577863680160294	1472	1485	1519	1443
1399577863695142747	1474	1486	1519	1444
1399577863720191243	1471	1488	1517	1444
1399577863745121863	1475	1493	1516	1444
1399577863770107454	1473	1508	1515	1443
1399577863805176830	1476	1506	1513	1444
1399577863830215518	1488	1516	1512	1444
1399577863844948162	1490	1523	1511	1443
1399577863860142647	1498	1514	1510	1445
1399577863890139262	1520	1521	1509	1445
1399577863905302161	1522	1524	1508	1445
1399577863935315414	1541	1519	1507	1444
1399577863955295445	1550	1513	1506	1447
1399577863980070803	1566	1501	1504	1447
1399577864005259473	1567	1500	1503	1447
1399577864030082015	1574	1487	1502	1446
1399577864045054430	1581	1492	1501	1445
1399577864065285405	1579	1490	1501	1445
1399577864080282339	1590	1489	1500	1446
1399577864095237384	1590	1482	1499	1447
1399577864110166043	1589	1478	1499	1448
1399577864130214098	1583	1476	1498	1448
1399577864155225436	1579	1479	1497	1447
1399577864174972021	1579	1486	1497	1448
1399577864204971621	1575	1490	1496	1447
1399577864219985696	1565	1500	1496	1448
1399577864254998825	1571	1502	1495	1448
1399577864284969211	1551	1514	1495	1447
1399577864294981754	1557	1506	1495	1448
1399577864310004620	1549	1507	1495	1448
1399577864330006914	1553	1511	1495	1448
1399577864345207497	1544	1513	1495	1449
1399577864370275634	1544	1532	1496	1448
1399577864390142514	1549	1523	1496	1447
1399577864410217474	1541	1518	1497	1447
1399577864430251462	1565	1513	1498	1447
1399577864445234793	1560	1518	1498	1447
1399577864470250771	1562	1520	1499	1447
1399577864505180615	1562	1520	1501	1446
1399577864530244647	1557	1507	1502	1446
1399577864555188606	1564	1511	1503	1445
1399577864570239900	1579	1497	1504	1445
1399577864590252233	1579	1496	1505	1446
1399577864605192488	1577	1497	1506	1447
1399577864620184283	1606	1492	1507	1447
1399577864645204697	1602	1505	1508	1445
1399577864670248138	1610	1509	1510	1446
1399577864690221113	1602	1515	1511	1445
1399577864720149068	1596	1520	1513	1446
1399577864755105996	1591	1520	1514	1446
1399577864785261660	1572	1535	1516	1445
1399577864805139609	1566	1541	1516	1446
1399577864820186522	1533	1561	1517	1444
1399577864840159423	1530	1556	1517	1445
1399577864855226525	1521	1553	1518	1445
1399577864870259187	1500	1550	1519	1445
1399577864890280106	1492	1559	1519	1444
1399577864910214970	1491	1568	1519	1444
1399577864935249543	1477	1555	1520	1444
1399577864945145165	1462	1562	1520	1445
1399577864970252425	1460	1545	1521	1446
1399577864994977692	1451	1531	1522	1447
1399577865009965477	1444	1529	1523	1446
1399577865029965282	1432	1532	1523	1446
1399577865044957668	1437	1544	1523	1446
1399577865064980894	1447	1541	1524	1446
1399577865079968692	1444	1533	1524	1445
1399577865094946296	1435	1533	1524	1447
1399577865109958445	1424	1528	1525	1446
1399577865140209295	1428	1523	1525	1447
1399577865155205203	1427	1519	1525	1447
1399577865190046507	1452	1519	1526	1446
1399577865220253868	1482	1512	1526	1447
1399577865240250569	1477	1506	1527	1446
1399577865255233932	1480	1506	1526	1446
1399577865270183158	1494	1525	1527	1445
1399577865285217893	1492	1520	1526	1446
1399577865305234149	1493	1517	1526	1446
1399577865320170532	1505	1522	1526	1447
1399577865345210245	1503	1527	1526	1446
1399577865360145472	1508	1524	1526	1446
1399577865380288268	1494	1536	1525	1447
1399577865405204616	1495	1542	1525	1446
1399577865420281554	1473	1549	1524	1447
1399577865440182862	1471	1553	1524	1446
1399577865470230501	1447	1558	1523	1446
1399577865505259459	1447	1563	1523	1446
1399577865525175014	1409	1560	1522	1446
1399577865540256395	1420	1565	1522	1446
1399577865555177090	1408	1566	1521	1446
1399577865580260606	1406	1564	1521	1446
1399577865595221447	1409	1562	1520	1446
1399577865610250831	1411	1561	1520	1447
1399577865635341029	1389	1547	1519	1447
1399577865670306898	1395	1536	1519	1447
1399577865695238643	1390	1528	1518	1447
1399577865710131381	1406	1528	1518	1447
1399577865730226959	1428	1511	1517	1447
1399577865755242197	1429	1510	1517	1446
1399577865780224995	1464	1481	1516	1449
1399577865795141533	1465	1480	1516	1448
1399577865815205746	1471	1489	1515	1447
1399577865830223277	1496	1488	1515	1447
1399577865845245531	1505	1483	1514	1447
1399577865870200800	1516	1486	1514	1447
1399577865890222579	1515	1489	1513	1446
1399577865920212615	1536	1498	1512	1447
1399577865940277189	1546	1497	1511	1448
1399577865970242454	1533	1510	1510	1448
1399577866000276660	1543	1512	1509	1448
1399577866010058353	1546	1518	1509	1446
1399577866030215888	1510	1539	1508	1447
1399577866045208264	1513	1534	1508	1447
1399577866060211850	1518	1523	1507	1446
1399577866080297829	1507	1536	1507	1447
1399577866095299904	1505	1543	1506	1446
1399577866110002708	1514	1544	1506	1446
1399577866129944919	1510	1537	1505	1446
1399577866155023744	1509	1528	1504	1445
1399577866170000799	1519	1516	1504	1445
1399577866204932070	1521	1523	1503	1445
1399577866235011398	1524	1515	1502	1444
1399577866255020801	1524	1513	1502	1444
1399577866270235593	1546	1495	1502	1445
1399577866290269181	1553	1483	1502	1445
1399577866305287807	1549	1495	1502	1444
1399577866330271573	1599	1459	1502	1446
1399577866355237193	1604	1454	1502	1446
1399577866385311030	1640	1445	1502	1447
1399577866405276614	1648	1443	1502	1447
1399577866420007205	1652	1443	1502	1446
1399577866455042007	1646	1453	1503	1447
1399577866485246919	1669	1461	1503	1448
1399577866505263456	1671	1461	1504	1446
1399577866545248887	1657	1472	1505	1447
1399577866560256313	1659	1482	1505	1445
1399577866580229472	1611	1519	1506	1445
1399577866605409944	1607	1521	1506	1445
1399577866630235362	1579	1529	1507	1445
1399577866655305365	1572	1539	1508	1444
1399577866685244704	1557	1553	1509	1443
1399577866705269512	1544	1556	1509	1443
1399577866720004855	1526	1559	1509	1442
1399577866754943243	1518	1556	1510	1442
1399577866770142291	1541	1518	1510	1441
1399577866784934677	1519	1520	1510	1442
1399577866805132876	1519	1531	1510	1441
1399577866820317725	1536	1512	1511	1441
1399577866839985829	1542	1507	1511	1441
1399577866860214024	1535	1513	1512	1438
1399577866885243855	1556	1486	1512	1440
1399577866920315219	1594	1461	1513	1440
1399577866955195157	1590	1458	1515	1439
1399577866984983085	1608	1447	1516	1440
1399577866995234002	1615	1436	1517	1440
1399577867009872587	1605	1448	1518	1439
1399577867030228148	1619	1458	1519	1438
1399577867045210362	1615	1465	1520	1437
1399577867070203312	1611	1463	1521	1439
1399577867095204472	1607	1458	1523	1439
1399577867120183819	1573	1486	1524	1439
1399577867155192985	1564	1489	1526	1438
1399577867170115737	1506	1528	1527	1438
1399577867205210114	1494	1528	1528	1439
1399577867220231463	1435	1573	1529	1440
1399577867240321392	1424	1572	1529	1441
1399577867255279914	1416	1570	1529	1440
1399577867270209482	1404	1590	1529	1441
1399577867295196352	1391	1587	1529	1441
1399577867320139004	1381	1572	1529	1442
1399577867340298794	1363	1577	1528	1443
1399577867370263426	1376	1563	1528	1444
1399577867405277578	1367	1566	1527	1444
1399577867435334580	1423	1501	1526	1446
1399577867445228800	1419	1508	1525	1444
1399577867460204292	1416	1516	1525	1444
1399577867480053624	1460	1493	1524	1444
1399577867505212766	1456	1488	1524	1445
1399577867540241831	1488	1479	1523	1445
1399577867555245721	1487	1465	1522	1447
1399577867575281740	1510	1458	1521	1448
1399577867605271055	1519	1461	1520	1446
1399577867630261453	1522	1464	1519	1446
1399577867655123033	1523	1463	1518	1447
1399577867680250549	1483	1495	1517	1446
1399577867695266272	1485	1493	1517	1446
1399577867722041110	1520	1516	1514	1350
1399577867741719867	1520	1516	1514	1349
1399577867762116169	1520	1516	1514	1348
1399577867781969547	1520	1516	1514	1346
1399577867802562527	1520	1516	1514	1345
1399577867822070026	1520	1516	1514	1344
1399577867841681945	1520	1516	1514	1343
1399577867862042664	1520	1516	1514	1342
1399577867881665272	1520	1516	1514	1341
1399577867902158443	1520	1516	1514	1340
1399577867921925343	1520	1516	1514	1339
1399577867941578822	1520	1516	1514	1338
1399577867962081302	1520	1516	1514	1337
1399577867981612835	1520	1516	1514	1335
1399577868002241145	1520	1516	1514	1334
1399577868021909344	1520	1516	1514	1333
1399577868041482214	1520	1516	1514	1332
1399577868062147751	1520	1516	1514	1331
1399577868081799258	1520	1516	1514	1330
1399577868102181296	1520	1516	1514	1329
1399577868121949594	1520	1516	1514	1328
1399577868141540002	1520	1516	1514	1327
1399577868162141347	1520	1516	1514	1326
1399577868181756572	1520	1516	1514	1325
1399577868202218544	1520	1516	1514	1323
1399577868222022778	1520	1516	1514	1322
1399577868241835119	1520	1516	1514	1321
1399577868262132538	1520	1516	1514	1320
1399577868281673096	1520	1516	1514	1319
1399577868302156797	1520	1516	1514	1318
1399577868322025322	1520	1516	1514	1317
1399577868341621465	1520	1516	1514	1316
1399577868362128056	1520	1516	1514	1315
1399577868381723926	1520	1516	1514	1314
1399577868402351050	1520	1516	1514	1312
1399577868421958369	1520	1516	1514	1311
1399577868441546269	1520	1516	1514	1310
1399577868462183076	1520	1516	1514	1309
1399577868481785153	1520	1516	1514	1308
1399577868502389002	1520	1516	1514	1307
1399577868521848569	1520	1516	1514	1306
1399577868541375588	1520	1516	1514	1305
1399577868562164611	1520	1516	1514	1304
1399577868581891251	1520	1516	1514	1303
1399577868601408204	1520	1516	1514	1302
1399577868622098443	1520	1516	1514	1300
1399577868641734124	1520	1516	1514	1299
1399577868662127296	1520	1516	1514	1298
1399577868681951906	1520	1516	1514	1297
1399577868701592156	1520	1516	1101	1105
1399577868801743186	1520	1516	1101	1105
1399577868901914201	1520	1516	1101	1105
1399577869002080423	1520	1516	1101	1105
1399577869102309518	1520	1516	1101	1105
1399577869202506174	1520	1516	1101	1105
1399577869302684797	1520	1516	1101	1105
1399577869402859633	1520	1516	1101	1105
1399577869503031566	1520	1516	1101	1105
1399577869603234009	1520	1516	1101	1105
1399577869703455991	1520	1516	1101	1105
1399577869803611533	1520	1516	1101	1105
1399577869903784498	1520	1516	1101	1105
1399577870003972860	1520	1516	1101	1105
1399577870104144327	1520	1516	1101	1105
1399577870204306969	1520	1516	1101	1105
1399577870304475875	1520	1516	1101	1105
1399577870404647149	1520	1516	1101	1105
1399577870504843860	1520	1516	1101	1105
1399577870605049103	1520	1516	1101	1105
1399577870705220589	1520	1516	1101	1105
1399577870805390241	1520	1516	1101	1105
1399577870905619226	1520	1516	1101	1105
1399577871005816248	1520	1516	1101	1105
1399577871105987085	1520	1516	1101	1105
1399577871206147600	1520	1516	1101	1105
1399577871306322894	1520	1516	1101	1105
1399577871406501485	1520	1516	1101	1105
1399577871506739890	1520	1516	1101	1105
1399577871606930373	1520	1516	1101	1105
1399577871707103133	1520	1516	1513	1105
