#Time	 Roll 	 Pitch 	 Yaw 	 Thrust
1399582908306671111	1520	1516	1926	1105
1399582908406959205	1520	1516	1926	1105
1399582908507195349	1520	1516	1926	1105
1399582908607452798	1520	1516	1926	1105
1399582908707698315	1520	1516	1926	1105
1399582908807972563	1520	1516	1926	1105
1399582908908207372	1520	1516	1926	1105
1399582909008479428	1520	1516	1926	1105
1399582909108723245	1520	1516	1926	1105
1399582909208984550	1520	1516	1926	1105
1399582909309244299	1520	1516	1926	1105
1399582909409499858	1520	1516	1926	1105
1399582909509750513	1520	1516	1926	1105
1399582909609990596	1520	1516	1926	1105
1399582909710232247	1520	1516	1926	1105
1399582909810478635	1520	1516	1926	1105
1399582909910702516	1520	1516	1926	1105
1399582910010928750	1520	1516	1926	1105
1399582910111192901	1520	1516	1926	1105
1399582910211432564	1520	1516	1926	1105
1399582910311651072	1520	1516	1926	1105
1399582910411881992	1520	1516	1926	1105
1399582910512142951	1520	1516	1926	1105
1399582910612385650	1520	1516	1926	1105
1399582910712629140	1520	1516	1926	1105
1399582910812907142	1520	1516	1926	1105
1399582910913155823	1520	1516	1926	1105
1399582911013441944	1520	1516	1926	1105
1399582911113693538	1520	1516	1926	1105
1399582911213952698	1520	1516	1926	1105
1399582911314199918	1520	1516	1513	1105
1399582919874351019	1523	1518	1517	1378
1399582919894343086	1522	1518	1517	1378
1399582919909278628	1523	1518	1517	1378
1399582919924323013	1520	1521	1517	1378
1399582919939359586	1521	1516	1517	1379
1399582919959387304	1525	1520	1517	1434
1399582919984375049	1524	1519	1517	1380
1399582920004431907	1523	1517	1517	1380
1399582920014398998	1523	1517	1517	1380
1399582920034455712	1518	1518	1517	1380
1399582920059296936	1525	1517	1517	1434
1399582920089420715	1526	1516	1517	1382
1399582920124418781	1524	1516	1517	1382
1399582920149196065	1527	1516	1517	1382
1399582920164459613	1526	1518	1517	1385
1399582920184443645	1523	1518	1517	1384
1399582920199443258	1527	1519	1517	1384
1399582920214269402	1525	1519	1517	1384
1399582920234357375	1526	1518	1517	1384
1399582920249296178	1527	1514	1517	1385
1399582920274155794	1524	1518	1517	1386
1399582920304335895	1523	1513	1517	1386
1399582920314208192	1523	1515	1517	1385
1399582920339286967	1526	1516	1517	1386
1399582920374341706	1525	1517	1517	1388
1399582920394213426	1529	1517	1517	1388
1399582920409195112	1526	1515	1517	1387
1399582920434272719	1525	1519	1517	1388
1399582920449395396	1524	1518	1517	1387
1399582920464427965	1526	1520	1517	1390
1399582920484400648	1526	1519	1517	1390
1399582920509376352	1524	1519	1517	1389
1399582920539426143	1526	1518	1517	1389
1399582920559335958	1527	1520	1517	1434
1399582920589403311	1516	1510	1517	1391
1399582920599203962	1517	1516	1517	1390
1399582920624440318	1515	1514	1517	1388
1399582920644397470	1515	1510	1517	1388
1399582920659354639	1517	1515	1517	1435
1399582920674345406	1511	1521	1517	1387
1399582920694390499	1514	1518	1517	1386
1399582920709374110	1519	1505	1517	1386
1399582920724394577	1513	1503	1517	1386
1399582920749372748	1515	1499	1517	1384
1399582920759276963	1517	1507	1517	1382
1399582920789246880	1502	1517	1517	1383
1399582920809429175	1514	1517	1517	1381
1399582920834342282	1496	1527	1517	1378
1399582920854353806	1516	1523	1517	1379
1399582920874404416	1523	1509	1517	1435
1399582920894368570	1497	1518	1517	1379
1399582920909282963	1522	1514	1517	1378
1399582920939302021	1493	1514	1517	1375
1399582920949375638	1508	1531	1517	1375
1399582920964206723	1500	1512	1516	1378
1399582920984376697	1499	1506	1516	1377
1399582920999211002	1489	1499	1516	1378
1399582921014373982	1489	1489	1516	1376
1399582921039407507	1503	1503	1516	1375
1399582921059177615	1496	1495	1516	1374
1399582921089313728	1488	1511	1515	1374
1399582921109261910	1499	1505	1515	1373
1399582921124347086	1489	1509	1515	1373
1399582921154344899	1500	1510	1515	1373
1399582921164485451	1501	1505	1515	1376
1399582921184333395	1487	1512	1515	1374
1399582921199335366	1523	1501	1515	1373
1399582921224353127	1491	1514	1515	1374
1399582921239267416	1506	1521	1515	1373
1399582921264295380	1512	1521	1514	1436
1399582921289349028	1520	1513	1514	1375
1399582921309328068	1503	1523	1514	1376
1399582921339349729	1519	1524	1514	1375
1399582921354343610	1514	1507	1514	1375
1399582921374379964	1509	1496	1514	1377
1399582921389338728	1516	1506	1514	1377
1399582921409333223	1517	1499	1514	1377
1399582921424455740	1512	1505	1513	1379
1399582921439329771	1510	1499	1513	1377
1399582921459427749	1520	1501	1513	1378
1399582921489351848	1516	1513	1513	1378
1399582921509333876	1516	1519	1513	1377
1399582921534333083	1515	1506	1513	1379
1399582921554398604	1533	1521	1513	1377
1399582921574384347	1524	1518	1513	1436
1399582921604405928	1524	1516	1513	1380
1399582921614402161	1524	1519	1513	1381
1399582921634423041	1523	1521	1513	1381
1399582921649325297	1542	1511	1513	1382
1399582921674350327	1527	1514	1513	1436
1399582921694377214	1526	1517	1513	1384
1399582921709306875	1526	1512	1513	1384
1399582921724378217	1542	1509	1513	1383
1399582921739305669	1531	1511	1514	1383
1399582921759341816	1542	1505	1513	1383
1399582921774335563	1522	1518	1513	1386
1399582921799362374	1527	1524	1513	1385
1399582921824409995	1531	1520	1513	1385
1399582921849403327	1527	1504	1513	1385
1399582921864342846	1516	1518	1513	1437
1399582921884464297	1535	1514	1513	1386
1399582921899427020	1535	1528	1513	1387
1399582921924418979	1528	1518	1513	1386
1399582921939371849	1522	1515	1513	1386
1399582921964151301	1534	1519	1513	1437
1399582921989365789	1538	1521	1513	1387
1399582922009398301	1522	1527	1513	1387
1399582922039397879	1529	1522	1513	1386
1399582922059396287	1524	1521	1513	1386
1399582922089410293	1523	1518	1513	1385
1399582922109421778	1527	1513	1513	1383
1399582922124351423	1526	1519	1513	1381
1399582922139343592	1511	1523	1513	1380
1399582922159326892	1517	1521	1513	1378
1399582922174114364	1524	1508	1513	1379
1399582922189325945	1510	1520	1512	1378
1399582922209385605	1511	1533	1512	1377
1399582922234338532	1527	1516	1512	1378
1399582922254325395	1519	1526	1512	1375
1399582922274444606	1522	1520	1512	1437
1399582922304390867	1526	1519	1512	1378
1399582922324389613	1513	1522	1512	1377
1399582922344378055	1521	1530	1512	1375
1399582922359338555	1526	1516	1512	1438
1399582922384458942	1519	1522	1512	1378
1399582922399411716	1530	1534	1511	1377
1399582922414371241	1512	1532	1511	1378
1399582922434334617	1512	1516	1511	1379
1399582922454443038	1518	1502	1511	1380
1399582922464362505	1514	1514	1511	1380
1399582922489427469	1499	1519	1511	1378
1399582922504234082	1523	1514	1511	1378
1399582922524437491	1506	1519	1511	1378
1399582922549143255	1508	1520	1511	1378
1399582922574410563	1500	1509	1511	1379
1399582922594348742	1497	1509	1510	1378
1399582922619357512	1503	1518	1510	1379
1399582922634211179	1496	1512	1510	1379
1399582922649144325	1494	1511	1510	1379
1399582922684192215	1512	1507	1510	1379
1399582922699132266	1508	1511	1510	1379
1399582922724190765	1513	1518	1510	1379
1399582922749140506	1515	1525	1510	1378
1399582922774161465	1509	1505	1509	1379
1399582922789302228	1505	1525	1509	1379
1399582922809393654	1518	1508	1509	1379
1399582922834277202	1511	1502	1509	1379
1399582922859391448	1508	1496	1509	1380
1399582922874364565	1518	1501	1509	1380
1399582922889372810	1510	1507	1509	1381
1399582922909407070	1521	1506	1509	1380
1399582922924387815	1507	1512	1509	1381
1399582922949088347	1513	1495	1509	1380
1399582922959034290	1518	1507	1509	1380
1399582922974029976	1522	1515	1509	1381
1399582922994054007	1517	1504	1509	1380
1399582923009053779	1518	1521	1509	1380
1399582923024091881	1521	1512	1508	1381
1399582923054133488	1518	1501	1508	1382
1399582923074143344	1520	1508	1508	1382
1399582923099098299	1524	1523	1508	1381
1399582923114137588	1531	1514	1508	1381
1399582923134117460	1528	1506	1508	1382
1399582923149162346	1525	1503	1508	1383
1399582923164118267	1527	1502	1508	1383
1399582923189084210	1519	1508	1508	1383
1399582923199054097	1525	1510	1508	1382
1399582923224096470	1526	1518	1508	1383
1399582923249069836	1527	1522	1508	1382
1399582923274056701	1529	1512	1508	1383
1399582923304115975	1526	1518	1508	1383
1399582923324074496	1526	1518	1508	1384
1399582923344091860	1525	1521	1508	1383
1399582923359051413	1529	1519	1507	1383
1399582923374154242	1529	1520	1507	1383
1399582923389049280	1527	1523	1507	1384
1399582923409129584	1526	1521	1507	1385
1399582923424070406	1529	1514	1507	1385
1399582923444017406	1535	1516	1507	1385
1399582923459038971	1534	1509	1507	1385
1399582923484090073	1529	1527	1507	1385
1399582923504090102	1535	1518	1507	1386
1399582923524091829	1529	1520	1506	1385
1399582923554057242	1532	1515	1507	1386
1399582923574110630	1531	1527	1506	1386
1399582923604081350	1535	1528	1506	1386
1399582923614039740	1533	1533	1506	1386
1399582923634064134	1539	1524	1506	1386
1399582923649058375	1533	1519	1506	1386
1399582923664067195	1534	1520	1506	1387
1399582923689076188	1527	1531	1506	1387
1399582923714082531	1526	1521	1506	1388
1399582923739091008	1531	1526	1506	1388
1399582923759076744	1534	1526	1506	1388
1399582923784105514	1532	1529	1506	1388
1399582923799056849	1531	1533	1506	1388
1399582923814050804	1531	1530	1506	1389
1399582923834090860	1530	1527	1506	1389
1399582923849082442	1532	1515	1506	1389
1399582923864063115	1529	1518	1507	1390
1399582923889126882	1528	1522	1507	1389
1399582923909095513	1530	1527	1507	1390
1399582923924117155	1529	1527	1507	1390
1399582923949048833	1527	1516	1507	1391
1399582923964055920	1523	1520	1507	1390
1399582923989065015	1523	1519	1508	1390
1399582924024087445	1523	1521	1508	1390
1399582924049095554	1523	1509	1508	1391
1399582924074088405	1525	1515	1509	1390
1399582924099088695	1519	1516	1509	1390
1399582924119062620	1520	1527	1509	1390
1399582924134083864	1520	1519	1509	1391
1399582924149071553	1519	1516	1509	1391
1399582924174151050	1520	1510	1509	1392
1399582924194096552	1515	1507	1509	1392
1399582924209042410	1518	1506	1510	1392
1399582924239138409	1521	1519	1510	1392
1399582924259119418	1525	1525	1510	1391
1399582924274107862	1517	1522	1510	1392
1399582924304077819	1515	1526	1511	1391
1399582924314055335	1517	1524	1511	1391
1399582924339130987	1514	1513	1511	1392
1399582924359151872	1514	1510	1511	1391
1399582924384137256	1507	1503	1511	1391
1399582924394077468	1506	1508	1511	1391
1399582924409065281	1505	1511	1512	1391
1399582924424124592	1513	1513	1512	1391
1399582924444068501	1510	1515	1512	1391
1399582924459060134	1508	1503	1512	1392
1399582924484078887	1517	1519	1512	1390
1399582924504052523	1505	1509	1512	1391
1399582924524133078	1506	1508	1512	1392
1399582924544099562	1509	1511	1512	1391
1399582924559110991	1510	1499	1512	1392
1399582924574105597	1507	1493	1512	1393
1399582924589078060	1512	1499	1512	1392
1399582924609102461	1506	1502	1512	1391
1399582924624105880	1514	1511	1512	1392
1399582924639093007	1507	1510	1512	1392
1399582924659078734	1503	1520	1511	1392
1399582924674070555	1519	1523	1511	1392
1399582924709036733	1514	1513	1511	1394
1399582924739179719	1515	1511	1511	1393
1399582924764081275	1515	1514	1511	1394
1399582924784067954	1518	1521	1510	1393
1399582924799099936	1520	1524	1510	1393
1399582924814047864	1519	1519	1510	1394
1399582924834098200	1515	1503	1510	1395
1399582924849046076	1520	1509	1510	1395
1399582924874096853	1525	1510	1509	1394
1399582924894083333	1521	1509	1509	1395
1399582924909094665	1528	1508	1509	1395
1399582924934093475	1526	1525	1509	1393
1399582924949163491	1525	1522	1508	1394
1399582924974093444	1525	1515	1508	1394
1399582924994111195	1531	1528	1508	1393
1399582925009097340	1533	1521	1507	1394
1399582925024078539	1527	1509	1507	1395
1399582925054106286	1536	1527	1507	1394
1399582925064079419	1530	1514	1507	1395
1399582925089095662	1531	1534	1507	1394
1399582925109041958	1532	1525	1507	1395
1399582925124120640	1529	1516	1507	1396
1399582925144104615	1533	1514	1507	1395
1399582925159140684	1529	1519	1507	1394
1399582925184131366	1528	1516	1506	1395
1399582925204104968	1527	1520	1506	1395
1399582925224124998	1533	1522	1507	1395
1399582925254125009	1533	1523	1507	1394
1399582925274097711	1532	1512	1507	1394
1399582925294072017	1524	1514	1507	1394
1399582925309080260	1530	1513	1507	1393
1399582925324122085	1529	1520	1507	1393
1399582925344142925	1531	1528	1507	1391
1399582925359183106	1527	1524	1508	1391
1399582925374059333	1527	1522	1508	1392
1399582925389097708	1520	1511	1508	1393
1399582925409062212	1518	1515	1508	1392
1399582925424107914	1521	1528	1509	1392
1399582925449057365	1514	1520	1509	1392
1399582925474068811	1521	1526	1510	1392
1399582925494021222	1521	1522	1510	1392
1399582925509035876	1524	1533	1511	1391
1399582925524068538	1528	1539	1511	1390
1399582925539146385	1528	1538	1511	1390
1399582925559044460	1526	1528	1511	1392
1399582925574059152	1520	1507	1512	1392
1399582925589025862	1513	1512	1512	1391
1399582925609035475	1523	1525	1512	1391
1399582925624035175	1515	1521	1512	1391
1399582925649070763	1512	1527	1512	1390
1399582925674078221	1508	1531	1512	1391
1399582925704058009	1501	1514	1512	1392
1399582925724080264	1504	1513	1512	1392
1399582925754055199	1503	1524	1512	1391
1399582925764013475	1501	1509	1512	1392
1399582925794079541	1505	1514	1512	1392
1399582925809114085	1500	1511	1512	1393
1399582925824063882	1512	1514	1512	1392
1399582925849099715	1500	1515	1512	1392
1399582925874092841	1502	1517	1512	1392
1399582925894180592	1500	1525	1512	1392
1399582925909102468	1498	1520	1512	1391
1399582925924102089	1493	1515	1512	1393
1399582925944063927	1500	1501	1512	1393
1399582925964126223	1486	1514	1511	1393
1399582925989016825	1502	1505	1511	1393
1399582926004051026	1489	1516	1511	1392
1399582926014050199	1505	1514	1511	1391
1399582926039080158	1508	1516	1511	1392
1399582926049043241	1501	1509	1511	1393
1399582926064021170	1505	1499	1511	1393
1399582926089029503	1497	1508	1511	1393
1399582926109113472	1492	1496	1510	1392
1399582926129049213	1493	1520	1510	1392
1399582926154093147	1498	1491	1510	1394
1399582926164091454	1502	1511	1510	1393
1399582926189045356	1503	1511	1510	1392
1399582926209100013	1502	1508	1510	1392
1399582926239091104	1508	1507	1509	1393
1399582926259066253	1507	1501	1509	1393
1399582926274022450	1509	1499	1509	1393
1399582926289035703	1514	1518	1509	1392
1399582926314111903	1513	1513	1508	1392
1399582926334053868	1512	1516	1508	1393
1399582926349121109	1516	1518	1508	1392
1399582926374081683	1511	1520	1508	1393
1399582926399052787	1510	1514	1508	1393
1399582926424060025	1509	1519	1507	1393
1399582926444075634	1507	1513	1507	1393
1399582926459020082	1512	1527	1507	1392
1399582926484064362	1512	1503	1507	1393
1399582926499027968	1514	1515	1506	1393
1399582926514066603	1515	1517	1506	1392
1399582926534076465	1519	1515	1506	1393
1399582926549035638	1523	1514	1506	1393
1399582926564084233	1524	1510	1506	1392
1399582926589123302	1518	1515	1506	1392
1399582926598999301	1517	1520	1506	1392
1399582926624069280	1519	1524	1505	1393
1399582926644033922	1526	1526	1505	1392
1399582926658963403	1525	1528	1506	1392
1399582926689011247	1520	1525	1506	1392
1399582926709073183	1524	1522	1506	1393
1399582926724104330	1520	1512	1506	1392
1399582926759063278	1520	1517	1506	1392
1399582926789038550	1525	1524	1506	1392
1399582926809096371	1517	1520	1506	1392
1399582926829005257	1524	1519	1506	1392
1399582926844056973	1524	1516	1506	1393
1399582926859084669	1529	1516	1506	1392
1399582926879085989	1521	1517	1506	1391
1399582926904117462	1520	1515	1506	1393
1399582926914099659	1522	1519	1506	1392
1399582926939099666	1525	1518	1506	1392
1399582926954069545	1527	1524	1506	1391
1399582926964014287	1528	1518	1506	1391
1399582926984085674	1524	1513	1507	1393
1399582926999051852	1523	1515	1507	1393
1399582927014013192	1522	1522	1507	1392
1399582927034054767	1522	1526	1507	1392
1399582927049019796	1523	1520	1507	1393
1399582927064053281	1521	1513	1507	1394
1399582927084040812	1518	1513	1508	1394
1399582927099049331	1518	1515	1508	1394
1399582927124087100	1523	1520	1508	1394
1399582927159129154	1522	1522	1508	1394
1399582927184020048	1515	1514	1509	1395
1399582927199044664	1519	1528	1509	1395
1399582927213991203	1520	1538	1509	1394
1399582927239060616	1515	1520	1509	1395
1399582927259061560	1516	1526	1510	1395
1399582927274044539	1518	1520	1510	1396
1399582927299121213	1518	1515	1509	1396
1399582927314077090	1518	1517	1509	1397
1399582927333986405	1519	1509	1510	1398
1399582927354094875	1517	1500	1510	1398
1399582927374113188	1515	1507	1509	1397
1399582927404147750	1513	1517	1509	1397
1399582927414006547	1511	1505	1509	1398
1399582927434081105	1502	1500	1509	1398
1399582927449027541	1510	1505	1509	1398
1399582927464047737	1514	1511	1509	1398
1399582927484061280	1511	1508	1509	1398
1399582927499118813	1510	1511	1509	1399
1399582927514062230	1507	1506	1509	1397
1399582927539090499	1510	1508	1509	1399
1399582927559027048	1508	1508	1509	1399
1399582927574077422	1512	1531	1509	1397
1399582927609052850	1509	1517	1508	1399
1399582927638981502	1516	1517	1508	1398
1399582927659067246	1513	1520	1508	1398
1399582927689087361	1517	1514	1508	1398
1399582927704070847	1516	1518	1508	1397
1399582927714004280	1520	1521	1508	1398
1399582927734075995	1520	1509	1508	1399
1399582927749005889	1518	1509	1508	1399
1399582927769015258	1520	1513	1508	1398
1399582927784099540	1525	1513	1508	1398
1399582927799078813	1526	1513	1508	1399
1399582927824085929	1521	1518	1508	1398
1399582927854118842	1524	1519	1508	1398
1399582927874109894	1517	1518	1508	1398
1399582927904148890	1518	1522	1508	1398
1399582927924116021	1520	1521	1508	1398
1399582927949131131	1517	1522	1507	1399
1399582927964092295	1519	1520	1507	1399
1399582927984348864	1520	1515	1507	1399
1399582927999333599	1516	1522	1507	1398
1399582928014396301	1515	1524	1507	1397
1399582928034210396	1514	1527	1507	1397
1399582928054149724	1512	1530	1506	1397
1399582928074370218	1522	1529	1506	1397
1399582928104330680	1519	1519	1506	1397
1399582928114326321	1517	1531	1506	1397
1399582928139423673	1519	1541	1505	1395
1399582928154496242	1516	1538	1505	1396
1399582928174418518	1517	1535	1504	1397
1399582928189345670	1520	1540	1504	1396
1399582928209325767	1512	1532	1504	1396
1399582928239379363	1513	1527	1503	1397
1399582928264402780	1511	1527	1502	1396
1399582928284337113	1510	1523	1502	1397
1399582928299107560	1510	1518	1502	1397
1399582928314440328	1511	1518	1502	1396
1399582928334135530	1500	1524	1501	1395
1399582928359505908	1501	1523	1501	1395
1399582928374348545	1506	1517	1501	1396
1399582928404335163	1498	1517	1501	1396
1399582928424370314	1497	1517	1501	1396
1399582928454335786	1494	1511	1501	1396
1399582928464322270	1494	1511	1502	1397
1399582928484506463	1498	1527	1502	1397
1399582928509482115	1502	1523	1503	1396
1399582928534404425	1498	1520	1503	1397
1399582928549403928	1505	1523	1504	1397
1399582928574380475	1504	1532	1504	1398
1399582928594372920	1500	1522	1505	1398
1399582928609285815	1502	1523	1505	1398
1399582928639407290	1508	1507	1506	1398
1399582928654358279	1498	1515	1506	1399
1399582928674406630	1496	1513	1506	1398
1399582928694346748	1501	1510	1507	1399
1399582928709379956	1500	1501	1507	1398
1399582928734410682	1496	1514	1508	1398
1399582928749429168	1495	1509	1508	1399
1399582928764352994	1497	1512	1508	1399
1399582928789458793	1498	1516	1508	1399
1399582928809391636	1492	1510	1508	1400
1399582928834398923	1503	1530	1508	1399
1399582928854436380	1505	1519	1508	1400
1399582928864180369	1497	1507	1508	1400
1399582928889411173	1493	1531	1508	1400
1399582928909417161	1492	1523	1508	1400
1399582928939485727	1502	1546	1508	1400
1399582928949404570	1500	1539	1508	1400
1399582928964327913	1498	1536	1508	1400
1399582928984417087	1501	1547	1508	1400
1399582928999291069	1499	1546	1508	1400
1399582929014236048	1498	1542	1508	1400
1399582929039362406	1496	1520	1508	1400
1399582929064324071	1501	1520	1508	1400
1399582929089384960	1502	1506	1507	1399
1399582929109364395	1492	1496	1507	1400
1399582929124367429	1494	1513	1507	1398
1399582929154353475	1489	1508	1507	1398
1399582929164467242	1488	1515	1507	1398
1399582929184230393	1496	1508	1507	1397
1399582929199347998	1490	1507	1507	1397
1399582929214112816	1489	1501	1507	1398
1399582929234434266	1493	1507	1507	1397
1399582929259371828	1496	1510	1508	1396
1399582929284388489	1503	1517	1508	1395
1399582929299373649	1495	1525	1508	1394
1399582929324352882	1494	1531	1509	1395
1399582929354436961	1490	1519	1510	1395
1399582929374109512	1500	1524	1511	1394
1399582929394153639	1498	1518	1511	1393
1399582929409142089	1502	1521	1511	1393
1399582929424124111	1501	1514	1512	1393
1399582929439111507	1502	1520	1512	1391
1399582929459137695	1505	1521	1512	1391
1399582929484207793	1506	1509	1513	1392
1399582929504198441	1515	1513	1513	1391
1399582929514106316	1516	1511	1513	1392
1399582929534112007	1501	1503	1513	1392
1399582929554159235	1503	1504	1513	1393
1399582929574139091	1505	1510	1513	1392
1399582929594108776	1505	1498	1513	1392
1399582929609088090	1505	1502	1513	1393
1399582929634143394	1511	1512	1513	1393
1399582929654095810	1511	1513	1513	1393
1399582929669130682	1514	1514	1512	1393
1399582929684151641	1509	1528	1512	1393
1399582929699408424	1515	1531	1512	1393
1399582929719433714	1516	1526	1512	1393
1399582929734450138	1518	1527	1512	1393
1399582929749153358	1516	1525	1512	1394
1399582929764256708	1518	1528	1511	1393
1399582929789442315	1513	1525	1511	1393
1399582929809244940	1513	1535	1511	1393
1399582929824274364	1517	1523	1511	1393
1399582929849411134	1511	1527	1511	1393
1399582929874198020	1514	1523	1511	1394
1399582929904417623	1510	1514	1511	1396
1399582929924460799	1512	1519	1510	1395
1399582929954087277	1507	1527	1510	1395
1399582929974125804	1517	1526	1510	1395
1399582929989076783	1512	1521	1510	1395
1399582930014137821	1519	1531	1510	1394
1399582930039054473	1514	1523	1510	1395
1399582930059065785	1515	1514	1510	1394
1399582930089135534	1527	1529	1509	1395
1399582930109061046	1524	1538	1509	1394
1399582930139118427	1536	1530	1508	1395
1399582930159065999	1529	1527	1508	1397
1399582930174093514	1526	1517	1508	1395
1399582930194079090	1534	1528	1508	1394
1399582930209051472	1532	1532	1508	1395
1399582930224003347	1534	1527	1507	1395
1399582930249106080	1528	1524	1507	1397
1399582930259051034	1525	1518	1507	1398
1399582930289106209	1529	1525	1506	1396
1399582930309100746	1524	1531	1506	1396
1399582930324155348	1529	1533	1506	1395
1399582930354116513	1531	1513	1506	1397
1399582930364033367	1526	1521	1506	1396
1399582930384086833	1528	1533	1506	1396
1399582930399068126	1533	1526	1506	1396
1399582930424078775	1528	1527	1506	1397
1399582930449050991	1525	1519	1506	1398
1399582930464030189	1529	1511	1507	1398
1399582930484053965	1528	1518	1507	1398
1399582930499064679	1534	1520	1507	1398
1399582930514070186	1540	1529	1507	1397
1399582930539089914	1533	1523	1507	1398
1399582930559070880	1532	1522	1508	1398
1399582930589130836	1531	1518	1508	1397
1399582930609087647	1535	1523	1508	1397
1399582930624044221	1532	1517	1508	1398
1399582930649074279	1527	1522	1509	1397
1399582930664117383	1536	1522	1509	1398
1399582930684055859	1535	1513	1509	1398
1399582930699003555	1531	1513	1509	1398
1399582930724079627	1527	1522	1509	1398
1399582930739099775	1534	1518	1510	1398
1399582930764138599	1533	1526	1510	1398
1399582930784070628	1534	1519	1510	1398
1399582930804065185	1539	1524	1510	1398
1399582930824118639	1542	1515	1510	1398
1399582930854114875	1544	1513	1510	1399
1399582930874108515	1541	1517	1510	1399
1399582930894056608	1539	1518	1510	1399
1399582930909105737	1538	1510	1510	1400
1399582930924068140	1524	1509	1510	1399
1399582930944063305	1528	1523	1509	1399
1399582930959090099	1529	1529	1509	1397
1399582930974065714	1531	1532	1509	1398
1399582931009107264	1529	1525	1509	1399
1399582931029118530	1529	1519	1508	1399
1399582931054088866	1524	1516	1508	1399
1399582931064029517	1522	1522	1508	1399
1399582931089086314	1516	1518	1508	1399
1399582931109082957	1510	1508	1507	1400
1399582931134072795	1523	1523	1507	1399
1399582931149097526	1516	1515	1507	1400
1399582931174142318	1519	1518	1507	1399
1399582931189089193	1519	1518	1506	1398
1399582931209077436	1519	1511	1506	1399
1399582931229077087	1515	1522	1506	1399
1399582931244001966	1513	1527	1506	1399
1399582931259105816	1514	1526	1506	1399
1399582931289114154	1508	1531	1506	1399
1399582931309031892	1508	1525	1506	1399
1399582931339104758	1507	1530	1506	1399
1399582931359041387	1506	1538	1506	1398
1399582931374079315	1511	1542	1506	1397
1399582931394103827	1502	1547	1506	1398
1399582931409102088	1504	1540	1506	1398
1399582931434057015	1509	1541	1506	1397
1399582931449020015	1500	1544	1507	1397
1399582931474018742	1504	1537	1507	1398
1399582931489058884	1500	1527	1507	1397
1399582931509076517	1493	1523	1507	1398
1399582931539096730	1506	1537	1507	1397
1399582931554092243	1499	1526	1507	1397
1399582931574106543	1501	1530	1508	1398
1399582931604092714	1498	1528	1508	1398
1399582931619070066	1490	1530	1508	1398
1399582931634056032	1500	1525	1508	1398
1399582931649111577	1499	1528	1509	1398
1399582931664061495	1502	1520	1509	1398
1399582931684091741	1507	1524	1509	1398
1399582931704088881	1506	1523	1509	1398
1399582931714083974	1507	1516	1510	1398
1399582931739090191	1504	1524	1510	1399
1399582931759052064	1509	1521	1511	1398
1399582931774075702	1510	1512	1511	1400
1399582931804092518	1511	1516	1511	1398
1399582931824133893	1504	1511	1512	1399
1399582931854121527	1508	1512	1512	1399
1399582931884145603	1505	1511	1512	1399
1399582931899070869	1498	1507	1513	1399
1399582931914130561	1501	1502	1513	1400
1399582931934096180	1505	1499	1513	1400
1399582931949078622	1516	1509	1513	1398
1399582931974077613	1508	1508	1513	1398
1399582931999063381	1506	1505	1513	1399
1399582932024152008	1513	1499	1513	1399
1399582932044030851	1509	1505	1513	1398
1399582932074104475	1514	1504	1513	1399
1399582932104046081	1517	1505	1513	1399
1399582932114022991	1512	1508	1513	1399
1399582932134056333	1518	1509	1512	1399
1399582932154135708	1520	1507	1512	1398
1399582932174124996	1516	1500	1512	1400
1399582932199128712	1522	1503	1512	1398
1399582932209056920	1521	1506	1512	1400
1399582932234078002	1525	1497	1512	1400
1399582932254096840	1521	1509	1512	1400
1399582932274075642	1527	1500	1512	1401
1399582932304118173	1522	1491	1511	1402
1399582932324111909	1519	1501	1511	1401
1399582932349044239	1527	1502	1511	1401
1399582932364096482	1526	1494	1511	1401
1399582932384100536	1518	1503	1511	1402
1399582932399062369	1523	1511	1511	1401
1399582932414035295	1519	1510	1512	1402
1399582932439101324	1530	1509	1512	1402
1399582932459095182	1523	1511	1512	1402
1399582932474138067	1527	1508	1512	1402
1399582932489050008	1533	1501	1512	1404
1399582932509105950	1531	1494	1512	1404
1399582932534077929	1522	1513	1513	1404
1399582932554090543	1526	1503	1513	1405
1399582932574133751	1528	1502	1513	1404
1399582932599031204	1535	1517	1513	1404
1399582932624048262	1527	1507	1513	1405
1399582932639096940	1531	1508	1513	1405
1399582932664101542	1528	1511	1513	1406
1399582932684080162	1534	1508	1513	1406
1399582932699188904	1535	1513	1513	1406
1399582932724077653	1543	1513	1513	1407
1399582932754111042	1539	1529	1512	1406
1399582932774240396	1551	1523	1512	1407
1399582932804143493	1554	1525	1512	1407
1399582932824119132	1544	1516	1511	1408
1399582932849102344	1543	1516	1511	1408
1399582932874115175	1542	1525	1510	1408
1399582932899122748	1541	1528	1510	1409
1399582932914096541	1538	1528	1509	1409
1399582932934089820	1532	1533	1509	1408
1399582932954366893	1524	1531	1509	1410
1399582932974491434	1518	1524	1509	1409
1399582932999395317	1510	1524	1509	1410
1399582933024398778	1524	1530	1508	1410
1399582933049398383	1523	1529	1508	1410
1399582933064307329	1520	1531	1508	1409
1399582933084484221	1518	1543	1508	1409
1399582933104366346	1518	1537	1508	1408
1399582933114351217	1520	1533	1508	1409
1399582933139341786	1527	1531	1508	1409
1399582933149406184	1518	1526	1508	1410
1399582933164381557	1516	1538	1508	1409
1399582933189438441	1512	1536	1508	1408
1399582933209389870	1510	1544	1508	1407
1399582933234378858	1506	1528	1508	1408
1399582933254219074	1509	1536	1507	1407
1399582933274371468	1501	1535	1507	1406
1399582933304298467	1502	1531	1507	1406
1399582933324459910	1503	1529	1507	1406
1399582933369351687	1508	1522	1507	1406
1399582933384130499	1510	1520	1507	1405
1399582933399168524	1508	1524	1507	1405
1399582933414185098	1508	1519	1507	1405
1399582933434150242	1495	1519	1507	1404
1399582933449177845	1499	1520	1507	1404
1399582933474183390	1499	1514	1507	1404
1399582933494152883	1506	1503	1507	1404
1399582933514145457	1503	1504	1507	1404
1399582933534111830	1497	1507	1507	1404
1399582933554344175	1505	1512	1507	1403
1399582933574144389	1502	1526	1508	1404
1399582933599353982	1505	1506	1508	1404
1399582933609360163	1505	1511	1508	1403
1399582933624383754	1497	1520	1508	1403
1399582933649401330	1508	1511	1508	1403
1399582933659379583	1512	1523	1509	1403
1399582933674133417	1504	1513	1509	1403
1399582933699292035	1512	1502	1509	1403
1399582933724208325	1515	1509	1509	1404
1399582933749312685	1522	1505	1510	1404
1399582933789392323	1526	1505	1511	1404
1399582933809325591	1546	1498	1511	1404
1399582933834306828	1521	1503	1511	1405
1399582933849326090	1540	1498	1512	1404
1399582933864338455	1529	1500	1512	1405
1399582933889288725	1518	1498	1513	1405
1399582933909398028	1520	1485	1514	1405
1399582933924250162	1523	1493	1514	1405
1399582933959201140	1525	1488	1515	1405
1399582933984372447	1528	1478	1515	1406
1399582934004402842	1528	1481	1515	1404
1399582934024486280	1531	1482	1516	1405
1399582934044447086	1526	1482	1516	1406
1399582934059147027	1530	1482	1517	1404
1399582934074312816	1531	1484	1517	1404
1399582934089370337	1526	1493	1517	1404
1399582934109413747	1527	1477	1517	1405
1399582934124362131	1545	1473	1517	1406
1399582934139364734	1540	1484	1517	1405
1399582934164467019	1540	1489	1518	1405
1399582934189307155	1554	1492	1518	1405
1399582934209351176	1557	1497	1518	1406
1399582934224244867	1545	1493	1518	1406
1399582934254424533	1556	1497	1518	1407
1399582934274329724	1546	1486	1517	1406
1399582934299298956	1549	1486	1518	1407
1399582934314227428	1546	1496	1517	1406
1399582934334247406	1543	1494	1518	1407
1399582934359138666	1538	1496	1517	1407
1399582934374105148	1540	1506	1517	1408
1399582934389111040	1532	1492	1517	1408
1399582934409102441	1528	1480	1517	1410
1399582934424172220	1537	1489	1517	1409
1399582934439147988	1540	1508	1517	1408
1399582934489139358	1527	1503	1517	1409
1399582934524165880	1536	1505	1517	1409
1399582934544124510	1530	1504	1517	1409
1399582934559100403	1531	1512	1517	1409
1399582934574117481	1536	1520	1516	1409
1399582934589100363	1532	1517	1516	1409
1399582934609091823	1525	1502	1516	1411
1399582934624159365	1531	1506	1516	1410
1399582934644098980	1529	1522	1516	1409
1399582934659064422	1534	1533	1515	1408
1399582934684468979	1528	1520	1515	1409
1399582934704451962	1532	1524	1515	1408
1399582934724495988	1525	1518	1514	1409
1399582934754386259	1520	1504	1514	1409
1399582934774383605	1517	1512	1514	1409
1399582934799396766	1516	1518	1513	1408
1399582934814279671	1512	1510	1513	1410
1399582934834351837	1508	1503	1513	1410
1399582934849060296	1512	1521	1512	1409
1399582934864345721	1510	1523	1512	1408
1399582934884445940	1507	1518	1512	1408
1399582934899322697	1503	1506	1512	1409
1399582934914389433	1502	1508	1511	1409
1399582934939441082	1501	1520	1511	1408
1399582934959405300	1505	1519	1510	1408
1399582934989447127	1509	1526	1510	1408
1399582935009439047	1502	1531	1510	1408
1399582935024470562	1507	1510	1509	1408
1399582935039416113	1511	1514	1509	1408
1399582935059393351	1504	1521	1509	1407
1399582935074371716	1502	1530	1509	1406
1399582935094161691	1510	1523	1509	1407
1399582935109375841	1512	1518	1509	1407
1399582935124349939	1508	1512	1508	1407
1399582935139315833	1511	1516	1508	1407
1399582935159315694	1507	1522	1508	1407
1399582935194363434	1517	1518	1508	1407
1399582935209315808	1522	1514	1508	1406
1399582935234345913	1514	1513	1508	1406
1399582935249296124	1517	1510	1508	1406
1399582935264404341	1513	1515	1508	1406
1399582935284292103	1518	1513	1507	1405
1399582935299423058	1519	1509	1507	1406
1399582935314404851	1520	1502	1507	1406
1399582935334408424	1518	1508	1507	1406
1399582935359423185	1519	1514	1507	1406
1399582935384485483	1519	1517	1507	1406
1399582935404415756	1517	1510	1507	1406
1399582935414084323	1523	1506	1507	1406
1399582935439151227	1519	1508	1507	1405
1399582935459437900	1523	1503	1507	1406
1399582935474127158	1519	1511	1507	1406
1399582935504195936	1521	1508	1507	1406
1399582935514129274	1522	1512	1507	1405
1399582935539134613	1520	1524	1507	1405
1399582935559153742	1523	1520	1507	1405
1399582935574139098	1523	1518	1507	1404
1399582935589102578	1530	1519	1508	1405
1399582935609134879	1530	1523	1508	1404
1399582935629431456	1524	1514	1508	1404
1399582935654376353	1528	1524	1508	1403
1399582935664427586	1522	1518	1509	1402
1399582935689375581	1537	1512	1509	1403
1399582935724376169	1532	1514	1509	1402
1399582935754393873	1527	1502	1510	1402
1399582935774383302	1537	1511	1510	1401
1399582935789377386	1533	1505	1510	1401
1399582935819397509	1529	1517	1511	1400
1399582935834288325	1531	1515	1511	1400
1399582935849439238	1530	1520	1511	1400
1399582935874136715	1535	1522	1511	1398
1399582935894063784	1536	1519	1512	1398
1399582935909259687	1533	1530	1512	1398
1399582935934278212	1536	1523	1512	1398
1399582935954119134	1521	1525	1512	1398
1399582935974086479	1534	1521	1513	1398
1399582935989099784	1534	1515	1513	1397
1399582936009120302	1533	1516	1513	1398
1399582936024196981	1537	1515	1513	1398
1399582936039082194	1538	1507	1513	1398
1399582936059139810	1540	1502	1513	1398
1399582936074103468	1530	1519	1514	1398
1399582936089091518	1534	1519	1514	1398
1399582936109092667	1527	1528	1514	1397
1399582936134119461	1517	1513	1514	1398
1399582936154148763	1522	1515	1515	1398
1399582936174166373	1528	1519	1515	1398
1399582936204142292	1532	1518	1516	1399
1399582936224133361	1527	1517	1516	1398
1399582936244101004	1527	1521	1516	1398
1399582936259139015	1526	1519	1517	1399
1399582936274123980	1525	1516	1517	1399
1399582936289042529	1521	1515	1517	1399
1399582936309112488	1528	1518	1518	1398
1399582936329160718	1528	1529	1518	1398
1399582936339100346	1528	1533	1518	1397
1399582936359159699	1526	1526	1518	1397
1399582936389145505	1533	1515	1518	1398
1399582936409118821	1530	1510	1518	1399
1399582936439146816	1531	1515	1518	1398
1399582936459122473	1532	1515	1518	1398
1399582936474132274	1529	1512	1518	1399
1399582936494107755	1526	1507	1518	1399
1399582936509119280	1527	1511	1518	1398
1399582936549162081	1530	1513	1517	1399
1399582936574126938	1527	1511	1517	1399
1399582936594162168	1526	1506	1516	1400
1399582936609050334	1523	1511	1516	1401
1399582936634111494	1521	1509	1516	1400
1399582936654134176	1520	1513	1515	1400
1399582936674226282	1522	1512	1515	1401
1399582936689090298	1519	1512	1514	1401
1399582936709174663	1516	1515	1514	1401
1399582936734168557	1518	1513	1513	1402
1399582936759156120	1519	1512	1513	1403
1399582936774150438	1516	1514	1512	1402
1399582936799193898	1518	1515	1511	1403
1399582936814110703	1520	1511	1511	1403
1399582936834259516	1530	1511	1510	1404
1399582936854201607	1531	1518	1510	1403
1399582936864204239	1529	1522	1509	1402
1399582936889110373	1536	1516	1509	1404
1399582936909066313	1537	1514	1509	1404
1399582936934161812	1532	1504	1508	1405
1399582936949168691	1535	1507	1508	1405
1399582936974123767	1530	1512	1508	1404
1399582936989129002	1531	1516	1507	1405
1399582937009122863	1531	1513	1507	1405
1399582937024171292	1524	1511	1507	1406
1399582937039093327	1527	1509	1507	1406
1399582937059085537	1529	1509	1507	1405
1399582937074138771	1530	1514	1507	1404
1399582937094128033	1526	1525	1507	1404
1399582937124179601	1530	1513	1507	1406
1399582937149146056	1526	1525	1508	1405
1399582937174191501	1526	1515	1508	1406
1399582937204223037	1525	1514	1508	1406
1399582937219185835	1531	1523	1509	1406
1399582937234305876	1525	1520	1509	1407
1399582937249151699	1527	1512	1510	1407
1399582937269208517	1532	1515	1510	1407
1399582937284160925	1535	1525	1511	1407
1399582937299162271	1533	1536	1511	1406
1399582937324145956	1528	1520	1511	1407
1399582937344161223	1529	1520	1511	1407
1399582937359072449	1530	1530	1512	1407
1399582937389159924	1528	1512	1512	1408
1399582937409085888	1525	1505	1512	1408
1399582937439118242	1528	1513	1512	1407
1399582937459166879	1529	1519	1513	1406
1399582937474163457	1528	1536	1513	1406
1399582937489171281	1525	1527	1513	1407
1399582937509115876	1521	1511	1513	1408
1399582937539155669	1522	1516	1513	1407
1399582937559083749	1518	1529	1513	1405
1399582937579111370	1529	1540	1513	1404
1399582937604105252	1524	1529	1513	1405
1399582937624184966	1525	1524	1513	1405
1399582937644153508	1523	1522	1513	1405
1399582937659095353	1526	1530	1513	1404
1399582937689126763	1525	1522	1514	1405
1399582937699143782	1525	1533	1514	1404
1399582937724149847	1523	1525	1514	1404
1399582937749107869	1522	1522	1514	1404
1399582937769118616	1527	1516	1514	1404
1399582937784162765	1527	1519	1514	1403
1399582937799175035	1525	1533	1514	1402
1399582937824145754	1528	1527	1514	1403
1399582937854171881	1529	1516	1514	1404
1399582937874204755	1525	1528	1514	1403
1399582937904133148	1523	1533	1514	1403
1399582937924152788	1524	1528	1514	1403
1399582937949090337	1521	1525	1515	1403
1399582937974073799	1519	1531	1515	1403
1399582937989046651	1517	1522	1515	1403
1399582938009077784	1513	1515	1515	1404
1399582938024078666	1518	1523	1515	1403
1399582938044095138	1521	1533	1515	1402
1399582938059057357	1520	1531	1515	1403
1399582938074113476	1520	1516	1515	1404
1399582938099068619	1520	1531	1515	1403
1399582938124160132	1514	1531	1515	1403
1399582938159107335	1512	1519	1514	1404
1399582938189129593	1522	1525	1514	1404
1399582938199083520	1523	1533	1514	1403
1399582938214078623	1521	1523	1514	1404
1399582938239038096	1523	1528	1513	1402
1399582938259111126	1522	1519	1513	1403
1399582938279089928	1515	1503	1513	1403
1399582938304089318	1522	1509	1513	1402
1399582938324176350	1520	1508	1513	1402
1399582938344060283	1521	1510	1513	1401
1399582938359016844	1522	1500	1513	1401
1399582938389161225	1519	1513	1513	1400
1399582938409114693	1517	1513	1513	1399
1399582938434083524	1511	1504	1513	1401
1399582938449013182	1517	1507	1513	1400
1399582938464045677	1521	1520	1513	1399
1399582938484163148	1523	1517	1513	1398
1399582938499076843	1517	1511	1512	1399
1399582938524154565	1518	1516	1512	1398
1399582938554125464	1510	1495	1512	1400
1399582938564041638	1513	1509	1512	1398
1399582938589115499	1508	1507	1512	1398
1399582938609066585	1505	1505	1512	1399
1399582938624102732	1517	1518	1512	1399
1399582938654082139	1518	1507	1512	1399
1399582938664022062	1514	1513	1512	1399
1399582938684084889	1517	1520	1512	1399
1399582938704061963	1515	1512	1512	1399
1399582938724092526	1514	1514	1512	1399
1399582938749129982	1513	1514	1511	1399
1399582938764008249	1518	1520	1511	1399
1399582938789108051	1515	1509	1511	1399
1399582938809108178	1514	1511	1510	1400
1399582938839096495	1517	1510	1510	1400
1399582938859091187	1518	1515	1510	1399
1399582938889088672	1512	1508	1509	1399
1399582938909100402	1514	1507	1509	1400
1399582938924090530	1511	1505	1509	1400
1399582938944075389	1510	1514	1508	1399
1399582938959050325	1507	1515	1508	1399
1399582938974134515	1502	1515	1508	1399
1399582938989085629	1503	1506	1508	1400
1399582939009068732	1502	1503	1507	1400
1399582939024121553	1506	1514	1507	1400
1399582939039093742	1511	1520	1507	1399
1399582939059084413	1511	1518	1507	1399
1399582939084065011	1511	1516	1507	1399
1399582939104056590	1505	1521	1506	1398
1399582939124210320	1506	1517	1506	1399
1399582939144142136	1504	1518	1506	1398
1399582939158998808	1508	1525	1506	1398
1399582939174129041	1515	1523	1506	1398
1399582939194096484	1512	1518	1506	1399
1399582939219012086	1507	1515	1506	1399
1399582939234113383	1505	1518	1506	1398
1399582939249079284	1513	1518	1505	1398
1399582939264075635	1510	1523	1505	1398
1399582939289090500	1516	1509	1505	1399
1399582939309112507	1516	1509	1505	1399
1399582939324085157	1517	1517	1505	1399
1399582939354080669	1518	1507	1505	1401
1399582939374122546	1512	1513	1505	1400
1399582939404108863	1513	1512	1505	1401
1399582939424095817	1508	1513	1505	1401
1399582939459020133	1512	1505	1506	1402
1399582939484056946	1512	1517	1506	1401
1399582939499070494	1510	1509	1506	1402
1399582939514030648	1504	1506	1506	1402
1399582939539064852	1511	1510	1507	1402
1399582939559068202	1510	1516	1507	1401
1399582939589069749	1514	1508	1508	1403
1399582939609077064	1518	1499	1508	1404
1399582939639100133	1514	1509	1509	1403
1399582939659048818	1513	1504	1509	1404
1399582939674067140	1518	1510	1509	1403
1399582939704105525	1517	1506	1510	1405
1399582939713967531	1512	1504	1510	1405
1399582939734100767	1516	1505	1511	1405
1399582939749065166	1516	1511	1511	1404
1399582939774115108	1521	1510	1512	1405
1399582939789040222	1522	1504	1512	1406
1399582939809063939	1521	1514	1512	1404
1399582939824112288	1519	1523	1512	1404
1399582939854096892	1516	1500	1512	1406
1399582939874084927	1518	1509	1513	1405
1399582939889013601	1514	1497	1513	1407
1399582939909067147	1519	1504	1513	1406
1399582939934091059	1519	1500	1513	1407
1399582939949053607	1521	1502	1513	1406
1399582939964094672	1522	1518	1513	1406
1399582939989000270	1516	1504	1512	1407
1399582940009141878	1520	1510	1512	1406
1399582940024106310	1518	1511	1512	1406
1399582940054087397	1516	1514	1512	1407
1399582940064098829	1515	1513	1512	1406
1399582940089098894	1520	1512	1511	1406
1399582940109088115	1521	1517	1511	1406
1399582940139077868	1518	1511	1510	1406
1399582940169147775	1519	1523	1510	1406
1399582940184081212	1524	1532	1510	1405
1399582940199085335	1521	1525	1509	1406
1399582940224095382	1525	1532	1509	1404
1399582940239070643	1524	1531	1509	1404
1399582940264086694	1527	1519	1509	1405
1399582940289118996	1518	1517	1509	1404
1399582940309051808	1517	1511	1508	1404
1399582940339074276	1524	1518	1508	1404
1399582940354087030	1521	1520	1508	1404
1399582940374056992	1521	1525	1508	1404
1399582940404110204	1523	1523	1508	1403
1399582940414023516	1521	1527	1508	1403
1399582940434076888	1518	1533	1508	1403
1399582940449121104	1523	1529	1508	1402
1399582940464027257	1522	1522	1508	1403
1399582940504055023	1513	1526	1508	1403
1399582940524175592	1516	1528	1508	1403
1399582940554123089	1517	1530	1508	1403
1399582940564046437	1516	1527	1508	1403
1399582940589067975	1520	1530	1508	1403
1399582940609009087	1519	1533	1508	1402
1399582940634106873	1515	1523	1508	1403
1399582940649038134	1516	1525	1508	1403
1399582940674117455	1517	1524	1508	1402
1399582940689063585	1516	1519	1508	1403
1399582940709098615	1514	1517	1508	1403
1399582940729124615	1513	1521	1508	1401
1399582940744063590	1515	1525	1507	1401
1399582940759092372	1519	1524	1507	1401
1399582940774100497	1517	1520	1507	1401
1399582940799038896	1516	1524	1507	1400
1399582940824116929	1516	1522	1507	1400
1399582940854066183	1520	1518	1508	1400
1399582940869003587	1512	1523	1507	1399
1399582940884106288	1514	1520	1508	1400
1399582940899053540	1517	1513	1508	1400
1399582940924138429	1522	1517	1508	1399
1399582940939056016	1525	1515	1508	1399
1399582940964125225	1525	1512	1508	1400
1399582940984087064	1524	1519	1509	1399
1399582940999012079	1530	1522	1509	1398
1399582941024138361	1530	1519	1509	1399
1399582941054191407	1529	1516	1510	1399
1399582941074182099	1532	1515	1510	1399
1399582941104186488	1528	1513	1511	1399
1399582941124072901	1525	1510	1512	1399
1399582941154031441	1526	1508	1512	1398
1399582941164077388	1527	1502	1513	1399
1399582941184039012	1523	1505	1513	1399
1399582941204085196	1523	1509	1513	1398
1399582941214078547	1527	1514	1513	1398
1399582941239059983	1528	1513	1514	1398
1399582941259106032	1531	1513	1514	1398
1399582941279106596	1528	1512	1515	1398
1399582941304100638	1542	1510	1515	1398
1399582941324200353	1532	1505	1516	1399
1399582941354073273	1530	1505	1516	1398
1399582941374046418	1534	1503	1517	1398
1399582941394139300	1533	1497	1517	1399
1399582941409109745	1531	1503	1518	1399
1399582941424076193	1534	1515	1518	1399
1399582941444033573	1532	1513	1519	1399
1399582941459037090	1534	1508	1519	1400
1399582941494064132	1532	1504	1520	1401
1399582941509119931	1529	1505	1520	1401
1399582941539116800	1528	1499	1521	1401
1399582941559038896	1528	1504	1521	1402
1399582941574025956	1528	1507	1521	1402
1399582941604102143	1526	1506	1522	1403
1399582941614054060	1524	1501	1522	1403
1399582941634099478	1529	1503	1523	1403
1399582941654017328	1525	1508	1523	1403
1399582941669095932	1527	1506	1523	1404
1399582941684052462	1526	1507	1523	1405
1399582941699123509	1526	1505	1523	1404
1399582941724143797	1530	1504	1523	1405
1399582941744078012	1527	1504	1523	1406
1399582941759095029	1530	1504	1523	1405
1399582941789020465	1522	1506	1523	1406
1399582941809012963	1522	1506	1523	1406
1399582941839083802	1526	1512	1522	1407
1399582941859061920	1528	1520	1522	1407
1399582941874057808	1526	1513	1522	1408
1399582941889027997	1523	1506	1522	1408
1399582941909099159	1527	1512	1521	1408
1399582941924129862	1524	1521	1521	1408
1399582941939084907	1524	1512	1520	1408
1399582941959010370	1523	1506	1520	1410
1399582941974108142	1523	1503	1520	1409
1399582942004095444	1525	1505	1519	1409
1399582942024193432	1534	1508	1519	1409
1399582942054141742	1537	1520	1518	1408
1399582942074071922	1534	1521	1517	1409
1399582942104092036	1530	1514	1517	1409
1399582942119107129	1532	1527	1516	1409
1399582942134034109	1535	1517	1516	1409
1399582942149136946	1531	1511	1516	1410
1399582942164113774	1533	1517	1516	1409
1399582942184102027	1541	1525	1515	1408
1399582942199002812	1543	1526	1515	1407
1399582942224065358	1533	1525	1515	1408
1399582942254091919	1536	1526	1515	1408
1399582942274111066	1541	1521	1514	1407
1399582942304104323	1538	1511	1514	1407
1399582942324092577	1544	1523	1514	1407
1399582942344101203	1543	1524	1514	1406
1399582942359025861	1535	1534	1514	1405
1399582942374117044	1546	1526	1514	1406
1399582942389080211	1539	1517	1513	1407
1399582942409106619	1537	1514	1514	1407
1399582942449091487	1541	1522	1513	1406
1399582942459038409	1546	1523	1513	1405
1399582942489103756	1536	1520	1513	1405
1399582942509055845	1539	1519	1513	1406
1399582942539057505	1544	1519	1513	1405
1399582942559135126	1536	1518	1513	1405
1399582942574130199	1534	1509	1513	1405
1399582942589044728	1536	1510	1513	1404
1399582942609066291	1534	1522	1513	1404
1399582942624132351	1543	1532	1513	1403
1399582942659096974	1539	1522	1513	1403
1399582942674103199	1534	1511	1513	1402
1399582942689103650	1538	1520	1513	1402
1399582942709098625	1542	1529	1513	1401
1399582942739114356	1530	1520	1512	1401
1399582942754064601	1529	1525	1512	1401
1399582942774035015	1532	1524	1512	1400
1399582942804115254	1527	1518	1512	1401
1399582942824111750	1523	1521	1512	1400
1399582942839038645	1522	1522	1512	1400
1399582942859044683	1519	1526	1511	1400
1399582942874133081	1528	1515	1511	1401
1399582942889090322	1529	1509	1511	1402
1399582942909064753	1526	1513	1511	1401
1399582942924108287	1519	1520	1511	1401
1399582942949462007	1521	1516	1510	1403
1399582942964231357	1521	1512	1510	1403
1399582942989393572	1515	1524	1510	1403
1399582943014395025	1515	1522	1510	1404
1399582943039462259	1510	1525	1509	1404
1399582943059494501	1512	1527	1509	1404
1399582943084383982	1522	1540	1509	1403
1399582943099352051	1514	1536	1509	1404
1399582943114326296	1515	1528	1509	1405
1399582943134131868	1515	1513	1509	1406
1399582943149370135	1505	1520	1509	1407
1399582943164335333	1508	1521	1509	1406
1399582943189324529	1508	1521	1509	1406
1399582943209401234	1499	1512	1509	1406
1399582943239387765	1503	1523	1509	1406
1399582943259257349	1501	1521	1509	1406
1399582943289462471	1494	1515	1509	1407
1399582943309325236	1507	1513	1510	1407
1399582943334465503	1486	1514	1510	1408
1399582943349375326	1490	1528	1510	1407
1399582943364350107	1491	1527	1510	1406
1399582943389331243	1484	1522	1510	1408
1399582943409456359	1494	1530	1511	1407
1399582943424420632	1492	1529	1511	1407
1399582943444381292	1490	1530	1511	1406
1399582943459176566	1488	1524	1511	1407
1399582943489485390	1495	1526	1511	1407
1399582943509353650	1498	1520	1512	1406
1399582943534353088	1491	1535	1512	1406
1399582943549405966	1486	1530	1512	1407
1399582943564313712	1484	1512	1512	1408
1399582943584419476	1487	1529	1512	1407
1399582943599466523	1490	1530	1513	1407
1399582943614346965	1493	1521	1512	1407
1399582943634420701	1490	1503	1513	1408
1399582943649329936	1488	1500	1513	1408
1399582943664226439	1500	1510	1513	1408
1399582943689434398	1494	1516	1512	1407
1399582943709370863	1501	1502	1512	1408
1399582943739191202	1487	1525	1512	1407
1399582943759399009	1703	1518	1512	1407
1399582943774287574	1513	1528	1512	1407
1399582943794436756	1511	1526	1512	1407
1399582943809397653	1510	1523	1512	1407
1399582943824394619	1515	1513	1511	1407
1399582943839396561	1516	1523	1511	1407
1399582943859514647	1467	1521	1511	1406
1399582943874320926	1522	1519	1511	1406
1399582943889366379	1518	1513	1510	1407
1399582943909401180	1523	1517	1510	1407
1399582943934177761	1520	1514	1510	1408
1399582943949373104	1520	1508	1509	1408
1399582943974112610	1477	1520	1509	1407
1399582943989098474	1518	1511	1508	1408
1399582944009127277	1524	1512	1508	1408
1399582944034123712	1521	1520	1507	1407
1399582944059090147	1522	1520	1507	1407
1399582944074219207	1521	1520	1506	1407
1399582944099165218	1520	1522	1506	1407
1399582944114138158	1521	1526	1505	1406
1399582944134403421	1522	1525	1504	1407
1399582944154420763	1523	1517	1504	1408
1399582944164300732	1521	1511	1504	1408
1399582944189407339	1524	1523	1503	1407
1399582944209176559	1526	1520	1503	1407
1399582944224396381	1527	1512	1503	1407
1399582944254424398	1530	1528	1502	1405
1399582944274405634	1444	1522	1502	1406
1399582944299448715	1533	1513	1502	1406
1399582944314280173	1533	1511	1502	1406
1399582944334408563	1531	1510	1502	1406
1399582944349413612	1530	1507	1502	1406
1399582944364357890	1342	1519	1502	1406
1399582944389443394	1530	1512	1502	1405
1399582944409488980	1530	1510	1502	1406
1399582944424428857	1527	1509	1502	1405
1399582944454357993	1532	1523	1502	1404
1399582944474131309	1420	1519	1502	1403
1399582944504228959	1521	1513	1502	1402
1399582944524207954	1547	1519	1502	1400
1399582944544048506	1551	1517	1502	1399
1399582944559163689	1560	1535	1502	1397
1399582944574190193	1595	1547	1502	1396
1399582944589138316	1601	1544	1502	1395
1399582944609415225	1607	1532	1503	1396
1399582944624227764	1561	1505	1503	1395
1399582944644389570	1564	1518	1503	1393
1399582944659174864	1568	1518	1503	1393
1399582944684378696	1547	1505	1503	1393
1399582944704473644	1541	1511	1503	1392
1399582944724558690	1519	1507	1504	1392
1399582944754483723	1516	1508	1504	1392
1399582944774403553	1549	1513	1504	1392
1399582944804413827	1548	1513	1505	1393
1399582944814387587	1549	1518	1506	1393
1399582944834329400	1544	1521	1506	1393
1399582944854361759	1543	1522	1506	1393
1399582944864291163	1336	1536	1507	1392
1399582944889361037	1560	1517	1507	1395
1399582944909358292	1564	1512	1508	1395
1399582944934350916	1563	1510	1508	1396
1399582944954105138	1564	1526	1509	1397
1399582944974076075	1408	1519	1509	1396
1399582945004128329	1565	1501	1510	1398
1399582945014046816	1566	1504	1511	1399
1399582945039095757	1561	1511	1511	1397
1399582945059047345	1556	1506	1511	1399
1399582945074138041	1548	1509	1512	1399
1399582945089039853	1546	1509	1512	1399
1399582945109076198	1536	1509	1513	1399
1399582945124061077	1528	1525	1513	1399
1399582945149113888	1530	1514	1514	1399
1399582945174145497	1357	1518	1514	1400
1399582945199048398	1521	1517	1514	1399
1399582945224120347	1548	1516	1515	1400
1399582945254007286	1537	1515	1515	1401
1399582945274099340	1379	1510	1515	1400
1399582945299074473	1541	1515	1516	1400
1399582945314014110	1542	1515	1516	1401
1399582945334093797	1541	1511	1516	1402
1399582945359116025	1535	1518	1516	1401
1399582945374092006	1531	1517	1516	1401
1399582945404086697	1521	1519	1516	1401
1399582945424129749	1521	1517	1516	1402
1399582945444097925	1522	1515	1516	1403
1399582945459065239	1521	1519	1516	1403
1399582945489041546	1514	1519	1515	1403
1399582945508997448	1515	1522	1515	1403
1399582945524116060	1515	1513	1515	1404
1399582945539028099	1508	1514	1514	1404
1399582945559054837	1504	1513	1514	1405
1399582945574135461	1506	1514	1514	1405
1399582945589101685	1503	1508	1514	1406
1399582945609031079	1506	1510	1514	1406
1399582945639024557	1504	1517	1513	1406
1399582945664052021	1336	1509	1513	1407
1399582945689051156	1503	1517	1513	1408
1399582945709047222	1499	1515	1513	1407
1399582945739074576	1488	1515	1513	1409
1399582945749003232	1481	1511	1513	1409
1399582945764052793	1336	1522	1513	1408
1399582945784106945	1486	1526	1513	1408
1399582945799046169	1481	1525	1513	1408
1399582945824085105	1482	1520	1513	1410
1399582945844048030	1483	1527	1513	1409
1399582945864035853	1336	1522	1513	1410
1399582945889088011	1490	1513	1513	1411
1399582945909036777	1488	1504	1513	1412
1399582945924119228	1480	1517	1512	1410
1399582945954106697	1491	1512	1512	1412
1399582945974049407	1372	1518	1512	1412
1399582945999140145	1495	1515	1512	1411
1399582946024094808	1490	1515	1512	1411
1399582946059108036	1497	1509	1512	1412
1399582946074116155	1519	1509	1512	1411
1399582946099119082	1526	1511	1512	1410
1399582946109058257	1525	1519	1512	1410
1399582946134073980	1540	1506	1512	1410
1399582946154070472	1538	1517	1512	1409
1399582946174094895	1427	1515	1512	1409
1399582946204141367	1524	1506	1513	1410
1399582946224078179	1541	1511	1513	1409
1399582946254055958	1548	1516	1513	1408
1399582946284127349	1466	1509	1513	1408
1399582946299100748	1530	1502	1514	1409
1399582946314061374	1529	1500	1514	1409
1399582946334017939	1536	1496	1514	1409
1399582946354068761	1537	1507	1515	1408
1399582946374112318	1449	1499	1515	1408
1399582946404107751	1530	1489	1515	1408
1399582946424108938	1551	1499	1516	1409
1399582946444109558	1542	1502	1516	1408
1399582946459063722	1435	1495	1516	1409
1399582946489099315	1549	1502	1516	1408
1399582946509075551	1553	1506	1516	1408
1399582946524040391	1558	1509	1516	1408
1399582946539074286	1551	1500	1516	1408
1399582946559075564	1461	1501	1517	1407
1399582946574134752	1566	1502	1517	1408
1399582946594066319	1568	1508	1517	1407
1399582946624095350	1562	1501	1517	1407
1399582946659097374	1537	1504	1517	1407
1399582946689143977	1570	1496	1517	1407
1399582946714050042	1571	1507	1517	1405
1399582946734048826	1557	1499	1517	1406
1399582946754058318	1560	1491	1517	1407
1399582946764079516	1532	1483	1517	1407
1399582946784057974	1566	1492	1517	1406
1399582946804074575	1565	1504	1517	1405
1399582946824099253	1555	1502	1517	1405
1399582946844082409	1546	1496	1517	1405
1399582946859053468	1560	1517	1517	1404
1399582946889049712	1553	1503	1517	1404
1399582946909087887	1549	1502	1517	1404
1399582946939087910	1543	1510	1517	1403
1399582946959063491	1545	1509	1517	1403
1399582946974125979	1542	1512	1516	1402
1399582946989087044	1548	1512	1517	1402
1399582947009094143	1542	1512	1517	1402
1399582947024064693	1542	1505	1517	1402
1399582947039045556	1537	1506	1516	1402
1399582947059045163	1540	1505	1516	1401
1399582947079112685	1533	1500	1516	1402
1399582947104107426	1534	1514	1516	1401
1399582947124082380	1532	1510	1516	1401
1399582947154134481	1524	1505	1516	1401
1399582947174062660	1522	1503	1516	1401
1399582947189105919	1520	1503	1515	1401
1399582947209082282	1515	1502	1515	1400
1399582947239084635	1513	1501	1515	1400
1399582947259051976	1510	1505	1515	1400
1399582947274110771	1511	1510	1515	1400
1399582947289091056	1512	1507	1515	1400
1399582947314024191	1510	1498	1515	1401
1399582947339066095	1506	1506	1515	1400
1399582947359078089	1504	1501	1514	1400
1399582947374079333	1504	1511	1515	1400
1399582947404056891	1503	1493	1514	1401
1399582947424115703	1508	1500	1515	1401
1399582947454099779	1510	1497	1514	1401
1399582947464007256	1693	1505	1515	1401
1399582947484060426	1497	1504	1514	1399
1399582947509115314	1503	1502	1515	1401
1399582947524119811	1494	1512	1515	1400
1399582947539086896	1485	1507	1515	1401
1399582947559113786	1489	1504	1515	1400
1399582947589137926	1493	1507	1515	1401
1399582947609081406	1489	1500	1515	1401
1399582947639083368	1495	1502	1515	1400
1399582947659048484	1492	1503	1515	1401
1399582947684085747	1495	1492	1515	1401
1399582947699101720	1501	1495	1515	1402
1399582947714079608	1500	1498	1515	1402
1399582947739102052	1511	1496	1515	1402
1399582947759070390	1507	1487	1515	1403
1399582947784116790	1514	1495	1515	1402
1399582947804115251	1521	1494	1515	1403
1399582947824030133	1512	1502	1515	1402
1399582947844059582	1514	1507	1515	1403
1399582947859039005	1520	1501	1515	1403
1399582947874045163	1521	1506	1515	1404
1399582947904115780	1521	1508	1515	1404
1399582947924154408	1521	1504	1515	1404
1399582947969479870	1616	1519	1515	1404
1399582947989404878	1522	1523	1515	1405
1399582948009403310	1523	1524	1515	1405
1399582948024378965	1523	1516	1515	1405
1399582948039425956	1522	1515	1515	1405
1399582948059429913	1521	1515	1515	1405
1399582948079238434	1521	1516	1515	1405
1399582948104120345	1528	1520	1515	1406
1399582948124469972	1507	1512	1516	1405
1399582948149360443	1506	1529	1515	1404
1399582948189324116	1477	1524	1516	1404
1399582948209395579	1476	1530	1516	1405
1399582948224375544	1494	1526	1516	1405
1399582948244255178	1503	1530	1516	1404
1399582948264187065	1703	1543	1516	1404
1399582948284409400	1506	1529	1516	1405
1399582948299169296	1508	1546	1516	1405
1399582948324133514	1501	1528	1516	1404
1399582948344300827	1510	1542	1515	1404
1399582948359185493	1507	1539	1516	1404
1399582948389354416	1498	1535	1516	1403
1399582948409449137	1492	1535	1516	1403
1399582948434405949	1464	1530	1516	1402
1399582948449405462	1462	1527	1515	1404
1399582948464295100	1447	1535	1515	1401
1399582948484447133	1401	1538	1515	1401
1399582948509376515	1366	1524	1514	1402
1399582948524168444	1336	1527	1514	1400
1399582948539342995	1336	1526	1513	1399
1399582948559391242	1336	1514	1513	1401
1399582948579427229	1342	1512	1512	1400
1399582948604384743	1336	1515	1512	1399
1399582948614405593	1336	1505	1512	1400
1399582948654415516	1387	1514	1512	1399
1399582948674399036	1546	1531	1512	1398
1399582948689365065	1394	1527	1512	1399
1399582948709372360	1392	1538	1512	1397
1399582948734365674	1465	1544	1511	1398
1399582948749066604	1472	1545	1511	1399
1399582948764384765	1703	1555	1511	1397
1399582948789408837	1435	1543	1510	1398
1399582948809373119	1440	1541	1510	1399
1399582948829433023	1390	1537	1510	1399
1399582948849255133	1392	1528	1509	1401
1399582948874444056	1416	1540	1509	1401
1399582948904440380	1419	1550	1508	1401
1399582948924280308	1400	1535	1508	1402
1399582948949361806	1411	1534	1508	1402
1399582948974332781	1547	1533	1508	1402
1399582948989351764	1416	1533	1508	1403
1399582949014458627	1429	1537	1508	1403
1399582949039387564	1442	1534	1508	1403
1399582949059282288	1703	1537	1508	1402
1399582949094325759	1471	1528	1509	1404
1399582949109098779	1485	1535	1509	1403
1399582949134283775	1504	1525	1509	1404
1399582949149372985	1514	1525	1510	1405
1399582949164394504	1515	1531	1510	1405
1399582949189360164	1531	1533	1510	1406
1399582949209160578	1547	1532	1511	1405
1399582949224105449	1552	1545	1511	1405
1399582949249315775	1564	1540	1511	1406
1399582949274117445	1563	1541	1511	1405
1399582949289093446	1572	1539	1512	1406
1399582949309109512	1583	1539	1512	1406
1399582949324084553	1591	1524	1512	1407
1399582949344260041	1595	1532	1512	1406
1399582949359126554	1600	1534	1513	1405
1399582949389138292	1587	1533	1513	1405
1399582949409155708	1592	1536	1513	1404
1399582949434437028	1618	1525	1513	1404
1399582949449312127	1621	1524	1513	1405
1399582949464340178	1622	1525	1513	1404
1399582949489140061	1605	1514	1513	1404
1399582949509371921	1596	1513	1513	1404
1399582949524209771	1619	1526	1513	1403
1399582949544430103	1620	1525	1513	1404
1399582949559179449	1703	1517	1513	1405
1399582949589470202	1626	1517	1513	1404
1399582949624180092	1621	1512	1513	1405
1399582949644141954	1611	1511	1513	1404
1399582949659143396	1612	1515	1513	1405
1399582949674123171	1576	1508	1513	1405
