#Time	 Roll 	 Pitch 	 Yaw 	 Thrust
1399875089311779880	1523	1509	1513	1378
1399875089321754574	1518	1509	1513	1378
1399875089326726758	1523	1507	1513	1378
1399875089341784964	1520	1509	1513	1378
1399875089356824612	1520	1510	1513	1378
1399875089361774880	1520	1508	1513	1379
1399875089371877109	1522	1509	1513	1378
1399875089376883102	1519	1510	1513	1378
1399875089391835423	1521	1508	1513	1378
1399875089406912411	1523	1512	1513	1378
1399875089411731964	1520	1510	1513	1380
1399875089421844876	1521	1507	1513	1380
1399875089426717307	1521	1510	1513	1380
1399875089436847920	1520	1508	1513	1381
1399875089441800281	1521	1512	1513	1380
1399875089451778197	1522	1506	1513	1381
1399875089461726771	1520	1509	1513	1380
1399875089466794776	1523	1508	1513	1380
1399875089476835854	1518	1509	1513	1380
1399875089486801924	1522	1507	1513	1380
1399875089496873426	1523	1511	1513	1380
1399875089506838136	1521	1508	1513	1381
1399875089511705751	1519	1510	1513	1382
1399875089521794753	1520	1508	1513	1382
1399875089526775834	1521	1510	1513	1382
1399875089541844488	1521	1508	1513	1382
1399875089556822739	1521	1513	1513	1383
1399875089561741361	1520	1509	1513	1382
1399875089571861724	1523	1508	1513	1383
1399875089576826316	1520	1510	1513	1382
1399875089591862549	1519	1506	1513	1382
1399875089596807494	1522	1512	1513	1382
1399875089606950981	1521	1508	1513	1382
1399875089611790941	1519	1511	1513	1382
1399875089621726629	1523	1511	1513	1384
1399875089626820295	1524	1506	1513	1385
1399875089641855096	1520	1508	1513	1384
1399875089656870688	1522	1510	1513	1384
1399875089661823925	1521	1507	1513	1384
1399875089671827325	1526	1507	1513	1385
1399875089676667489	1521	1512	1513	1384
1399875089686794892	1519	1510	1513	1384
1399875089691707833	1523	1507	1513	1384
1399875089701749706	1520	1513	1513	1384
1399875089711678456	1522	1505	1513	1386
1399875089716690655	1524	1512	1513	1386
1399875089726795839	1518	1509	1513	1386
1399875089741833865	1520	1508	1513	1386
1399875089756864564	1522	1507	1513	1387
1399875089761793927	1520	1510	1513	1386
1399875089771839266	1519	1509	1513	1386
1399875089776716705	1527	1508	1513	1387
1399875089791808950	1522	1509	1513	1386
1399875089806824986	1519	1509	1513	1387
1399875089811817242	1523	1506	1513	1388
1399875089821929115	1523	1509	1513	1389
1399875089826820896	1523	1511	1513	1388
1399875089841825079	1522	1506	1513	1389
1399875089846792382	1523	1509	1513	1388
1399875089856860421	1521	1508	1513	1389
1399875089861835117	1516	1509	1513	1388
1399875089871829691	1527	1507	1513	1389
1399875089876819993	1521	1508	1513	1389
1399875089891851480	1519	1509	1513	1389
1399875089896787819	1523	1510	1513	1388
1399875089907005286	1522	1510	1513	1389
1399875089911785918	1518	1509	1513	1391
1399875089921733194	1522	1505	1513	1391
1399875089926957169	1521	1508	1513	1390
1399875089936738970	1522	1507	1513	1391
1399875089941697326	1517	1507	1513	1390
1399875089951793597	1523	1504	1513	1392
1399875089961809372	1520	1511	1513	1390
1399875089966749623	1522	1500	1513	1392
1399875089976736624	1522	1517	1513	1390
1399875089991811409	1523	1508	1513	1391
1399875090001734027	1520	1508	1513	1393
1399875090011732811	1523	1514	1513	1393
1399875090026936395	1523	1509	1513	1393
1399875090041884354	1522	1506	1513	1393
1399875090056791769	1521	1501	1513	1395
1399875090061777360	1523	1510	1513	1392
1399875090076468595	1522	1506	1513	1394
1399875090091819688	1521	1500	1513	1394
1399875090096609835	1521	1514	1513	1393
1399875090106684954	1518	1502	1513	1394
1399875090111634985	1523	1508	1513	1396
1399875090116737378	1522	1503	1513	1396
1399875090136823383	1520	1509	1513	1395
1399875090146794352	1522	1504	1513	1397
1399875090156887119	1522	1511	1513	1395
1399875090161888833	1525	1503	1513	1396
1399875090171856520	1517	1515	1513	1395
1399875090176844134	1525	1501	1513	1397
1399875090186739597	1521	1516	1513	1395
1399875090196779063	1520	1503	1513	1396
1399875090201722765	1524	1511	1513	1396
1399875090211774238	1520	1505	1513	1398
1399875090226905837	1520	1509	1513	1398
1399875090241809818	1520	1510	1513	1398
1399875090246737945	1521	1508	1513	1398
1399875090251680658	1522	1505	1513	1398
1399875090261815664	1521	1510	1513	1398
1399875090276771209	1523	1505	1513	1398
1399875090291732899	1519	1506	1513	1399
1399875090296739634	1522	1505	1513	1398
1399875090306832046	1523	1505	1513	1399
1399875090311734695	1519	1509	1513	1400
1399875090326813418	1520	1504	1513	1401
1399875090341758445	1525	1507	1513	1400
1399875090346764856	1513	1506	1513	1401
1399875090361753189	1522	1506	1513	1400
1399875090366713371	1518	1507	1513	1400
1399875090386807095	1523	1505	1513	1401
1399875090396804908	1522	1507	1513	1401
1399875090406743238	1517	1505	1513	1401
1399875090421810501	1520	1506	1513	1403
1399875090426804898	1525	1508	1513	1403
1399875090436807567	1516	1504	1513	1403
1399875090446879901	1522	1506	1513	1403
1399875090451710166	1516	1502	1513	1404
1399875090461941503	1522	1507	1513	1403
1399875090471923876	1518	1503	1513	1404
1399875090476753145	1520	1509	1513	1403
1399875090491884473	1521	1505	1513	1404
1399875090506811814	1519	1510	1513	1403
1399875090511885458	1519	1503	1513	1406
1399875090521807704	1524	1507	1513	1405
1399875090526809909	1520	1500	1513	1406
1399875090541829527	1521	1507	1513	1405
1399875090556921037	1518	1508	1513	1405
1399875090561810930	1524	1506	1513	1406
1399875090571769944	1520	1505	1513	1406
1399875090576753780	1518	1511	1513	1405
1399875090591818443	1526	1502	1513	1406
1399875090596733393	1518	1511	1513	1405
1399875090606749520	1521	1500	1513	1405
1399875090611747409	1520	1509	1513	1407
1399875090621777469	1519	1504	1513	1408
1399875090626724245	1523	1504	1513	1408
1399875090641847541	1521	1503	1513	1408
1399875090656824705	1521	1508	1513	1408
1399875090661713175	1522	1500	1513	1408
1399875090666813336	1524	1507	1513	1407
1399875090676836121	1520	1500	1513	1408
1399875090686717878	1529	1507	1513	1407
1399875090696841973	1520	1500	1513	1408
1399875090701753683	1524	1507	1513	1408
1399875090711800820	1517	1502	1513	1411
1399875090716793833	1530	1500	1513	1411
1399875090726816829	1521	1505	1513	1410
1399875090741828849	1522	1494	1513	1411
1399875090746766033	1523	1505	1513	1410
1399875090761843084	1521	1499	1513	1411
1399875090776863597	1520	1496	1513	1411
1399875090791893511	1519	1498	1513	1410
1399875090796803533	1519	1494	1513	1411
1399875090806733628	1515	1503	1513	1410
1399875090811776665	1521	1493	1513	1413
1399875090826910943	1518	1498	1512	1413
1399875090841830753	1517	1501	1512	1413
1399875090851863628	1516	1498	1513	1413
1399875090871658624	1520	1497	1513	1413
1399875090876743689	1518	1502	1513	1412
1399875090886615064	1523	1502	1513	1413
1399875090896550231	1513	1495	1513	1414
1399875090906701330	1519	1505	1513	1413
1399875090911661261	1517	1499	1513	1416
1399875090921706669	1518	1504	1513	1415
1399875090926879074	1514	1501	1513	1415
1399875090936814103	1519	1500	1512	1415
1399875090941727532	1515	1505	1512	1416
1399875090956818402	1515	1494	1512	1416
1399875090961748957	1519	1507	1512	1415
1399875090971560877	1514	1487	1512	1417
1399875090976794206	1522	1499	1512	1414
1399875090991859368	1517	1492	1512	1416
1399875091006837971	1516	1494	1512	1415
1399875091011803890	1519	1484	1512	1418
1399875091021522542	1518	1498	1512	1416
1399875091026781239	1516	1479	1512	1419
1399875091041773203	1521	1491	1512	1417
1399875091056823280	1519	1495	1512	1417
1399875091061729153	1521	1486	1512	1418
1399875091071797019	1520	1489	1512	1417
1399875091076967937	1523	1491	1512	1417
1399875091091839766	1519	1490	1512	1417
1399875091106833498	1519	1484	1512	1418
1399875091111691739	1518	1495	1512	1418
1399875091121753029	1517	1485	1512	1419
1399875091126753342	1521	1488	1512	1418
1399875091141728498	1518	1487	1512	1419
1399875091151785832	1522	1492	1513	1418
1399875091161772213	1517	1485	1512	1418
1399875091166711522	1518	1483	1513	1418
1399875091176656497	1514	1491	1513	1418
1399875091186786944	1515	1494	1513	1417
1399875091196752858	1516	1487	1513	1418
1399875091206763412	1515	1487	1512	1417
1399875091211851078	1514	1491	1513	1419
1399875091226861230	1519	1485	1512	1418
1399875091236910482	1517	1490	1512	1418
1399875091246828316	1516	1491	1512	1419
1399875091261844184	1516	1487	1512	1418
1399875091276832648	1519	1489	1512	1418
1399875091291824324	1515	1481	1512	1418
1399875091296770789	1516	1495	1512	1417
1399875091306761161	1513	1481	1512	1419
1399875091311853852	1520	1493	1512	1419
1399875091326786113	1512	1490	1512	1420
1399875091341844913	1520	1503	1512	1419
1399875091346866773	1517	1491	1512	1421
1399875091351736771	1509	1503	1512	1418
1399875091371749325	1513	1491	1512	1420
1399875091376820858	1508	1492	1512	1420
1399875091386722500	1510	1492	1512	1419
1399875091396820249	1503	1500	1512	1418
1399875091401763446	1513	1482	1512	1420
1399875091411788791	1509	1505	1512	1420
1399875091416756714	1509	1494	1512	1422
1399875091426753346	1519	1494	1512	1420
1399875091441803423	1510	1492	1512	1421
1399875091446797539	1512	1496	1512	1420
1399875091457062513	1514	1494	1512	1420
1399875091461806459	1513	1486	1512	1421
1399875091476803752	1517	1484	1512	1419
1399875091491820356	1516	1484	1512	1418
1399875091511804593	1514	1489	1512	1420
1399875091526812290	1509	1476	1512	1420
1399875091541798612	1511	1486	1512	1419
1399875091546686066	1513	1474	1512	1420
1399875091556850476	1511	1493	1512	1418
1399875091561743499	1510	1476	1512	1420
1399875091576863378	1510	1482	1512	1418
1399875091586787071	1514	1491	1512	1419
1399875091606793234	1519	1480	1512	1419
1399875091611753624	1531	1490	1512	1419
1399875091621906407	1517	1473	1512	1421
1399875091626877746	1512	1489	1512	1419
1399875091636741726	1521	1487	1512	1421
1399875091646776872	1524	1484	1512	1420
1399875091651783213	1515	1488	1512	1419
1399875091661814063	1525	1474	1512	1419
1399875091666785395	1518	1493	1512	1418
1399875091676750321	1518	1486	1511	1420
1399875091686760835	1516	1498	1511	1418
1399875091691796563	1525	1479	1511	1419
1399875091706827054	1521	1490	1511	1419
1399875091711844614	1527	1485	1511	1420
1399875091721873135	1518	1491	1511	1420
1399875091726766842	1517	1489	1511	1419
1399875091741895372	1523	1488	1511	1419
1399875091756859467	1520	1487	1511	1420
1399875091761833498	1522	1492	1511	1419
1399875091771841051	1514	1492	1511	1420
1399875091776830079	1513	1497	1510	1419
1399875091791847710	1524	1493	1510	1419
1399875091806850150	1508	1496	1510	1420
1399875091811732072	1518	1494	1510	1422
1399875091821779540	1523	1495	1510	1421
1399875091826756010	1524	1498	1510	1419
1399875091841914956	1523	1505	1510	1419
1399875091846784674	1522	1496	1510	1419
1399875091856858043	1518	1505	1510	1420
1399875091861752072	1512	1497	1510	1420
1399875091871795160	1518	1500	1510	1420
1399875091886814297	1517	1503	1509	1420
1399875091891809201	1510	1508	1509	1419
1399875091901682847	1526	1501	1509	1419
1399875091911796763	1518	1504	1509	1419
1399875091921872454	1525	1495	1509	1420
1399875091926883308	1518	1506	1509	1419
1399875091936705394	1512	1497	1509	1419
1399875091946776015	1516	1511	1509	1420
1399875091956774481	1517	1504	1509	1419
1399875091961848258	1529	1510	1509	1418
1399875091971796731	1525	1505	1509	1419
1399875091976844085	1526	1501	1509	1419
1399875091991846874	1515	1497	1508	1419
1399875092006781475	1519	1506	1508	1419
1399875092011858651	1520	1508	1508	1419
1399875092021965652	1521	1509	1509	1418
1399875092026790708	1522	1504	1509	1419
1399875092041908135	1526	1504	1509	1419
1399875092056861832	1520	1511	1509	1418
1399875092061742939	1524	1512	1509	1418
1399875092071769930	1531	1504	1509	1418
1399875092076821785	1522	1500	1509	1419
1399875092091858530	1521	1496	1509	1419
1399875092096726370	1533	1499	1509	1418
1399875092106827678	1529	1500	1509	1419
1399875092111793402	1526	1512	1509	1417
1399875092121754370	1530	1485	1509	1420
1399875092136840111	1527	1496	1509	1419
1399875092141762207	1531	1491	1509	1419
1399875092151832549	1533	1491	1509	1418
1399875092161800396	1538	1490	1509	1419
1399875092171887598	1536	1508	1509	1418
1399875092176878834	1528	1488	1509	1422
1399875092186980848	1533	1502	1509	1419
1399875092196867521	1529	1484	1509	1421
1399875092206971360	1532	1499	1509	1418
1399875092211811560	1521	1491	1510	1420
1399875092221893589	1527	1492	1510	1420
1399875092226868332	1530	1498	1510	1419
1399875092241906177	1523	1485	1510	1421
1399875092246848710	1533	1498	1510	1418
1399875092256523349	1535	1484	1510	1422
1399875092261933171	1530	1498	1510	1420
1399875092271523712	1529	1479	1510	1422
1399875092276899184	1532	1498	1510	1420
1399875092291748384	1532	1482	1510	1421
1399875092306990243	1532	1490	1510	1420
1399875092311879715	1521	1481	1510	1420
1399875092321824673	1524	1492	1510	1421
1399875092326836744	1526	1485	1510	1422
1399875092341853625	1526	1488	1510	1421
1399875092356791233	1522	1490	1510	1421
1399875092361719029	1529	1486	1510	1422
1399875092371921916	1525	1486	1510	1422
1399875092376856754	1528	1483	1510	1421
1399875092386872253	1528	1484	1510	1422
1399875092396808000	1522	1486	1510	1422
1399875092406904842	1535	1489	1511	1422
1399875092411808704	1528	1483	1511	1422
1399875092426760141	1528	1493	1511	1421
1399875092441829360	1524	1494	1511	1421
1399875092461787682	1525	1493	1511	1421
1399875092476856156	1524	1492	1511	1422
1399875092491765372	1522	1487	1511	1422
1399875092496667793	1519	1502	1511	1421
1399875092511770334	1525	1493	1511	1422
1399875092526778182	1526	1495	1511	1421
1399875092541889193	1527	1497	1511	1421
1399875092546760397	1526	1490	1511	1423
1399875092556817259	1532	1505	1511	1421
1399875092561815738	1525	1486	1511	1423
1399875092566745786	1524	1504	1511	1421
1399875092586740671	1526	1493	1511	1422
1399875092591759995	1524	1493	1511	1422
1399875092606813696	1526	1489	1511	1422
1399875092611810933	1523	1500	1511	1422
1399875092621798217	1524	1486	1511	1424
1399875092626722338	1525	1505	1511	1422
1399875092636815382	1525	1488	1511	1424
1399875092641799833	1528	1506	1511	1422
1399875092656795850	1525	1491	1511	1423
1399875092661767796	1525	1501	1511	1423
1399875092676838757	1530	1492	1511	1424
1399875092686830412	1533	1499	1511	1423
1399875092696814638	1528	1487	1511	1425
1399875092706746023	1529	1503	1511	1423
1399875092711764315	1532	1484	1511	1424
1399875092726769375	1533	1493	1511	1423
1399875092741846834	1535	1492	1511	1424
1399875092746873057	1529	1493	1511	1423
1399875092761789453	1531	1485	1511	1424
1399875092776891154	1528	1491	1511	1424
1399875092791863059	1526	1486	1511	1425
1399875092796750400	1526	1501	1511	1424
1399875092801820101	1528	1495	1511	1425
1399875092821804298	1530	1495	1511	1424
1399875092826774754	1528	1489	1511	1426
1399875092836818136	1525	1499	1511	1423
1399875092846787954	1527	1489	1511	1426
1399875092856756278	1528	1501	1511	1424
1399875092861744140	1533	1487	1511	1425
1399875092871760127	1530	1494	1511	1425
1399875092876751911	1529	1490	1511	1425
1399875092886857015	1523	1486	1511	1425
1399875092891740006	1527	1493	1511	1425
1399875092906797631	1523	1487	1511	1426
1399875092911814605	1530	1490	1511	1425
1399875092921799220	1521	1491	1511	1426
1399875092926767745	1523	1485	1511	1426
1399875092941857344	1524	1489	1511	1425
1399875092956772070	1525	1489	1510	1426
1399875092961853599	1522	1491	1511	1426
1399875092971745784	1527	1495	1511	1426
1399875092976792416	1525	1501	1511	1425
1399875092991855552	1530	1498	1511	1426
1399875093006884588	1528	1495	1511	1426
1399875093011775523	1524	1498	1511	1426
1399875093021828032	1530	1491	1511	1426
1399875093026736758	1529	1500	1511	1425
1399875093041892828	1526	1494	1511	1426
1399875093046800415	1530	1492	1511	1427
1399875093056803215	1532	1498	1511	1426
1399875093061792340	1526	1492	1511	1428
1399875093071807103	1528	1501	1511	1426
1399875093076779026	1524	1494	1511	1427
1399875093091792941	1530	1499	1511	1426
1399875093096749512	1526	1493	1511	1427
1399875093101684848	1525	1497	1511	1427
1399875093111796855	1529	1499	1511	1426
1399875093116715564	1525	1491	1511	1428
1399875093126792072	1528	1509	1511	1426
1399875093136706215	1526	1493	1511	1428
1399875093146758086	1523	1505	1511	1426
1399875093156808581	1523	1495	1511	1427
1399875093161842708	1530	1506	1511	1427
1399875093171725347	1528	1494	1511	1427
1399875093176689359	1526	1492	1511	1428
1399875093191796139	1526	1495	1511	1427
1399875093206790314	1526	1502	1511	1426
1399875093211760035	1527	1488	1511	1428
1399875093221873961	1528	1499	1511	1427
1399875093226921362	1523	1489	1511	1427
1399875093241749681	1526	1499	1511	1427
1399875093257007363	1526	1488	1511	1429
1399875093261804200	1530	1502	1511	1426
1399875093271871914	1524	1484	1511	1429
1399875093276693392	1527	1505	1511	1426
1399875093291773768	1523	1491	1511	1428
1399875093306764365	1521	1497	1511	1427
1399875093311753745	1522	1489	1511	1429
1399875093321771531	1521	1503	1511	1426
1399875093326773622	1522	1490	1511	1429
1399875093336816369	1526	1505	1511	1426
1399875093346824886	1519	1487	1511	1428
1399875093351762266	1526	1504	1511	1427
1399875093361842735	1522	1500	1511	1428
1399875093366719786	1525	1498	1511	1428
1399875093376767086	1527	1509	1511	1427
1399875093386744752	1522	1496	1511	1429
1399875093396863731	1525	1512	1511	1427
1399875093406781388	1520	1492	1511	1429
1399875093411714503	1530	1511	1511	1427
1399875093416667813	1521	1497	1511	1428
1399875093426909908	1527	1502	1510	1427
1399875093441904132	1524	1506	1510	1427
1399875093446831544	1528	1498	1510	1428
1399875093461916897	1525	1499	1511	1428
1399875093476836712	1525	1500	1511	1428
1399875093491836239	1524	1501	1510	1428
1399875093496808690	1524	1499	1510	1428
1399875093511774559	1524	1496	1510	1428
1399875093526798533	1522	1495	1510	1428
1399875093536834945	1518	1486	1510	1429
1399875093556803242	1524	1498	1510	1428
1399875093561767915	1521	1493	1510	1428
1399875093571777411	1520	1498	1510	1428
1399875093576738198	1523	1489	1510	1429
1399875093586741104	1522	1501	1510	1428
1399875093596792654	1518	1490	1510	1429
1399875093601674426	1523	1499	1510	1428
1399875093611794655	1521	1485	1510	1429
1399875093616857410	1525	1496	1510	1429
1399875093626937776	1531	1491	1510	1429
1399875093636881428	1536	1492	1510	1429
1399875093646837965	1532	1501	1510	1428
1399875093656906270	1534	1488	1510	1430
1399875093661833815	1530	1500	1510	1428
1399875093666814642	1529	1487	1510	1430
1399875093676927972	1535	1498	1510	1429
1399875093691804274	1533	1487	1510	1430
1399875093696799206	1537	1494	1510	1429
1399875093706740245	1536	1497	1510	1429
1399875093711798613	1537	1488	1510	1430
1399875093726901801	1537	1491	1510	1430
1399875093741830261	1532	1489	1510	1430
1399875093761858629	1535	1489	1510	1430
1399875093776981303	1533	1485	1510	1430
1399875093786803603	1532	1481	1510	1431
1399875093806831178	1536	1482	1510	1431
1399875093811807126	1532	1479	1510	1431
1399875093821906041	1535	1484	1510	1431
1399875093826767855	1530	1483	1511	1431
1399875093836778374	1534	1481	1511	1432
1399875093841788667	1530	1483	1511	1431
1399875093851823436	1532	1476	1511	1433
1399875093861936182	1532	1490	1511	1431
1399875093876822503	1532	1481	1511	1432
1399875093891840594	1530	1478	1511	1432
1399875093896768159	1536	1481	1511	1432
1399875093906800562	1531	1484	1511	1432
1399875093911741919	1535	1476	1511	1433
1399875093916755944	1535	1492	1511	1432
1399875093926783290	1528	1479	1511	1433
1399875093941894758	1530	1494	1511	1432
1399875093946745105	1530	1483	1511	1433
1399875093956867958	1527	1487	1511	1433
1399875093961782028	1524	1488	1511	1433
1399875093976863002	1526	1490	1511	1433
1399875093991863683	1523	1482	1511	1434
1399875093996793814	1528	1495	1511	1432
1399875094006810742	1522	1486	1511	1434
1399875094011756653	1525	1491	1511	1433
1399875094016812493	1529	1484	1511	1433
1399875094036884844	1533	1488	1511	1433
1399875094046832798	1535	1477	1512	1434
1399875094056869186	1532	1489	1511	1433
1399875094061806260	1536	1479	1511	1434
1399875094071826212	1534	1489	1512	1433
1399875094076720602	1530	1491	1512	1433
1399875094086541058	1527	1486	1512	1434
1399875094096869285	1532	1493	1512	1433
1399875094101772269	1529	1487	1512	1434
1399875094111711261	1528	1490	1512	1434
1399875094116807595	1532	1490	1511	1434
1399875094126792874	1534	1488	1512	1434
1399875094141824222	1531	1488	1512	1434
1399875094156827699	1537	1488	1511	1434
1399875094161810864	1540	1484	1511	1433
1399875094171921004	1537	1486	1512	1435
1399875094176861553	1539	1496	1512	1434
1399875094191920328	1539	1491	1512	1435
1399875094206838860	1538	1491	1512	1435
1399875094211690430	1535	1492	1512	1435
1399875094221868656	1535	1494	1512	1435
1399875094226811617	1529	1483	1512	1436
1399875094241807835	1532	1491	1512	1435
1399875094256848156	1530	1492	1511	1435
1399875094261790358	1529	1488	1511	1435
1399875094271493142	1531	1486	1511	1436
1399875094276830859	1536	1495	1511	1435
1399875094291818514	1532	1488	1511	1435
1399875094306894851	1532	1482	1511	1436
1399875094311744936	1532	1491	1511	1436
1399875094321895073	1530	1488	1511	1435
1399875094326809045	1532	1485	1511	1436
1399875094336802420	1533	1498	1511	1434
1399875094346797053	1528	1478	1511	1437
1399875094351794290	1532	1496	1511	1435
1399875094361773116	1528	1486	1511	1436
1399875094371805349	1529	1491	1511	1435
1399875094376734113	1531	1489	1510	1435
1399875094391831340	1529	1489	1510	1435
1399875094406821200	1528	1482	1510	1437
1399875094411691736	1530	1493	1510	1435
1399875094421798605	1525	1479	1510	1436
1399875094426718794	1526	1486	1510	1436
1399875094441778061	1528	1482	1510	1436
1399875094456827536	1524	1491	1510	1434
1399875094461889129	1525	1475	1510	1437
1399875094471875378	1524	1488	1509	1435
1399875094476820933	1524	1479	1509	1436
1399875094491837939	1526	1478	1509	1436
1399875094496730138	1524	1481	1509	1435
1399875094506821831	1526	1477	1509	1436
1399875094511715112	1524	1486	1509	1435
1399875094521877240	1524	1481	1509	1436
1399875094526791440	1521	1482	1509	1436
1399875094541795998	1522	1482	1509	1436
1399875094556864216	1522	1484	1509	1435
1399875094571846803	1526	1477	1509	1436
1399875094576774251	1528	1484	1509	1435
1399875094586775685	1521	1478	1509	1436
1399875094596820252	1528	1484	1509	1435
1399875094606728095	1525	1473	1509	1436
1399875094611691011	1526	1484	1508	1435
1399875094621859908	1527	1480	1508	1435
1399875094626754101	1526	1481	1508	1435
1399875094641798257	1526	1481	1509	1435
1399875094656751235	1526	1492	1508	1434
1399875094661728772	1526	1476	1509	1436
1399875094671791848	1531	1485	1508	1435
1399875094676735694	1530	1479	1508	1435
1399875094691676405	1527	1484	1508	1435
1399875094706743298	1529	1473	1508	1436
1399875094711664613	1527	1489	1508	1434
1399875094721770282	1526	1476	1508	1436
1399875094726756356	1534	1486	1508	1435
1399875094741887099	1531	1481	1508	1435
1399875094746815768	1532	1483	1509	1435
1399875094756837486	1531	1486	1508	1434
1399875094761804564	1530	1481	1509	1436
1399875094771478433	1532	1489	1509	1435
1399875094776787459	1533	1480	1508	1435
1399875094791863567	1530	1488	1509	1435
1399875094796782072	1528	1485	1509	1436
1399875094806518945	1529	1493	1509	1435
1399875094811878054	1529	1482	1509	1435
1399875094816752391	1533	1488	1509	1436
1399875094826887230	1536	1482	1509	1435
1399875094836792668	1533	1486	1509	1435
1399875094846950577	1536	1488	1509	1435
1399875094856861590	1536	1482	1509	1436
1399875094861752072	1530	1489	1509	1434
1399875094866704090	1535	1483	1509	1436
1399875094876843055	1527	1490	1509	1435
1399875094891803922	1530	1486	1509	1436
1399875094896820867	1531	1483	1509	1436
1399875094906877657	1530	1484	1509	1436
1399875094911743565	1535	1481	1510	1436
1399875094926831637	1529	1486	1510	1436
1399875094941868995	1530	1481	1510	1436
1399875094946827658	1527	1485	1510	1435
1399875094961803539	1527	1481	1510	1435
1399875094976847485	1516	1484	1511	1435
1399875094991848487	1520	1488	1511	1435
1399875094996820015	1512	1481	1511	1436
1399875095001756605	1519	1490	1511	1435
1399875095021841129	1511	1487	1511	1435
1399875095026740925	1512	1493	1512	1435
1399875095036759758	1508	1483	1512	1435
1399875095046874584	1508	1492	1512	1434
1399875095056732044	1505	1480	1512	1435
1399875095061702513	1506	1491	1512	1435
1399875095071738712	1505	1491	1512	1435
1399875095076862021	1507	1486	1513	1435
1399875095086735073	1505	1492	1513	1435
1399875095096814386	1505	1488	1513	1434
1399875095106703371	1498	1486	1513	1435
1399875095111690862	1502	1495	1513	1434
1399875095121712805	1500	1486	1513	1436
1399875095126685834	1496	1498	1513	1434
1399875095141833197	1494	1487	1513	1435
1399875095156769873	1498	1498	1514	1434
1399875095161778379	1492	1482	1514	1436
1399875095171827320	1505	1505	1514	1433
1399875095176782237	1493	1486	1514	1435
1399875095191807304	1501	1498	1514	1435
1399875095206843666	1493	1494	1514	1435
1399875095211809077	1498	1506	1514	1433
1399875095221800979	1504	1483	1514	1436
1399875095226756695	1509	1499	1514	1433
1399875095241779439	1501	1486	1514	1434
1399875095246792812	1496	1494	1514	1434
1399875095256888443	1504	1504	1514	1434
1399875095261723084	1499	1483	1514	1435
1399875095271695360	1500	1509	1514	1433
1399875095276767120	1501	1483	1514	1436
1399875095286794081	1509	1504	1514	1434
1399875095296674513	1507	1494	1514	1434
1399875095301740011	1508	1497	1514	1435
1399875095311775518	1514	1510	1514	1435
1399875095316815846	1507	1490	1514	1436
1399875095326822131	1516	1507	1514	1434
1399875095336811335	1509	1490	1514	1435
1399875095346755692	1519	1496	1514	1435
1399875095356756163	1519	1499	1514	1434
1399875095361814077	1508	1492	1514	1436
1399875095371866115	1518	1505	1514	1434
1399875095376699877	1515	1486	1514	1436
1399875095391755440	1518	1497	1514	1435
1399875095406875231	1516	1495	1514	1436
1399875095411905563	1521	1499	1514	1435
1399875095421774703	1522	1486	1514	1436
1399875095426812211	1528	1501	1514	1434
1399875095441918655	1525	1492	1514	1436
1399875095456840521	1526	1491	1514	1436
1399875095461741579	1527	1489	1514	1436
1399875095471691272	1532	1497	1515	1434
1399875095476729144	1527	1479	1514	1436
1399875095491727310	1534	1491	1514	1435
1399875095506868573	1541	1489	1514	1435
1399875095511807134	1535	1495	1514	1434
1399875095521492410	1536	1486	1515	1436
1399875095526508725	1536	1497	1515	1434
1399875095536673014	1527	1485	1514	1437
1399875095541690631	1540	1491	1515	1435
1399875095551538519	1531	1488	1514	1435
1399875095561621981	1538	1482	1514	1435
1399875095566599464	1538	1492	1514	1434
1399875095576814061	1529	1484	1514	1435
1399875095586868590	1531	1489	1514	1435
1399875095596711183	1526	1483	1514	1435
1399875095606798034	1526	1484	1514	1435
1399875095611797769	1533	1486	1514	1434
1399875095626941585	1529	1486	1514	1435
1399875095641856625	1529	1487	1514	1435
1399875095646687658	1533	1486	1514	1435
1399875095661819941	1534	1489	1514	1435
1399875095676813282	1532	1489	1514	1435
1399875095691734276	1524	1486	1514	1435
1399875095696694405	1528	1487	1514	1435
1399875095706849731	1526	1485	1514	1436
1399875095711710551	1526	1490	1514	1435
1399875095726795033	1524	1491	1514	1435
1399875095741753224	1527	1490	1514	1436
1399875095756908101	1529	1489	1514	1435
1399875095761768444	1528	1488	1514	1436
1399875095771839596	1523	1498	1514	1436
1399875095776806560	1525	1496	1514	1435
1399875095786813763	1524	1494	1514	1436
1399875095796801655	1522	1496	1514	1435
1399875095801720552	1522	1496	1514	1436
1399875095811770801	1523	1499	1514	1435
1399875095826820187	1528	1500	1514	1436
1399875095841847618	1528	1501	1514	1436
1399875095856962076	1528	1501	1514	1435
1399875095861779209	1530	1502	1513	1436
1399875095876797425	1529	1504	1513	1436
1399875095891763881	1526	1503	1513	1435
1399875095896793217	1529	1501	1513	1436
1399875095906843159	1527	1503	1513	1435
1399875095911727229	1529	1503	1513	1436
1399875095926826926	1530	1506	1513	1436
1399875095941920009	1526	1501	1513	1436
1399875095946759204	1530	1508	1513	1436
1399875095961799051	1527	1509	1513	1436
1399875095966889767	1529	1503	1513	1436
1399875095986832947	1525	1509	1513	1436
1399875095996780170	1525	1512	1512	1435
1399875096006858842	1525	1507	1512	1437
1399875096011699082	1522	1511	1512	1436
1399875096021799417	1523	1501	1512	1436
1399875096026783651	1528	1503	1512	1436
1399875096036798467	1523	1507	1512	1435
1399875096046750669	1524	1498	1512	1437
1399875096051707698	1528	1512	1512	1435
1399875096061750691	1521	1493	1512	1437
1399875096071772758	1525	1511	1512	1436
1399875096076734257	1521	1502	1512	1437
1399875096091887735	1524	1499	1512	1436
1399875096106891961	1523	1487	1511	1438
1399875096111802852	1526	1503	1511	1436
1399875096121887300	1523	1480	1511	1438
1399875096126780678	1517	1491	1511	1436
1399875096141824112	1520	1481	1511	1437
1399875096156836644	1518	1490	1511	1436
1399875096161800598	1521	1477	1511	1438
1399875096172008947	1518	1490	1511	1437
1399875096176819511	1518	1476	1511	1437
1399875096191908308	1518	1482	1510	1437
1399875096206899896	1519	1475	1510	1438
1399875096211791617	1515	1488	1510	1437
1399875096221808972	1515	1478	1510	1438
1399875096226745905	1518	1489	1510	1437
1399875096241862847	1516	1477	1510	1438
1399875096256902129	1515	1483	1510	1437
1399875096261655151	1517	1476	1509	1439
1399875096271866087	1523	1485	1509	1437
1399875096276796342	1514	1478	1509	1439
1399875096286871942	1520	1484	1509	1438
1399875096296868759	1520	1478	1509	1438
1399875096301868044	1514	1477	1509	1439
1399875096311899288	1520	1487	1509	1437
1399875096321844696	1524	1477	1509	1439
1399875096326898305	1522	1487	1508	1438
1399875096341871881	1522	1480	1508	1439
1399875096356887122	1527	1482	1508	1439
1399875096361798387	1517	1474	1508	1439
1399875096371898304	1524	1489	1508	1439
1399875096376820333	1523	1482	1508	1440
1399875096391792041	1522	1483	1507	1439
1399875096406789232	1521	1485	1507	1439
1399875096411744323	1520	1489	1507	1439
1399875096421858885	1520	1486	1507	1440
1399875096426710485	1522	1495	1507	1439
1399875096441814474	1519	1482	1507	1440
1399875096446745176	1522	1493	1507	1439
1399875096456793549	1518	1487	1507	1440
1399875096461699269	1519	1488	1507	1440
1399875096471776828	1521	1493	1507	1439
1399875096476720216	1520	1482	1507	1441
1399875096491810490	1524	1493	1507	1440
1399875096496788524	1523	1486	1507	1441
1399875096506820873	1521	1490	1507	1440
1399875096511674838	1520	1489	1507	1440
1399875096516655200	1523	1485	1507	1441
1399875096526754940	1518	1497	1506	1439
1399875096536833631	1520	1486	1506	1441
1399875096546759165	1517	1491	1506	1440
1399875096556853229	1521	1493	1506	1441
1399875096561834727	1520	1492	1506	1441
1399875096576851109	1522	1489	1506	1440
1399875096591837926	1520	1490	1506	1440
1399875096596730890	1521	1487	1507	1441
1399875096606749809	1520	1489	1507	1440
1399875096611772336	1518	1490	1507	1441
1399875096626770132	1518	1487	1507	1440
1399875096641766773	1517	1487	1507	1440
1399875096646813081	1520	1485	1507	1441
1399875096656768380	1518	1489	1507	1440
1399875096661863963	1517	1484	1507	1440
1399875096676871820	1523	1489	1507	1440
1399875096691876244	1527	1485	1507	1440
1399875096696750972	1527	1493	1507	1440
1399875096706842626	1524	1482	1508	1440
1399875096721846385	1526	1486	1508	1440
1399875096726826263	1522	1483	1508	1440
1399875096736840216	1525	1491	1508	1440
1399875096746851806	1521	1480	1508	1440
1399875096756745161	1519	1491	1508	1439
1399875096761797743	1525	1485	1508	1440
1399875096771796981	1517	1486	1508	1440
1399875096776765903	1521	1486	1509	1439
1399875096786827384	1520	1486	1509	1440
1399875096796800047	1517	1490	1509	1439
1399875096801815538	1524	1483	1509	1440
1399875096811677341	1521	1487	1509	1440
1399875096821734668	1523	1493	1509	1439
1399875096826659668	1520	1490	1509	1440
1399875096841811184	1521	1489	1509	1440
1399875096856677290	1516	1495	1509	1439
1399875096861888095	1522	1489	1510	1440
1399875096871716365	1520	1490	1510	1440
1399875096876730199	1517	1495	1510	1439
1399875096891720694	1517	1489	1510	1440
1399875096896846142	1515	1500	1510	1439
1399875096906822324	1515	1488	1510	1440
1399875096911758941	1514	1498	1510	1439
1399875096921835326	1517	1489	1510	1440
1399875096926767973	1517	1492	1510	1440
1399875096941822220	1514	1495	1511	1440
1399875096956797673	1512	1501	1510	1439
1399875096961773568	1513	1484	1511	1441
1399875096971843901	1517	1492	1511	1440
1399875096976916670	1514	1491	1511	1440
1399875096991790208	1513	1491	1511	1440
1399875097001832838	1515	1481	1511	1441
1399875097011856238	1513	1500	1511	1440
1399875097016791818	1516	1491	1511	1441
1399875097026802943	1519	1491	1511	1441
1399875097041733091	1517	1490	1511	1441
1399875097056804168	1518	1499	1511	1439
1399875097061766653	1518	1483	1511	1442
1399875097076808544	1518	1493	1511	1441
1399875097086727770	1518	1490	1511	1441
1399875097091633339	1518	1496	1511	1440
1399875097111848951	1517	1492	1511	1441
1399875097126676951	1521	1486	1511	1442
1399875097141867970	1523	1491	1511	1441
1399875097146792976	1518	1481	1511	1442
1399875097157018228	1523	1493	1511	1441
1399875097161858462	1520	1482	1511	1442
1399875097176850055	1523	1488	1511	1441
1399875097186486603	1528	1486	1511	1442
1399875097206813314	1528	1485	1511	1442
1399875097211750578	1526	1490	1511	1441
1399875097221808566	1528	1484	1511	1442
1399875097226796252	1529	1489	1511	1442
1399875097236819407	1533	1481	1511	1442
1399875097246791039	1533	1486	1511	1441
1399875097251810851	1534	1488	1511	1441
1399875097261795285	1534	1483	1511	1442
1399875097266737862	1531	1489	1511	1441
1399875097276881787	1537	1482	1511	1442
1399875097286733768	1533	1487	1511	1441
1399875097296824163	1535	1482	1511	1442
1399875097306817260	1534	1488	1511	1441
1399875097311674990	1534	1481	1511	1441
1399875097326847506	1535	1483	1511	1441
1399875097341799722	1532	1476	1511	1441
1399875097346788353	1537	1490	1511	1440
1399875097356853427	1531	1472	1511	1441
1399875097361778287	1536	1488	1511	1439
1399875097376763957	1527	1480	1511	1440
1399875097391789161	1532	1490	1511	1439
1399875097396788141	1529	1481	1511	1440
1399875097406928112	1530	1490	1511	1439
1399875097411812396	1524	1480	1511	1440
1399875097426784549	1528	1493	1511	1439
1399875097436749652	1525	1486	1511	1440
1399875097456814650	1527	1492	1511	1439
1399875097461744336	1533	1496	1511	1439
1399875097471840160	1523	1485	1511	1439
1399875097476723963	1525	1491	1510	1439
1399875097486791801	1525	1491	1510	1439
1399875097496964856	1523	1489	1510	1439
1399875097501760435	1523	1491	1510	1439
1399875097511784690	1525	1488	1510	1439
1399875097516647138	1525	1495	1510	1439
1399875097526724306	1520	1489	1510	1440
1399875097541713768	1522	1491	1510	1439
1399875097556844989	1520	1496	1509	1439
1399875097561969090	1520	1492	1509	1439
1399875097571822099	1523	1493	1509	1439
1399875097576756818	1520	1497	1509	1438
1399875097591802304	1519	1491	1509	1439
1399875097606904816	1519	1488	1508	1440
1399875097611809453	1520	1496	1508	1439
1399875097621886825	1516	1495	1508	1439
1399875097626834422	1514	1492	1508	1440
1399875097641816161	1513	1493	1508	1439
1399875097656919030	1510	1505	1508	1439
1399875097661854433	1508	1489	1507	1440
1399875097671988013	1517	1492	1507	1440
1399875097676736379	1512	1496	1507	1439
1399875097691833237	1515	1490	1507	1441
1399875097696888366	1513	1497	1507	1439
1399875097706697152	1513	1488	1507	1440
1399875097711674518	1513	1503	1506	1439
1399875097721813926	1513	1488	1506	1441
1399875097726745440	1514	1497	1506	1440
1399875097736786664	1508	1495	1506	1441
1399875097746823831	1514	1493	1506	1441
1399875097751481998	1513	1498	1506	1440
1399875097761884525	1505	1493	1506	1441
1399875097766851470	1515	1500	1506	1440
1399875097776912401	1508	1484	1506	1441
1399875097791840888	1515	1492	1506	1440
1399875097796777080	1509	1486	1506	1442
1399875097806902295	1509	1491	1505	1440
1399875097811798893	1510	1484	1506	1442
1399875097816792832	1506	1485	1505	1442
1399875097826887303	1513	1483	1505	1441
1399875097841813568	1512	1480	1505	1442
1399875097856914513	1511	1475	1505	1443
1399875097861744414	1514	1483	1505	1442
1399875097876859832	1515	1472	1506	1443
1399875097886899298	1517	1477	1505	1443
1399875097896732790	1518	1465	1506	1444
1399875097906837367	1521	1473	1506	1443
1399875097911731249	1516	1465	1506	1444
1399875097916806149	1521	1468	1506	1444
1399875097936859008	1511	1471	1506	1444
1399875097946789744	1513	1472	1506	1444
1399875097956819234	1511	1470	1506	1445
1399875097961787609	1516	1473	1506	1444
1399875097971856953	1512	1466	1506	1445
1399875097976736950	1518	1475	1507	1444
1399875097986848660	1516	1462	1507	1446
1399875097996753795	1519	1470	1507	1444
1399875098001773295	1519	1462	1507	1445
1399875098011988333	1522	1463	1507	1445
1399875098016785282	1520	1468	1507	1444
1399875098026672333	1516	1463	1507	1446
1399875098041819983	1520	1472	1508	1445
1399875098056830300	1521	1475	1508	1445
1399875098061652647	1523	1469	1508	1446
1399875098071787228	1521	1470	1508	1447
1399875098076679406	1526	1482	1508	1445
1399875098091820560	1527	1466	1508	1447
1399875098096759925	1528	1480	1508	1445
1399875098106789532	1529	1468	1509	1446
1399875098111774281	1531	1476	1509	1446
1399875098121815491	1528	1489	1509	1446
1399875098126809063	1531	1478	1509	1446
1399875098141825686	1525	1485	1509	1446
1399875098156812757	1526	1488	1509	1446
1399875098161673503	1526	1486	1509	1446
1399875098171795634	1529	1490	1509	1446
1399875098176674318	1530	1492	1509	1446
1399875098191736072	1531	1488	1510	1446
1399875098206867619	1534	1491	1510	1446
1399875098211747704	1535	1489	1510	1446
1399875098221880599	1533	1500	1510	1446
1399875098226814973	1539	1490	1510	1446
1399875098236744760	1537	1497	1510	1446
1399875098246776993	1541	1492	1510	1447
1399875098256837403	1539	1496	1510	1447
1399875098261777533	1540	1497	1510	1446
1399875098271821970	1538	1492	1510	1447
1399875098276839888	1534	1498	1510	1446
1399875098291795650	1537	1496	1510	1447
1399875098306779323	1535	1495	1511	1447
1399875098311780004	1540	1497	1511	1447
1399875098321785643	1538	1496	1511	1447
1399875098326738208	1538	1498	1511	1447
1399875098341767077	1541	1498	1511	1446
1399875098346766917	1537	1494	1511	1447
1399875098356822355	1540	1500	1511	1447
1399875098361753352	1537	1497	1511	1447
1399875098371836367	1537	1493	1511	1447
1399875098376762566	1532	1499	1511	1447
1399875098391713600	1538	1493	1510	1447
1399875098406734001	1542	1492	1510	1447
1399875098411707243	1537	1494	1510	1446
1399875098421809678	1530	1497	1510	1447
1399875098426773051	1530	1495	1510	1447
1399875098441892111	1529	1496	1510	1446
1399875098456888516	1529	1502	1510	1446
1399875098461749042	1533	1498	1510	1447
1399875098466753502	1535	1499	1510	1446
1399875098486834118	1531	1490	1510	1446
1399875098496957234	1532	1495	1510	1446
1399875098506769468	1535	1488	1511	1446
1399875098511747150	1529	1490	1510	1445
1399875098521940121	1526	1492	1511	1445
1399875098526813447	1529	1487	1511	1446
1399875098536755221	1526	1494	1510	1445
1399875098541805812	1526	1488	1511	1445
1399875098556786544	1533	1496	1510	1445
1399875098561835479	1529	1494	1511	1445
1399875098571752477	1532	1486	1511	1445
1399875098576710207	1526	1487	1511	1445
1399875098586793783	1528	1482	1511	1446
1399875098596819615	1524	1487	1511	1444
1399875098606709471	1529	1478	1511	1445
1399875098611705692	1525	1486	1511	1445
1399875098621705799	1527	1493	1511	1445
1399875098626740966	1528	1488	1511	1445
1399875098636764572	1531	1492	1511	1444
1399875098646731740	1529	1482	1511	1446
1399875098656738121	1531	1488	1511	1444
1399875098661676134	1526	1484	1511	1445
1399875098671739664	1524	1485	1511	1445
1399875098676396501	1523	1492	1511	1444
1399875098686547645	1527	1488	1511	1445
1399875098696699633	1531	1496	1511	1444
1399875098706834665	1529	1488	1511	1445
1399875098711839142	1529	1495	1511	1444
1399875098721752753	1532	1491	1511	1444
1399875098726772932	1529	1488	1511	1445
1399875098736919848	1531	1490	1511	1444
1399875098756772737	1530	1492	1511	1444
1399875098761671735	1531	1495	1511	1444
1399875098771790039	1533	1495	1511	1444
1399875098776743680	1532	1498	1512	1445
1399875098786716986	1536	1499	1511	1443
1399875098791710916	1534	1493	1512	1444
1399875098806816561	1532	1498	1511	1443
1399875098811880877	1532	1495	1511	1444
1399875098821875685	1534	1498	1511	1444
1399875098826946954	1528	1499	1511	1444
1399875098836742258	1530	1492	1511	1445
1399875098846907376	1537	1508	1511	1443
1399875098856782286	1531	1489	1511	1445
1399875098861765831	1533	1507	1511	1443
1399875098871848385	1530	1492	1511	1444
1399875098876675900	1531	1489	1511	1445
1399875098886969113	1531	1500	1511	1443
1399875098896765817	1528	1489	1511	1445
1399875098906884940	1533	1498	1511	1443
1399875098911732544	1529	1488	1511	1445
1399875098921818703	1524	1499	1511	1443
1399875098926743519	1525	1498	1511	1444
1399875098936770526	1525	1488	1511	1445
1399875098946889997	1529	1505	1511	1443
1399875098951755285	1522	1488	1511	1446
1399875098961896812	1526	1494	1510	1444
1399875098966868638	1524	1490	1510	1445
1399875098976828607	1522	1488	1510	1445
1399875098986726268	1530	1497	1510	1443
1399875098996724386	1522	1481	1510	1446
1399875099006806365	1529	1500	1510	1443
1399875099011723574	1523	1487	1510	1445
1399875099021824660	1524	1495	1510	1444
1399875099026756591	1519	1497	1509	1444
1399875099036781224	1520	1488	1509	1446
1399875099046748901	1526	1499	1509	1444
1399875099056765434	1517	1484	1509	1446
1399875099061754005	1520	1493	1509	1445
1399875099071848522	1518	1490	1509	1445
1399875099076798182	1516	1488	1509	1446
1399875099091986678	1519	1486	1509	1446
1399875099106779987	1521	1494	1509	1444
1399875099111754786	1517	1484	1509	1446
1399875099122533355	1518	1490	1509	1445
1399875099126856806	1521	1492	1509	1445
1399875099141848511	1518	1488	1509	1445
1399875099156777104	1511	1482	1509	1447
1399875099161779533	1518	1493	1508	1445
1399875099171773630	1521	1485	1508	1446
1399875099176731989	1518	1489	1508	1446
1399875099186710669	1523	1497	1508	1445
1399875099196740794	1518	1480	1508	1447
1399875099201725693	1520	1495	1508	1445
1399875099211853319	1520	1484	1508	1447
1399875099216746813	1520	1489	1508	1446
1399875099226865352	1528	1492	1508	1446
1399875099241863608	1528	1491	1508	1446
1399875099256880766	1525	1488	1508	1447
1399875099261680178	1530	1495	1508	1446
1399875099271829704	1529	1487	1508	1447
1399875099276754205	1531	1490	1508	1447
1399875099291735238	1532	1487	1508	1447
1399875099306821464	1534	1493	1508	1447
1399875099311806907	1531	1485	1508	1448
1399875099321740690	1538	1492	1508	1446
1399875099326725562	1537	1487	1508	1448
1399875099341817199	1537	1489	1508	1447
1399875099356798052	1539	1481	1508	1447
1399875099361682577	1542	1492	1508	1447
1399875099371851987	1536	1479	1508	1447
1399875099376748205	1543	1489	1508	1446
1399875099391730020	1541	1483	1508	1447
1399875099406828212	1544	1493	1508	1446
1399875099411737399	1542	1474	1508	1448
1399875099421934092	1546	1490	1508	1445
1399875099426754001	1545	1478	1508	1447
1399875099436767069	1543	1487	1508	1446
1399875099456845811	1547	1486	1508	1446
1399875099461752125	1553	1491	1508	1445
1399875099471800093	1548	1478	1508	1446
1399875099476807867	1552	1489	1508	1445
1399875099486761525	1548	1484	1508	1446
1399875099497051911	1549	1486	1508	1446
1399875099506776729	1552	1498	1508	1444
1399875099511721684	1550	1479	1509	1446
1399875099521859948	1551	1499	1509	1444
1399875099526749851	1545	1488	1509	1446
1399875099536796289	1550	1491	1509	1444
1399875099546769398	1548	1491	1509	1445
1399875099556741832	1547	1490	1509	1445
1399875099561675324	1555	1495	1509	1443
1399875099571700524	1540	1484	1509	1444
1399875099576654523	1542	1501	1509	1443
1399875099586654049	1544	1490	1509	1444
1399875099596700737	1542	1493	1510	1443
1399875099606713075	1550	1492	1510	1443
1399875099611671450	1541	1495	1510	1443
1399875099621811876	1535	1502	1510	1443
1399875099626674226	1536	1492	1510	1443
1399875099636861036	1539	1491	1510	1443
1399875099647096685	1545	1491	1510	1442
1399875099656690392	1535	1499	1510	1441
1399875099661671632	1538	1493	1511	1442
1399875099671716196	1537	1490	1511	1442
1399875099676809659	1539	1482	1511	1442
1399875099686836116	1539	1490	1511	1441
1399875099696796508	1534	1492	1511	1440
1399875099701708281	1541	1489	1511	1442
1399875099711802114	1541	1489	1512	1441
1399875099716835126	1541	1486	1512	1441
1399875099726847255	1537	1489	1512	1440
1399875099741973201	1544	1485	1512	1440
1399875099761776063	1544	1487	1512	1440
1399875099776835147	1542	1483	1513	1440
1399875099791795533	1546	1487	1513	1439
1399875099796801042	1542	1490	1513	1441
1399875099806733408	1550	1489	1513	1439
1399875099811767543	1548	1477	1513	1440
1399875099826779402	1550	1488	1513	1439
1399875099841681343	1552	1488	1514	1439
1399875099846696073	1554	1485	1514	1439
1399875099856926070	1545	1482	1514	1439
1399875099861735417	1551	1490	1514	1439
1399875099866726703	1544	1479	1514	1440
1399875099886835470	1544	1485	1514	1439
1399875099896864596	1543	1486	1514	1439
1399875099906774282	1543	1488	1514	1440
1399875099911773646	1546	1482	1514	1439
1399875099921767635	1540	1487	1514	1440
1399875099926684587	1542	1487	1514	1440
1399875099936737277	1540	1488	1514	1441
1399875099946729939	1544	1491	1514	1439
1399875099951701661	1538	1485	1514	1440
1399875099961853903	1535	1494	1513	1440
1399875099966748301	1542	1494	1514	1440
1399875099976738989	1544	1477	1513	1440
1399875099991836433	1547	1487	1513	1440
1399875099997093707	1540	1483	1513	1441
1399875100001784655	1543	1486	1513	1440
1399875100011784564	1544	1484	1513	1441
1399875100026795709	1543	1488	1513	1440
1399875100041939608	1540	1495	1513	1440
1399875100046806135	1543	1485	1513	1441
1399875100056753913	1547	1491	1513	1440
1399875100061736056	1542	1481	1512	1441
1399875100076810488	1538	1495	1512	1441
1399875100091858420	1543	1487	1512	1441
1399875100096824009	1547	1492	1512	1440
1399875100111900498	1543	1493	1512	1441
1399875100116760550	1542	1489	1512	1442
1399875100136880825	1548	1490	1511	1441
1399875100146852030	1545	1491	1511	1441
1399875100156833935	1544	1490	1511	1442
1399875100171865252	1542	1496	1511	1442
1399875100176709552	1543	1499	1511	1442
1399875100186819448	1547	1493	1511	1441
1399875100191756863	1541	1494	1511	1442
1399875100206896098	1545	1494	1511	1442
1399875100211831368	1542	1490	1510	1443
1399875100221804303	1541	1490	1510	1442
1399875100226766608	1545	1481	1510	1444
1399875100241841523	1544	1493	1510	1443
1399875100246922357	1544	1484	1510	1444
1399875100256743695	1545	1490	1510	1443
1399875100261815911	1545	1481	1510	1443
1399875100272066653	1542	1484	1510	1444
1399875100276776551	1540	1483	1510	1443
1399875100291761253	1542	1485	1509	1444
1399875100306798092	1541	1482	1509	1445
1399875100311698019	1539	1487	1509	1444
1399875100321697381	1542	1480	1509	1444
1399875100326712929	1539	1487	1509	1445
1399875100341723806	1541	1482	1508	1445
1399875100346731614	1542	1480	1508	1445
1399875100356732826	1541	1486	1508	1445
1399875100361698277	1539	1483	1508	1446
1399875100371754522	1539	1494	1508	1445
1399875100376710451	1534	1484	1507	1446
1399875100391721466	1538	1489	1507	1446
1399875100406638429	1537	1489	1507	1446
1399875100411674779	1540	1495	1507	1447
1399875100416900776	1537	1489	1507	1447
1399875100426715133	1536	1491	1506	1447
1399875100436855552	1532	1495	1506	1447
1399875100446774802	1530	1496	1506	1447
1399875100451584408	1535	1497	1506	1447
1399875100461711043	1531	1491	1506	1447
1399875100476787854	1528	1503	1505	1447
1399875100491849289	1525	1502	1505	1447
1399875100496828282	1526	1505	1505	1447
1399875100511868711	1526	1506	1504	1447
1399875100526767947	1525	1505	1504	1447
1399875100541812782	1520	1497	1504	1447
1399875100546757871	1523	1505	1504	1446
1399875100556772480	1525	1505	1503	1446
1399875100561736929	1522	1500	1503	1447
1399875100576953688	1519	1505	1503	1447
1399875100591953175	1519	1504	1503	1446
1399875100596772519	1516	1503	1502	1447
1399875100606829191	1516	1505	1502	1446
1399875100621910491	1514	1503	1502	1447
1399875100626906966	1514	1503	1501	1447
1399875100636812542	1520	1498	1501	1446
1399875100646796809	1522	1494	1501	1447
1399875100656767165	1522	1504	1501	1446
1399875100661795876	1516	1491	1501	1448
1399875100671846101	1523	1501	1500	1446
1399875100676742321	1519	1488	1500	1448
1399875100686770662	1523	1497	1500	1446
1399875100691696620	1520	1490	1500	1447
1399875100706700281	1524	1489	1500	1447
1399875100711677319	1520	1496	1500	1446
1399875100721734645	1525	1476	1500	1448
1399875100726691982	1522	1496	1499	1445
1399875100741717228	1521	1476	1499	1448
1399875100746776015	1522	1492	1499	1446
1399875100756881114	1519	1478	1499	1448
1399875100761804179	1527	1485	1499	1447
1399875100771963844	1523	1475	1499	1448
1399875100776752110	1529	1479	1499	1447
1399875100791847346	1525	1477	1499	1448
1399875100806831395	1524	1475	1499	1447
1399875100811803051	1523	1474	1499	1448
1399875100822079368	1523	1480	1499	1447
1399875100826892214	1524	1467	1499	1449
1399875100841886403	1519	1478	1499	1448
1399875100856857340	1523	1486	1499	1447
1399875100861776420	1512	1470	1499	1449
1399875100871869453	1520	1484	1500	1448
1399875100876792816	1512	1477	1500	1449
1399875100886958863	1513	1479	1500	1448
1399875100891857403	1514	1473	1500	1449
1399875100901883147	1513	1484	1500	1449
1399875100911722829	1511	1481	1500	1449
1399875100916745127	1510	1475	1500	1449
1399875100926875399	1504	1480	1500	1448
1399875100941842470	1498	1478	1501	1449
1399875100946797484	1503	1482	1501	1448
1399875100956797488	1498	1481	1501	1448
1399875100961804015	1500	1477	1501	1450
1399875100976827979	1498	1483	1501	1448
1399875100986842864	1502	1483	1502	1448
1399875100996871367	1492	1480	1502	1449
1399875101011766870	1495	1480	1502	1449
1399875101026709784	1492	1483	1502	1448
1399875101041874119	1499	1478	1503	1449
1399875101046940636	1495	1487	1503	1448
1399875101056872178	1494	1477	1503	1449
1399875101061829527	1496	1488	1503	1447
1399875101076862855	1500	1485	1504	1448
1399875101086939119	1500	1486	1504	1448
1399875101106899585	1500	1483	1504	1448
1399875101111834577	1495	1491	1504	1448
1399875101121811841	1515	1485	1504	1448
1399875101126702914	1509	1489	1504	1448
1399875101136774286	1504	1489	1505	1448
1399875101146808474	1508	1493	1505	1448
1399875101151729517	1508	1489	1505	1448
1399875101161738076	1512	1490	1505	1447
1399875101166676710	1507	1485	1505	1449
1399875101176698543	1517	1496	1505	1448
1399875101191819443	1516	1494	1505	1448
1399875101206774471	1519	1489	1505	1447
1399875101211722273	1516	1491	1506	1448
1399875101221772372	1518	1499	1506	1448
1399875101226918978	1521	1486	1506	1450
1399875101241792641	1524	1496	1506	1448
1399875101256790402	1524	1499	1506	1448
1399875101261808122	1522	1494	1506	1448
1399875101271790632	1534	1488	1506	1448
1399875101276704340	1529	1498	1506	1449
1399875101291790130	1532	1493	1506	1448
1399875101306778224	1537	1488	1506	1448
1399875101311772938	1533	1492	1506	1448
1399875101321939301	1526	1496	1506	1447
1399875101326747689	1535	1494	1506	1448
1399875101341815326	1533	1497	1506	1448
1399875101356777606	1535	1493	1506	1448
1399875101361793369	1538	1496	1506	1447
1399875101371724466	1537	1494	1506	1447
1399875101376824355	1534	1494	1506	1447
1399875101386768548	1534	1501	1506	1447
1399875101391798339	1540	1492	1506	1447
1399875101401774993	1533	1498	1506	1447
1399875101411865705	1538	1501	1506	1447
1399875101416655855	1535	1494	1506	1448
1399875101426446040	1534	1506	1506	1447
1399875101441801711	1532	1495	1506	1447
1399875101456716855	1530	1494	1506	1447
1399875101461855988	1533	1496	1506	1447
1399875101471948611	1520	1506	1506	1445
1399875101476756428	1523	1490	1506	1448
1399875101486902068	1523	1503	1506	1445
1399875101496862783	1521	1487	1506	1447
1399875101506792826	1526	1501	1506	1445
1399875101511851823	1521	1491	1506	1447
1399875101521821868	1516	1492	1506	1446
1399875101526777368	1510	1490	1506	1446
1399875101541786186	1514	1493	1506	1446
1399875101546801221	1515	1489	1506	1446
1399875101556810391	1514	1489	1506	1446
1399875101561820000	1511	1490	1506	1446
1399875101571846028	1515	1481	1506	1446
1399875101576727836	1518	1483	1506	1446
1399875101591816070	1519	1483	1507	1446
1399875101606903033	1517	1486	1507	1446
1399875101611708218	1519	1478	1507	1447
1399875101621874976	1515	1484	1507	1446
1399875101626773102	1515	1476	1507	1447
1399875101636986191	1514	1479	1508	1447
1399875101646894630	1515	1484	1508	1446
1399875101651798802	1516	1478	1508	1447
1399875101661938839	1514	1477	1508	1447
1399875101666763722	1518	1473	1508	1447
1399875101676883570	1520	1477	1508	1447
1399875101691806385	1515	1474	1508	1448
1399875101696776039	1517	1482	1509	1447
1399875101706883102	1513	1476	1509	1449
1399875101711751877	1513	1486	1509	1447
1399875101726887962	1520	1477	1509	1448
1399875101742007730	1519	1473	1510	1448
1399875101761801628	1515	1480	1510	1448
1399875101776833560	1518	1478	1510	1448
1399875101791896753	1521	1482	1511	1448
1399875101796759939	1515	1472	1511	1449
1399875101811912014	1518	1473	1511	1448
1399875101816830987	1517	1473	1511	1448
1399875101836848222	1522	1477	1512	1448
1399875101846947514	1522	1482	1512	1448
1399875101856840473	1522	1472	1512	1449
1399875101861705824	1526	1479	1512	1447
1399875101871913041	1524	1475	1512	1448
1399875101876790406	1528	1474	1512	1448
1399875101886861814	1522	1480	1512	1448
1399875101896767814	1523	1471	1513	1449
1399875101901684167	1528	1486	1513	1447
1399875101911790553	1527	1472	1513	1448
1399875101926871097	1530	1485	1513	1447
1399875101941858609	1533	1480	1513	1447
1399875101946830689	1533	1484	1513	1446
1399875101951832913	1533	1478	1513	1448
1399875101961886795	1534	1489	1513	1446
1399875101976853911	1535	1491	1514	1447
1399875101991874022	1534	1496	1514	1447
1399875101996788688	1535	1488	1514	1447
1399875102011927029	1538	1494	1514	1446
1399875102026904086	1538	1499	1514	1447
1399875102041826486	1535	1491	1514	1448
1399875102046740284	1539	1507	1514	1446
1399875102056820188	1538	1496	1514	1447
1399875102061746811	1537	1503	1514	1447
1399875102066805702	1541	1502	1514	1446
1399875102086824309	1544	1502	1514	1446
1399875102096802580	1540	1490	1514	1447
1399875102106768229	1546	1502	1514	1446
1399875102111797718	1544	1500	1514	1446
1399875102121888795	1547	1496	1514	1446
1399875102126801584	1548	1499	1514	1446
1399875102136809178	1550	1492	1514	1446
1399875102146869634	1552	1503	1514	1445
1399875102156868314	1547	1493	1514	1446
1399875102161689622	1555	1505	1514	1445
1399875102171809480	1555	1498	1514	1446
1399875102176757552	1551	1483	1514	1446
1399875102191818410	1555	1487	1514	1445
1399875102206748330	1556	1491	1514	1444
1399875102211785136	1555	1483	1514	1445
1399875102221884793	1555	1490	1514	1445
1399875102226752717	1551	1485	1514	1445
1399875102241812608	1556	1481	1514	1445
1399875102256728146	1554	1479	1514	1446
1399875102261695095	1557	1490	1514	1444
1399875102271799704	1542	1472	1514	1445
1399875102276792271	1540	1481	1514	1444
1399875102291862387	1546	1479	1514	1445
1399875102306749526	1546	1482	1514	1444
1399875102311731188	1547	1476	1514	1446
1399875102321809950	1537	1490	1514	1444
1399875102326697588	1537	1477	1514	1445
1399875102341839222	1539	1485	1514	1444
1399875102356768609	1539	1485	1514	1445
1399875102361704372	1540	1488	1514	1443
1399875102366754956	1536	1478	1514	1446
1399875102376828864	1541	1498	1514	1444
1399875102386816587	1533	1476	1514	1445
1399875102396784777	1535	1484	1514	1444
1399875102406875235	1533	1481	1514	1445
1399875102411777289	1536	1480	1514	1445
1399875102421923571	1541	1490	1514	1444
1399875102426843005	1533	1477	1514	1446
1399875102441823954	1534	1490	1515	1446
1399875102456830285	1530	1484	1515	1445
1399875102461947701	1535	1484	1515	1446
1399875102471805455	1527	1482	1515	1446
1399875102476686481	1537	1489	1515	1445
1399875102491800657	1529	1484	1515	1446
1399875102506787997	1526	1483	1515	1447
1399875102511726658	1526	1486	1514	1447
1399875102522179819	1528	1481	1514	1446
1399875102526766641	1526	1474	1514	1447
1399875102541781161	1527	1483	1514	1446
1399875102546745280	1530	1479	1514	1447
1399875102556919277	1532	1484	1514	1446
1399875102561825120	1531	1477	1514	1447
1399875102571771388	1536	1482	1514	1447
1399875102576727775	1537	1488	1514	1447
1399875102591920488	1531	1476	1514	1448
1399875102596783367	1535	1482	1514	1447
1399875102606929248	1530	1474	1514	1447
1399875102611834791	1536	1479	1514	1447
1399875102616774664	1533	1480	1514	1447
1399875102626877022	1538	1480	1514	1448
1399875102636776207	1541	1490	1514	1447
1399875102641790770	1537	1476	1514	1448
1399875102656879366	1544	1488	1514	1447
1399875102661873844	1538	1482	1514	1448
1399875102676796288	1543	1486	1514	1448
1399875102686766513	1542	1477	1514	1448
1399875102696678950	1544	1487	1514	1448
1399875102706903187	1542	1479	1514	1449
1399875102711740373	1548	1485	1514	1448
1399875102726863665	1552	1491	1514	1448
1399875102741858524	1548	1496	1514	1448
1399875102746687114	1547	1489	1514	1448
1399875102756791801	1553	1490	1514	1448
1399875102761686111	1549	1492	1514	1449
1399875102776773436	1558	1496	1514	1449
1399875102791860112	1559	1489	1514	1449
1399875102796665310	1561	1499	1514	1449
1399875102801742138	1556	1498	1515	1449
1399875102821832809	1559	1495	1515	1448
1399875102826853880	1554	1491	1515	1450
1399875102836810906	1558	1502	1515	1449
1399875102846798627	1559	1489	1515	1449
1399875102851766000	1559	1499	1515	1448
1399875102861668331	1558	1499	1515	1449
1399875102866830697	1558	1492	1515	1449
1399875102876732820	1551	1496	1515	1448
1399875102891757115	1546	1487	1515	1449
1399875102906831142	1544	1488	1515	1449
1399875102911702330	1546	1493	1515	1449
1399875102926776940	1540	1487	1515	1450
1399875102941822505	1541	1486	1515	1449
1399875102946783974	1534	1483	1515	1450
1399875102961702486	1533	1487	1515	1451
1399875102976755004	1531	1481	1515	1450
1399875102991792256	1529	1481	1515	1451
1399875102996691075	1531	1481	1515	1450
1399875103006783525	1532	1479	1515	1451
1399875103011757328	1527	1484	1515	1450
1399875103026853494	1529	1483	1515	1451
1399875103036905310	1525	1478	1515	1452
1399875103056824213	1527	1482	1515	1452
1399875103061730539	1526	1474	1515	1453
1399875103071851216	1533	1488	1515	1452
1399875103076649351	1529	1478	1515	1453
1399875103086875104	1532	1486	1515	1452
1399875103096850978	1527	1485	1515	1452
1399875103101848188	1527	1485	1515	1453
1399875103111787016	1532	1493	1515	1452
1399875103116751308	1530	1481	1515	1453
1399875103126805488	1539	1488	1515	1453
1399875103141853643	1534	1484	1515	1453
1399875103156818152	1537	1488	1515	1453
1399875103161771917	1533	1482	1514	1454
1399875103171953429	1533	1488	1514	1453
1399875103176713928	1534	1491	1514	1453
1399875103191763761	1534	1491	1514	1454
1399875103206848376	1533	1484	1514	1454
1399875103211817790	1537	1492	1513	1454
1399875103221759677	1534	1499	1513	1454
1399875103226740286	1538	1489	1513	1455
1399875103241693146	1536	1497	1513	1454
1399875103256786781	1537	1506	1512	1453
1399875103261848651	1538	1497	1512	1454
1399875103271837720	1536	1496	1512	1455
1399875103276684198	1538	1511	1512	1453
1399875103291937809	1533	1490	1512	1456
1399875103296859495	1537	1517	1512	1453
1399875103306814797	1532	1494	1512	1455
1399875103311745560	1537	1507	1511	1454
1399875103321790835	1536	1510	1511	1454
1399875103326795111	1527	1500	1511	1455
1399875103336875557	1534	1511	1511	1454
1399875103341776208	1530	1501	1511	1455
1399875103351908354	1530	1507	1510	1454
1399875103361988736	1529	1504	1510	1455
1399875103366686447	1530	1508	1510	1454
1399875103376684031	1529	1502	1510	1455
1399875103391466004	1528	1502	1509	1455
1399875103406846730	1530	1507	1509	1455
1399875103411741978	1525	1506	1509	1454
1399875103421509151	1527	1491	1508	1455
1399875103426718120	1531	1508	1508	1454
1399875103441714468	1526	1490	1508	1455
1399875103446773148	1530	1506	1508	1454
1399875103456746343	1525	1496	1507	1455
1399875103461727256	1527	1498	1507	1455
1399875103471749474	1529	1507	1507	1453
1399875103476727366	1531	1491	1507	1455
1399875103491745313	1533	1503	1506	1454
1399875103506816361	1532	1503	1506	1453
1399875103511767362	1531	1502	1506	1453
1399875103521835627	1534	1492	1506	1454
1399875103526807333	1534	1505	1505	1453
1399875103541789030	1535	1495	1505	1453
1399875103556787897	1534	1496	1504	1453
1399875103561898676	1536	1498	1504	1454
1399875103571743316	1535	1497	1504	1453
1399875103586770367	1535	1492	1503	1453
1399875103596898742	1534	1494	1503	1453
