#Time	 Roll 	 Pitch 	 Yaw 	 Thrust
1399086040385102013	1520	1516	1926	1105
1399086040485390790	1520	1516	1926	1105
1399086040585671438	1520	1516	1926	1105
1399086040685917606	1520	1516	1926	1105
1399086040786132516	1520	1516	1926	1105
1399086040886347559	1520	1516	1513	1105
1399086047482323140	1526	1505	1514	1408
1399086047487310472	1525	1505	1514	1408
1399086047497332675	1525	1505	1514	1408
1399086047502221668	1525	1505	1514	1408
1399086047512208741	1525	1504	1514	1408
1399086047517181824	1525	1505	1514	1408
1399086047527258972	1526	1505	1514	1408
1399086047542291383	1525	1505	1514	1408
1399086047552225850	1525	1506	1514	1409
1399086047562244024	1526	1505	1514	1408
1399086047582213123	1525	1506	1514	1409
1399086047587300253	1525	1506	1514	1409
1399086047597322823	1526	1505	1514	1409
1399086047602238960	1526	1505	1514	1409
1399086047612232278	1526	1505	1514	1409
1399086047622203205	1526	1505	1514	1409
1399086047632217618	1525	1506	1514	1409
1399086047637207953	1526	1506	1514	1409
1399086047647239257	1525	1505	1514	1409
1399086047652326716	1526	1505	1514	1410
1399086047667266035	1525	1505	1514	1410
1399086047682492085	1526	1505	1514	1410
1399086047687379701	1525	1506	1514	1410
1399086047697251880	1526	1505	1514	1410
1399086047702036259	1525	1505	1514	1410
1399086047717221783	1526	1505	1514	1410
1399086047722283629	1526	1505	1514	1410
1399086047732245510	1526	1505	1514	1410
1399086047737212731	1526	1505	1514	1410
1399086047747318450	1526	1504	1514	1410
1399086047752226966	1525	1505	1514	1411
1399086047762250406	1526	1505	1514	1411
1399086047772312934	1525	1505	1514	1411
1399086047777285622	1526	1505	1514	1411
1399086047787317763	1526	1506	1514	1411
1399086047791976589	1526	1505	1514	1411
1399086047802272802	1526	1505	1514	1411
1399086047812307903	1526	1506	1514	1411
1399086047827044735	1526	1505	1514	1411
1399086047832285407	1526	1506	1514	1412
1399086047837267467	1526	1505	1514	1411
1399086047842263662	1526	1505	1514	1412
1399086047857250896	1526	1505	1514	1412
1399086047867124628	1526	1505	1514	1412
1399086047882035805	1526	1505	1514	1412
1399086047887099996	1526	1505	1514	1412
1399086047897099186	1525	1505	1514	1412
1399086047902092987	1526	1505	1514	1412
1399086047917126834	1526	1505	1514	1412
1399086047931972072	1526	1506	1514	1412
1399086047937053352	1526	1506	1514	1412
1399086047947082068	1526	1504	1514	1412
1399086047952025335	1526	1505	1514	1412
1399086047967072396	1526	1505	1514	1413
1399086047972103660	1526	1505	1514	1413
1399086047977046277	1525	1505	1514	1413
1399086047987038953	1526	1505	1514	1413
1399086047992045946	1528	1505	1514	1413
1399086048002015840	1527	1504	1514	1413
1399086048017260522	1527	1504	1514	1413
1399086048022194941	1527	1504	1514	1413
1399086048042340264	1527	1505	1514	1413
1399086048047252960	1527	1505	1514	1413
1399086048052226743	1527	1505	1514	1413
1399086048067323022	1527	1505	1514	1414
1399086048077284726	1528	1505	1514	1414
1399086048092102573	1525	1505	1514	1414
1399086048097281682	1527	1505	1514	1414
1399086048102291282	1526	1506	1514	1414
1399086048117245565	1527	1504	1514	1414
1399086048122251720	1526	1506	1514	1414
1399086048127156019	1527	1505	1514	1414
1399086048137242535	1525	1507	1514	1414
1399086048147317467	1526	1506	1514	1414
1399086048152285833	1525	1508	1514	1415
1399086048167174426	1525	1505	1514	1414
1399086048172222537	1526	1507	1514	1415
1399086048182280331	1525	1505	1514	1415
1399086048187218782	1526	1507	1514	1415
1399086048197298480	1526	1505	1514	1415
1399086048202245603	1526	1505	1514	1415
1399086048212320477	1526	1505	1514	1415
1399086048217209112	1526	1505	1514	1415
1399086048227291144	1525	1505	1514	1415
1399086048237208925	1526	1504	1514	1415
1399086048247227614	1525	1505	1514	1416
1399086048252230381	1526	1504	1514	1415
1399086048262348287	1525	1506	1514	1416
1399086048272334635	1526	1505	1514	1416
1399086048277265711	1525	1505	1514	1416
1399086048287353885	1526	1505	1514	1416
1399086048297302074	1525	1506	1514	1416
1399086048302267576	1525	1504	1514	1416
1399086048312249515	1525	1505	1514	1417
1399086048322326851	1525	1505	1514	1417
1399086048332279052	1525	1504	1514	1417
1399086048337220289	1525	1506	1514	1417
1399086048347051136	1525	1502	1514	1417
1399086048351982553	1525	1502	1514	1417
1399086048367062160	1525	1502	1514	1417
1399086048371994419	1526	1502	1514	1417
1399086048382081536	1526	1502	1514	1417
1399086048386954252	1525	1504	1514	1417
1399086048397018445	1525	1503	1514	1417
1399086048401962267	1526	1503	1514	1418
1399086048417013994	1525	1503	1514	1418
1399086048432019497	1526	1503	1514	1418
1399086048436962397	1525	1502	1514	1418
1399086048441983003	1526	1503	1514	1418
1399086048467035895	1525	1503	1514	1418
1399086048482027240	1527	1503	1514	1418
1399086048486998038	1529	1503	1514	1418
1399086048491975518	1529	1503	1514	1418
1399086048502099869	1529	1503	1514	1418
1399086048512297376	1528	1503	1514	1418
1399086048527280034	1528	1503	1514	1418
1399086048537334123	1529	1502	1514	1419
1399086048542263232	1527	1502	1514	1418
1399086048552343264	1528	1501	1514	1419
1399086048567294565	1528	1502	1514	1419
1399086048572245527	1528	1501	1514	1419
1399086048582284706	1527	1502	1514	1419
1399086048587268947	1527	1498	1514	1419
1399086048592253789	1528	1501	1514	1419
1399086048607212671	1527	1499	1514	1419
1399086048617211280	1527	1499	1514	1419
1399086048622317585	1527	1500	1514	1419
1399086048632302907	1528	1500	1514	1420
1399086048637277080	1526	1497	1514	1419
1399086048647323331	1528	1497	1514	1420
1399086048652232141	1527	1498	1514	1420
1399086048667287898	1528	1497	1514	1420
1399086048672174948	1526	1498	1514	1420
1399086048682226972	1528	1496	1514	1420
1399086048687255680	1527	1495	1514	1420
1399086048697217277	1527	1495	1514	1420
1399086048702202409	1528	1494	1514	1420
1399086048712245583	1526	1494	1514	1420
1399086048722310866	1527	1493	1514	1420
1399086048727175161	1527	1493	1514	1420
1399086048737313716	1526	1493	1514	1421
1399086048742191819	1527	1488	1514	1421
1399086048762293784	1526	1487	1514	1421
1399086048772267228	1528	1487	1514	1421
1399086048777202208	1527	1486	1514	1421
1399086048787235257	1527	1487	1514	1421
1399086048797282497	1528	1488	1514	1421
1399086048802270512	1526	1488	1514	1421
1399086048817335790	1527	1488	1514	1421
1399086048832294435	1527	1489	1514	1421
1399086048837185618	1526	1494	1514	1421
1399086048847283975	1526	1492	1514	1421
1399086048852249883	1526	1494	1514	1421
1399086048867272469	1526	1492	1514	1422
1399086048882146203	1526	1493	1514	1421
1399086048887146477	1529	1490	1514	1422
1399086048897205566	1527	1490	1514	1422
1399086048902238332	1529	1490	1514	1422
1399086048917097631	1527	1491	1514	1422
1399086048922141345	1528	1490	1514	1422
1399086048932252187	1527	1491	1514	1422
1399086048937255372	1525	1486	1514	1422
1399086048947277165	1526	1487	1514	1422
1399086048952235032	1525	1486	1514	1422
1399086048962230877	1527	1486	1514	1422
1399086048976979294	1526	1486	1514	1423
1399086048987318997	1528	1480	1514	1423
1399086048992231703	1529	1481	1514	1423
1399086049002259520	1528	1479	1514	1423
1399086049012471817	1529	1479	1514	1423
1399086049027152489	1528	1480	1514	1423
1399086049032292398	1528	1479	1514	1423
1399086049037163039	1527	1485	1514	1423
1399086049047288212	1527	1484	1514	1423
1399086049052272631	1528	1485	1514	1423
1399086049062284889	1528	1484	1514	1423
1399086049072204905	1529	1485	1514	1424
1399086049082317660	1528	1484	1514	1423
1399086049087310451	1530	1485	1514	1424
1399086049097300285	1530	1484	1514	1424
1399086049102266411	1530	1484	1514	1424
1399086049117302847	1531	1485	1514	1424
1399086049137249504	1531	1485	1514	1424
1399086049147016025	1534	1490	1514	1424
1399086049152199493	1532	1491	1514	1424
1399086049167175577	1532	1490	1514	1424
1399086049172193221	1533	1491	1514	1425
1399086049182269571	1533	1490	1514	1424
1399086049187207727	1536	1491	1514	1425
1399086049192140377	1536	1490	1514	1425
1399086049252399372	1537	1490	1514	1425
1399086049262154244	1537	1490	1514	1425
1399086049267214084	1535	1490	1514	1425
1399086049272237438	1537	1489	1514	1425
1399086049282271398	1535	1489	1514	1425
1399086049287378243	1536	1495	1514	1425
1399086049292278036	1535	1493	1514	1425
1399086049307290869	1534	1495	1514	1426
1399086049317349666	1533	1494	1514	1425
1399086049332281883	1533	1494	1514	1425
1399086049337254364	1532	1494	1514	1426
1399086049347302606	1523	1493	1514	1426
1399086049352216773	1523	1493	1514	1426
1399086049367258945	1522	1492	1514	1426
1399086049382321894	1522	1492	1514	1426
1399086049387280578	1517	1497	1514	1426
1399086049397364989	1517	1496	1514	1426
1399086049402270342	1516	1497	1514	1427
1399086049417240721	1516	1495	1514	1426
1399086049422256765	1515	1496	1514	1427
1399086049427041831	1514	1494	1514	1426
1399086049437299960	1515	1493	1514	1426
1399086049442313621	1514	1494	1514	1426
1399086049452377088	1508	1495	1514	1427
1399086049462266963	1508	1494	1514	1427
1399086049467287590	1507	1495	1514	1427
1399086049477241872	1508	1492	1514	1427
1399086049492291017	1500	1497	1514	1427
1399086049497209547	1501	1496	1514	1427
1399086049502225293	1500	1497	1514	1427
1399086049517045791	1500	1495	1514	1427
1399086049522223606	1500	1494	1514	1427
1399086049527214671	1501	1494	1514	1427
1399086049537360690	1500	1495	1514	1427
1399086049547262380	1514	1495	1514	1427
1399086049552162121	1513	1494	1514	1427
1399086049567302545	1514	1492	1514	1427
1399086049582276481	1514	1492	1514	1427
1399086049587349021	1523	1491	1514	1427
1399086049602310651	1523	1491	1514	1427
1399086049617223231	1522	1490	1514	1428
1399086049632231300	1522	1487	1514	1427
1399086049637221837	1523	1487	1514	1427
1399086049647286866	1522	1486	1514	1428
1399086049652216546	1532	1479	1514	1428
1399086049667254576	1532	1477	1514	1428
1399086049672249656	1533	1478	1514	1428
1399086049682416898	1533	1475	1514	1428
1399086049687238775	1539	1474	1514	1428
1399086049692240309	1538	1473	1514	1428
1399086049702298861	1538	1472	1514	1429
1399086049711982056	1538	1471	1514	1428
1399086049727211792	1540	1469	1514	1428
1399086049737325619	1540	1466	1514	1428
1399086049747143236	1540	1465	1514	1428
1399086049752247198	1540	1464	1514	1428
1399086049762212864	1541	1464	1514	1428
1399086049767174895	1542	1465	1514	1428
1399086049782022091	1542	1461	1514	1428
1399086049786991673	1519	1465	1514	1429
1399086049796930785	1522	1463	1514	1429
1399086049801985558	1521	1463	1514	1428
1399086049817008852	1522	1461	1514	1429
1399086049821966767	1522	1459	1514	1429
1399086049826952163	1521	1459	1514	1428
1399086049836999958	1521	1461	1514	1429
1399086049846942014	1518	1455	1514	1429
1399086049852000604	1519	1456	1514	1429
1399086049866995833	1518	1455	1514	1429
1399086049871956479	1517	1454	1514	1429
1399086049881946071	1519	1453	1514	1429
1399086049886950013	1515	1456	1514	1429
1399086049896963991	1516	1454	1514	1429
1399086049901966195	1516	1453	1514	1429
1399086049916978102	1514	1452	1514	1429
1399086049921969203	1515	1453	1514	1429
1399086049932017982	1515	1452	1514	1429
1399086049936936410	1516	1451	1514	1429
1399086049942146642	1509	1458	1514	1429
1399086049962162806	1510	1456	1514	1429
1399086049967161891	1510	1457	1514	1429
1399086049977172812	1511	1457	1514	1429
1399086049987221617	1511	1456	1514	1429
1399086049992145167	1511	1471	1514	1429
1399086050007262921	1511	1470	1514	1429
1399086050017304732	1510	1470	1514	1429
1399086050022222550	1512	1469	1514	1429
1399086050032228093	1511	1472	1514	1429
1399086050037324261	1513	1469	1514	1429
1399086050047019081	1516	1481	1514	1429
1399086050052295292	1516	1481	1514	1429
1399086050061938188	1516	1480	1514	1429
1399086050072304162	1516	1480	1514	1429
1399086050082220896	1517	1482	1514	1429
1399086050087262535	1528	1482	1514	1429
1399086050097258109	1528	1481	1514	1429
1399086050101944602	1526	1484	1514	1430
1399086050116972012	1527	1482	1514	1429
1399086050122000073	1527	1482	1514	1430
1399086050131989471	1528	1482	1514	1429
1399086050136982393	1531	1485	1514	1429
1399086050147003837	1531	1483	1514	1429
1399086050151975186	1531	1484	1514	1429
1399086050167062676	1530	1485	1514	1430
1399086050172025854	1531	1484	1514	1430
1399086050176978981	1530	1484	1514	1429
1399086050186948814	1533	1454	1514	1430
1399086050196978827	1532	1455	1514	1429
1399086050202011225	1534	1452	1514	1429
1399086050217022665	1533	1454	1514	1430
1399086050222000101	1533	1454	1514	1430
1399086050226984163	1534	1454	1514	1430
1399086050237000057	1534	1454	1514	1430
1399086050247084894	1534	1456	1514	1430
1399086050252080849	1534	1456	1514	1430
1399086050266995774	1535	1454	1514	1430
1399086050271946372	1534	1455	1514	1430
1399086050282001207	1534	1455	1514	1431
1399086050286977678	1527	1447	1514	1430
1399086050292008891	1528	1447	1514	1430
1399086050301994987	1529	1447	1514	1430
1399086050317015544	1527	1447	1514	1431
1399086050332018607	1526	1448	1514	1431
1399086050337006793	1527	1446	1514	1431
1399086050346977555	1521	1439	1514	1431
1399086050356983203	1522	1438	1514	1431
1399086050367021861	1521	1440	1514	1432
1399086050371992952	1522	1438	1514	1431
1399086050381998206	1522	1439	1514	1431
1399086050386962970	1515	1436	1514	1431
1399086050396984829	1515	1438	1514	1432
1399086050401996933	1515	1436	1514	1431
1399086050411961387	1516	1436	1514	1431
1399086050416970301	1514	1437	1514	1432
1399086050432304777	1515	1438	1514	1432
1399086050437332490	1514	1439	1514	1432
1399086050442316644	1515	1443	1514	1432
1399086050452065150	1514	1443	1514	1432
1399086050462210043	1515	1443	1514	1432
1399086050477202060	1514	1442	1514	1432
1399086050482221379	1514	1441	1514	1432
1399086050487082426	1511	1450	1514	1433
1399086050497010628	1511	1448	1514	1433
1399086050502182020	1511	1450	1514	1432
1399086050512267145	1511	1450	1514	1433
1399086050522110633	1511	1450	1514	1433
1399086050532357863	1510	1451	1514	1433
1399086050537270666	1527	1470	1514	1433
1399086050547307780	1527	1469	1514	1433
1399086050552194360	1527	1469	1514	1433
1399086050567237940	1525	1470	1514	1433
1399086050587133337	1524	1477	1514	1433
1399086050597229641	1524	1478	1514	1433
1399086050602155614	1525	1477	1514	1433
1399086050617225874	1524	1479	1514	1433
1399086050632271249	1524	1480	1514	1433
1399086050637155391	1523	1481	1514	1433
1399086050647090045	1529	1474	1514	1433
1399086050652297961	1528	1476	1514	1433
1399086050662204125	1529	1475	1514	1433
1399086050667214499	1527	1477	1514	1434
1399086050677178358	1527	1477	1514	1433
1399086050687270803	1529	1483	1514	1433
1399086050697265097	1527	1484	1514	1433
1399086050712282969	1528	1485	1514	1433
1399086050717252353	1528	1486	1514	1433
1399086050732280845	1527	1488	1514	1433
1399086050737315604	1528	1488	1514	1433
1399086050747234871	1522	1475	1514	1434
1399086050752093783	1521	1476	1514	1433
1399086050767268825	1522	1476	1514	1433
1399086050772271898	1521	1478	1514	1433
1399086050782210162	1522	1477	1514	1434
1399086050787286338	1524	1476	1514	1433
1399086050797300129	1525	1478	1514	1434
1399086050802304556	1525	1479	1514	1434
1399086050817163571	1525	1479	1514	1434
1399086050832384578	1525	1480	1514	1434
1399086050837243893	1525	1481	1514	1434
1399086050847346865	1529	1474	1514	1434
1399086050852202938	1529	1473	1514	1434
1399086050867257117	1528	1475	1514	1434
1399086050872203656	1530	1477	1514	1434
1399086050882299267	1528	1476	1514	1434
1399086050887228359	1529	1477	1514	1434
1399086050897396364	1523	1472	1514	1435
1399086050902213303	1524	1474	1514	1434
1399086050912254248	1523	1473	1514	1435
1399086050917226005	1524	1475	1514	1435
1399086050927274529	1525	1475	1514	1434
1399086050947260109	1523	1471	1514	1435
1399086050967029838	1523	1471	1514	1434
1399086050972189947	1523	1470	1514	1435
1399086050977216385	1523	1473	1514	1434
1399086050987319287	1522	1473	1514	1435
1399086050992207815	1524	1472	1514	1434
1399086051007304882	1525	1472	1514	1434
1399086051017285155	1524	1473	1514	1435
1399086051022305547	1524	1473	1514	1435
1399086051032135824	1525	1472	1514	1434
1399086051037200185	1523	1474	1514	1434
1399086051042300707	1523	1483	1514	1435
1399086051052265993	1522	1486	1514	1435
1399086051067304714	1523	1485	1514	1434
1399086051072073530	1523	1488	1514	1435
1399086051082240993	1522	1487	1514	1435
1399086051087275158	1524	1485	1514	1435
1399086051097269144	1523	1484	1514	1434
1399086051102208196	1523	1485	1514	1436
1399086051117292905	1523	1486	1514	1435
1399086051132021184	1524	1488	1514	1435
1399086051137250048	1522	1487	1514	1435
1399086051147329256	1528	1495	1514	1435
1399086051152240524	1526	1495	1514	1435
1399086051162269130	1527	1497	1514	1436
1399086051182314904	1527	1495	1514	1435
1399086051187330596	1527	1497	1514	1435
1399086051197217954	1528	1495	1514	1434
1399086051202207892	1526	1494	1514	1435
1399086051212215298	1527	1495	1514	1435
1399086051217262797	1528	1494	1514	1434
1399086051227334663	1526	1496	1514	1435
1399086051242238906	1526	1495	1514	1436
1399086051247168793	1527	1493	1514	1434
1399086051252244342	1525	1495	1514	1435
1399086051267303667	1526	1494	1514	1435
1399086051277292028	1525	1495	1514	1435
1399086051287348789	1523	1496	1514	1436
1399086051297324492	1524	1496	1514	1435
1399086051302293214	1524	1496	1514	1436
1399086051317258338	1524	1496	1514	1435
1399086051332141861	1522	1497	1514	1436
1399086051337208237	1524	1495	1514	1436
1399086051347170838	1523	1496	1514	1435
1399086051352263495	1523	1495	1514	1436
1399086051367259393	1522	1496	1514	1436
1399086051372224361	1523	1495	1514	1435
1399086051377277367	1522	1496	1514	1436
1399086051387252618	1522	1496	1514	1436
1399086051397255220	1526	1502	1514	1436
1399086051402315367	1523	1502	1514	1436
1399086051412233241	1524	1501	1514	1436
1399086051427264134	1523	1502	1514	1436
1399086051437315451	1525	1502	1514	1436
1399086051442269227	1524	1502	1514	1436
1399086051452285491	1524	1502	1514	1436
1399086051462107261	1524	1502	1514	1437
1399086051477198311	1523	1502	1514	1436
1399086051482092560	1525	1502	1514	1436
1399086051487250192	1521	1505	1514	1437
1399086051492255791	1523	1506	1514	1436
1399086051502296761	1522	1505	1514	1437
1399086051517264462	1521	1505	1514	1437
1399086051522239983	1522	1505	1514	1437
1399086051532376121	1521	1505	1514	1437
1399086051537138277	1522	1506	1514	1437
1399086051547304596	1522	1504	1514	1437
1399086051552309811	1522	1503	1514	1437
1399086051567218017	1521	1504	1514	1437
1399086051582172678	1521	1502	1514	1437
1399086051587013684	1526	1505	1514	1437
1399086051602247415	1524	1504	1514	1437
1399086051617025355	1526	1505	1514	1437
1399086051622043800	1525	1504	1514	1438
1399086051632294622	1525	1505	1514	1437
1399086051637230708	1526	1503	1514	1437
1399086051647170773	1527	1503	1514	1437
1399086051652101845	1526	1505	1514	1438
1399086051662211542	1527	1504	1514	1438
1399086051672187575	1527	1503	1514	1437
1399086051677290361	1528	1505	1514	1437
1399086051687187168	1523	1507	1514	1438
1399086051692268111	1524	1507	1514	1438
1399086051707244733	1525	1507	1514	1438
1399086051717088789	1523	1507	1514	1438
1399086051722209145	1523	1506	1514	1438
1399086051732249272	1524	1507	1514	1438
1399086051737270227	1527	1507	1514	1438
1399086051742212319	1526	1508	1514	1439
1399086051757258087	1526	1509	1514	1438
1399086051767284767	1526	1507	1514	1438
1399086051772193380	1524	1506	1514	1438
1399086051782202937	1527	1506	1514	1439
1399086051787286459	1525	1508	1514	1439
1399086051797212445	1522	1510	1514	1439
1399086051802232316	1522	1510	1514	1439
1399086051817211536	1522	1509	1514	1439
1399086051821966676	1523	1511	1514	1439
1399086051832174797	1522	1510	1514	1439
1399086051837345143	1522	1510	1514	1439
1399086051847201637	1521	1511	1514	1439
1399086051857302223	1523	1510	1514	1439
1399086051867159005	1522	1509	1514	1439
1399086051882110358	1522	1509	1514	1439
1399086051887152302	1519	1508	1514	1439
1399086051897183963	1519	1507	1514	1439
1399086051902262684	1519	1507	1514	1439
1399086051912243983	1519	1508	1514	1439
1399086051917098028	1519	1508	1514	1439
1399086051927252683	1521	1509	1514	1439
1399086051947249362	1520	1505	1514	1439
1399086051952250785	1519	1505	1514	1439
1399086051972279404	1520	1505	1514	1439
1399086051982302513	1519	1504	1514	1439
1399086051987266736	1524	1500	1514	1440
1399086051997257441	1524	1499	1514	1439
1399086052002253166	1524	1499	1514	1440
1399086052012287119	1524	1499	1514	1440
1399086052022289579	1524	1499	1514	1440
1399086052032308862	1524	1499	1514	1439
1399086052037217773	1520	1498	1514	1440
1399086052047301914	1520	1499	1514	1440
1399086052052258381	1520	1499	1514	1440
1399086052067242555	1520	1498	1514	1440
1399086052082128744	1520	1497	1514	1440
1399086052087360414	1521	1497	1514	1440
1399086052097223572	1522	1496	1514	1440
1399086052102251394	1522	1497	1514	1440
1399086052117161028	1522	1496	1514	1440
1399086052132233384	1522	1496	1514	1440
1399086052137335700	1521	1499	1514	1440
1399086052147229619	1522	1499	1514	1440
1399086052167227859	1522	1499	1514	1440
1399086052172185186	1521	1498	1514	1440
1399086052177156848	1522	1498	1514	1441
1399086052187162926	1526	1496	1514	1440
1399086052197250869	1527	1495	1514	1441
1399086052202213314	1526	1496	1514	1441
1399086052212224323	1527	1495	1514	1441
1399086052222205085	1526	1495	1514	1441
1399086052232294296	1526	1494	1514	1441
1399086052237245621	1531	1492	1514	1441
1399086052247307322	1530	1492	1514	1441
1399086052252198815	1531	1492	1514	1441
1399086052267275992	1530	1491	1514	1441
1399086052272261588	1531	1491	1514	1441
1399086052282275203	1531	1490	1514	1442
1399086052287271120	1527	1489	1514	1441
1399086052302224281	1527	1489	1514	1442
1399086052317295086	1526	1488	1514	1442
1399086052322297939	1528	1488	1514	1442
1399086052332401072	1526	1487	1514	1442
1399086052337197245	1528	1486	1514	1442
1399086052347273845	1516	1489	1514	1442
1399086052352248801	1517	1488	1514	1443
1399086052366986077	1517	1488	1514	1443
1399086052372186931	1517	1487	1514	1443
1399086052382244928	1517	1487	1514	1443
1399086052387183494	1520	1485	1514	1443
1399086052412261205	1520	1485	1514	1443
1399086052417196020	1520	1484	1514	1443
1399086052427317111	1520	1483	1514	1443
1399086052437063902	1524	1482	1514	1444
1399086052442282901	1524	1482	1514	1444
1399086052457328706	1525	1482	1514	1444
1399086052467351538	1524	1480	1514	1444
1399086052472127046	1524	1480	1514	1444
1399086052477263595	1525	1478	1514	1444
1399086052487315096	1525	1478	1514	1444
1399086052492290918	1526	1477	1514	1444
1399086052502239745	1524	1477	1514	1444
1399086052517326539	1524	1475	1514	1444
1399086052522276412	1525	1476	1514	1445
1399086052537369156	1525	1474	1514	1444
1399086052547366023	1523	1478	1514	1444
1399086052552013446	1522	1477	1514	1445
1399086052567304307	1522	1477	1514	1445
1399086052572238347	1523	1477	1514	1445
1399086052582260752	1523	1476	1514	1445
1399086052587324135	1523	1476	1514	1445
1399086052597000678	1523	1476	1514	1445
1399086052602215230	1523	1478	1514	1445
1399086052617371528	1523	1476	1514	1445
1399086052647316496	1522	1477	1514	1445
1399086052651986092	1521	1476	1514	1445
1399086052662251342	1521	1476	1514	1445
1399086052672323559	1522	1475	1514	1445
1399086052677277577	1521	1475	1514	1446
1399086052692222040	1523	1479	1514	1445
1399086052697238261	1523	1479	1514	1445
1399086052702319347	1524	1478	1514	1445
1399086052717302217	1523	1477	1514	1445
1399086052732260923	1523	1479	1514	1446
1399086052737256352	1523	1476	1514	1445
1399086052747246006	1523	1482	1514	1445
1399086052752034466	1522	1482	1514	1446
1399086052767310115	1523	1483	1514	1446
1399086052772251636	1521	1482	1514	1446
1399086052782233718	1522	1480	1514	1446
1399086052787244714	1524	1485	1514	1445
1399086052797245676	1523	1484	1514	1446
1399086052802233816	1523	1486	1514	1446
1399086052817337966	1523	1484	1514	1446
1399086052832280663	1523	1484	1514	1445
1399086052837290439	1523	1483	1514	1446
1399086052847255754	1523	1488	1514	1447
1399086052852186211	1523	1486	1514	1446
1399086052877311608	1524	1485	1514	1446
1399086052887011425	1521	1477	1514	1446
1399086052897096645	1521	1476	1514	1446
1399086052902246821	1523	1477	1514	1446
1399086052912214916	1521	1476	1514	1446
1399086052932194611	1522	1476	1514	1446
1399086052937284663	1521	1465	1514	1446
1399086052957310104	1520	1464	1514	1446
1399086052967230396	1519	1465	1514	1446
1399086052982322716	1520	1463	1514	1446
1399086052987180724	1514	1464	1514	1446
1399086053002216843	1515	1464	1514	1446
1399086053017230142	1515	1463	1514	1446
1399086053032028767	1513	1463	1514	1446
1399086053037092256	1513	1461	1514	1446
1399086053047149526	1513	1461	1514	1446
1399086053052112669	1513	1459	1514	1446
1399086053067221503	1512	1460	1514	1446
1399086053072280950	1511	1459	1514	1446
1399086053077234301	1512	1460	1514	1446
1399086053097240469	1514	1459	1514	1446
1399086053102218503	1514	1460	1514	1446
1399086053112192724	1513	1460	1514	1447
1399086053117152360	1514	1460	1514	1447
1399086053127230729	1513	1458	1514	1446
1399086053137200937	1514	1460	1514	1447
1399086053147245996	1513	1459	1514	1447
1399086053152327026	1513	1460	1514	1447
1399086053162219839	1513	1460	1514	1447
1399086053167201991	1512	1458	1514	1447
1399086053177201848	1513	1459	1514	1447
1399086053192207463	1519	1460	1514	1447
1399086053197040940	1517	1461	1514	1448
1399086053202259338	1517	1460	1514	1447
1399086053217196266	1518	1459	1514	1447
1399086053222159265	1518	1458	1514	1447
1399086053237105091	1516	1461	1514	1448
1399086053247209950	1522	1466	1514	1447
1399086053252205543	1521	1466	1514	1448
1399086053267241681	1521	1465	1514	1448
1399086053282510509	1521	1467	1514	1448
1399086053287183475	1515	1470	1514	1448
1399086053297268464	1515	1470	1514	1448
1399086053302119026	1516	1469	1514	1448
1399086053317257203	1515	1469	1514	1448
1399086053332314754	1515	1470	1514	1448
1399086053336974531	1518	1472	1514	1448
1399086053347150900	1518	1473	1514	1448
1399086053352179198	1518	1473	1514	1448
1399086053362199196	1518	1472	1514	1448
1399086053367196918	1517	1472	1514	1448
1399086053377347001	1517	1473	1514	1448
1399086053392234921	1513	1475	1514	1448
1399086053397151439	1514	1477	1514	1449
1399086053402251109	1513	1476	1514	1448
1399086053412288552	1513	1475	1514	1448
1399086053417187829	1514	1477	1514	1448
1399086053432290047	1513	1475	1514	1448
1399086053437038297	1506	1468	1514	1448
1399086053447218034	1505	1467	1514	1448
1399086053452203962	1505	1468	1514	1449
1399086053462206931	1505	1468	1514	1448
1399086053467220270	1504	1468	1514	1448
1399086053477242906	1504	1470	1514	1449
1399086053487284846	1504	1466	1514	1448
1399086053497340718	1505	1467	1514	1448
1399086053501974910	1505	1467	1514	1448
1399086053517297106	1505	1468	1514	1448
1399086053522228483	1504	1468	1514	1448
1399086053532335414	1504	1467	1514	1448
1399086053536979753	1504	1469	1514	1448
1399086053547200135	1506	1463	1514	1448
1399086053552064795	1507	1464	1514	1448
1399086053567331307	1508	1464	1514	1447
1399086053572339410	1506	1462	1514	1448
1399086053582260795	1506	1464	1514	1448
1399086053587215820	1510	1464	1514	1448
1399086053612386207	1510	1463	1514	1448
1399086053617207976	1510	1465	1514	1448
1399086053627279215	1510	1464	1514	1448
1399086053637223680	1509	1464	1514	1447
1399086053642258418	1510	1466	1514	1447
1399086053657117746	1510	1468	1514	1448
1399086053667318619	1510	1468	1514	1447
1399086053682295103	1509	1468	1514	1447
1399086053687200148	1514	1470	1514	1448
1399086053692187395	1513	1471	1514	1447
1399086053707193061	1514	1470	1514	1447
1399086053717268313	1513	1471	1514	1448
1399086053732276087	1513	1470	1514	1448
1399086053737238830	1510	1472	1514	1447
1399086053747008301	1511	1473	1514	1448
1399086053752199357	1509	1474	1514	1448
1399086053767319496	1510	1473	1514	1448
1399086053772247392	1510	1473	1514	1448
1399086053782039081	1511	1472	1514	1447
1399086053787276542	1513	1475	1514	1448
1399086053797291324	1512	1476	1514	1448
1399086053802254370	1513	1476	1514	1448
1399086053817338678	1512	1475	1514	1448
1399086053822275761	1513	1475	1514	1448
1399086053832242451	1512	1477	1514	1448
1399086053837318186	1506	1475	1514	1448
1399086053847259135	1506	1476	1514	1449
1399086053852244586	1505	1476	1514	1449
1399086053862281375	1507	1476	1514	1449
1399086053867226251	1505	1477	1514	1448
1399086053877241964	1506	1475	1514	1449
1399086053887262570	1506	1477	1514	1449
1399086053892263914	1506	1475	1514	1449
1399086053902258541	1506	1477	1514	1449
1399086053917224806	1506	1478	1514	1449
1399086053922592603	1506	1477	1514	1449
1399086053927268135	1506	1478	1514	1449
1399086053942286022	1503	1476	1514	1449
1399086053947216565	1503	1477	1514	1449
1399086053952204113	1503	1477	1514	1449
1399086053967243867	1504	1478	1514	1450
1399086053972198697	1503	1477	1514	1449
1399086053982242828	1504	1477	1514	1450
1399086053987279775	1504	1476	1514	1450
1399086054002343985	1504	1475	1514	1450
1399086054017305104	1504	1476	1514	1449
1399086054022203668	1505	1475	1514	1450
1399086054032264221	1504	1477	1514	1450
1399086054037180529	1506	1473	1514	1450
1399086054047232452	1508	1475	1514	1450
1399086054052220355	1507	1473	1514	1450
1399086054062240800	1508	1473	1514	1450
1399086054067200658	1508	1474	1514	1449
1399086054077192658	1508	1474	1514	1450
1399086054087296810	1512	1472	1514	1450
1399086054092232331	1513	1470	1514	1450
1399086054102269609	1515	1471	1514	1450
1399086054112172182	1514	1470	1514	1450
1399086054117187423	1514	1472	1514	1450
1399086054132221197	1515	1471	1514	1450
1399086054137203504	1519	1471	1514	1450
1399086054147240658	1519	1472	1514	1450
1399086054152188226	1520	1471	1514	1450
1399086054172018427	1521	1471	1514	1450
1399086054177205606	1520	1471	1514	1450
1399086054182190943	1521	1472	1514	1450
1399086054187219177	1521	1472	1514	1450
1399086054197279564	1521	1472	1514	1450
1399086054202245624	1522	1473	1514	1450
1399086054217283694	1524	1482	1514	1450
1399086054232266846	1524	1481	1514	1450
1399086054237191171	1525	1482	1514	1450
1399086054247239395	1525	1482	1514	1450
1399086054252266883	1526	1481	1514	1450
1399086054267241205	1528	1482	1514	1449
1399086054272200583	1526	1483	1514	1450
1399086054282001709	1528	1483	1514	1450
1399086054287001331	1526	1484	1514	1450
1399086054297006373	1516	1489	1514	1450
1399086054302000017	1516	1489	1514	1449
1399086054317000303	1517	1490	1514	1450
1399086054332034881	1518	1489	1514	1449
1399086054336961051	1519	1490	1514	1450
1399086054341983136	1518	1497	1514	1450
1399086054352044102	1519	1496	1514	1450
1399086054361987398	1518	1498	1514	1450
1399086054366955856	1520	1497	1514	1449
1399086054376979671	1519	1498	1514	1450
1399086054387048784	1520	1498	1514	1450
1399086054397063358	1521	1492	1514	1450
1399086054407057982	1520	1492	1514	1450
1399086054417010398	1521	1492	1514	1450
1399086054432056885	1521	1493	1514	1450
1399086054437044414	1518	1494	1514	1450
1399086054447182945	1519	1493	1514	1450
1399086054452239306	1519	1495	1514	1450
1399086054467181093	1520	1494	1514	1450
1399086054482224848	1519	1496	1514	1450
1399086054487245879	1520	1488	1514	1450
1399086054497268390	1520	1489	1514	1450
1399086054502210894	1521	1489	1514	1450
1399086054517239849	1522	1490	1514	1450
1399086054532417859	1522	1490	1514	1450
1399086054537289777	1517	1486	1514	1450
1399086054547330362	1517	1487	1514	1450
1399086054552276997	1519	1488	1514	1450
1399086054567239994	1518	1486	1514	1450
1399086054597139077	1519	1489	1514	1450
1399086054602139895	1522	1488	1514	1450
1399086054617236992	1524	1488	1514	1449
1399086054622396454	1524	1489	1514	1449
1399086054627282261	1523	1488	1514	1450
1399086054636975009	1525	1489	1514	1449
1399086054641914036	1523	1488	1514	1450
1399086054651984869	1526	1489	1514	1449
1399086054667076178	1524	1489	1514	1450
1399086054671994134	1525	1489	1514	1449
1399086054682009758	1525	1489	1514	1449
1399086054687130072	1529	1496	1514	1450
1399086054692026000	1531	1497	1514	1449
1399086054702076662	1529	1497	1514	1449
1399086054717072024	1529	1496	1514	1450
1399086054732036296	1531	1496	1514	1449
1399086054737132261	1531	1497	1514	1449
1399086054752306362	1528	1497	1514	1450
1399086054767308271	1530	1497	1514	1449
1399086054772247125	1531	1497	1514	1449
1399086054782392846	1531	1497	1514	1449
1399086054787042449	1530	1496	1514	1449
1399086054797285039	1529	1496	1514	1449
1399086054802265713	1527	1496	1514	1449
1399086054817389222	1528	1497	1514	1449
1399086054832264960	1528	1496	1514	1449
1399086054837259970	1531	1493	1514	1449
1399086054842261515	1529	1492	1514	1449
1399086054852307364	1531	1493	1514	1449
1399086054862144629	1529	1492	1514	1449
1399086054867119064	1530	1494	1514	1449
1399086054877125373	1530	1493	1514	1448
1399086054887197252	1530	1490	1514	1449
1399086054902202030	1530	1490	1514	1449
1399086054917250953	1530	1491	1514	1449
1399086054922241728	1529	1490	1514	1449
1399086054932062796	1530	1490	1514	1449
1399086054937208854	1529	1492	1514	1448
1399086054952275539	1528	1492	1514	1449
1399086054967185394	1527	1493	1514	1449
1399086054972188841	1529	1491	1514	1449
1399086054987141873	1527	1493	1514	1449
1399086054997321915	1524	1497	1514	1449
1399086055002121461	1524	1497	1514	1449
1399086055017238922	1524	1496	1514	1449
1399086055022287754	1523	1497	1514	1449
1399086055032242066	1523	1496	1514	1449
1399086055037065991	1524	1497	1514	1449
1399086055047290876	1524	1496	1514	1449
1399086055052256454	1523	1496	1514	1449
1399086055067268954	1523	1497	1514	1449
1399086055072233947	1523	1497	1514	1449
1399086055077280313	1522	1496	1514	1449
1399086055087321847	1522	1496	1514	1450
1399086055092280299	1528	1496	1514	1449
1399086055117261397	1527	1495	1514	1449
1399086055122198836	1526	1495	1514	1449
1399086055132290930	1526	1496	1514	1449
1399086055137190598	1527	1495	1514	1449
1399086055147310814	1527	1491	1514	1449
1399086055152252157	1528	1492	1514	1449
1399086055167239204	1527	1491	1514	1449
1399086055182357825	1527	1489	1514	1449
1399086055187240067	1526	1491	1514	1449
1399086055197235581	1527	1492	1514	1449
1399086055202260671	1527	1492	1514	1449
1399086055217265005	1528	1491	1514	1449
1399086055222164714	1527	1491	1514	1449
1399086055232351795	1527	1491	1514	1449
1399086055237255815	1526	1489	1514	1449
1399086055252234858	1527	1489	1514	1449
1399086055267294431	1527	1489	1514	1449
1399086055272258462	1527	1489	1514	1449
1399086055282277054	1526	1488	1514	1449
1399086055287170971	1531	1486	1514	1448
1399086055297165037	1530	1486	1514	1448
1399086055302192520	1530	1485	1514	1448
1399086055312244333	1530	1486	1514	1449
1399086055317195683	1528	1485	1514	1448
1399086055327277493	1529	1485	1514	1448
1399086055337226073	1529	1488	1514	1448
1399086055342164383	1530	1487	1514	1449
1399086055357178920	1529	1487	1514	1448
1399086055367162437	1529	1485	1514	1448
1399086055372140417	1529	1487	1514	1448
1399086055382162190	1529	1486	1514	1448
1399086055387176579	1529	1486	1514	1448
1399086055392088582	1528	1487	1514	1448
1399086055407265575	1527	1486	1514	1448
1399086055417331752	1527	1487	1514	1448
1399086055422234318	1526	1485	1514	1448
1399086055432321592	1527	1485	1514	1448
1399086055437230947	1521	1484	1514	1448
1399086055447268599	1522	1483	1514	1448
1399086055452185106	1522	1483	1514	1448
1399086055467280800	1521	1483	1514	1448
1399086055482241155	1520	1482	1514	1448
1399086055487074859	1521	1481	1514	1448
1399086055497219937	1521	1481	1514	1448
1399086055502280985	1521	1481	1514	1448
1399086055517232844	1521	1481	1514	1448
1399086055532331842	1521	1480	1514	1448
1399086055537199033	1520	1480	1514	1448
1399086055552293806	1521	1482	1514	1448
1399086055562264045	1521	1482	1514	1448
1399086055572322789	1521	1483	1514	1448
1399086055577352329	1520	1481	1514	1448
1399086055592080125	1519	1482	1514	1447
1399086055597289494	1519	1482	1514	1448
1399086055602261213	1519	1482	1514	1448
1399086055617329278	1518	1481	1514	1448
1399086055622243130	1519	1481	1514	1447
1399086055627228100	1519	1481	1514	1448
1399086055642224727	1518	1481	1514	1448
1399086055647206266	1520	1481	1514	1448
1399086055652208347	1519	1480	1514	1447
1399086055667377615	1519	1480	1514	1448
1399086055672195967	1518	1480	1514	1448
1399086055677200695	1519	1479	1514	1447
1399086055687221031	1520	1472	1514	1447
1399086055697232778	1519	1472	1514	1447
1399086055702178326	1520	1471	1514	1448
1399086055717219994	1519	1470	1514	1447
1399086055732180607	1518	1471	1514	1448
1399086055737193702	1518	1467	1514	1447
1399086055747295077	1517	1469	1514	1447
1399086055752211298	1516	1468	1514	1447
1399086055767320592	1518	1468	1514	1447
1399086055772305782	1516	1467	1514	1447
1399086055782080331	1517	1468	1514	1448
1399086055787248870	1516	1467	1514	1447
1399086055797250658	1515	1468	1514	1447
1399086055802249197	1515	1468	1514	1447
1399086055812257571	1514	1467	1514	1447
1399086055827350264	1515	1467	1514	1447
1399086055837171299	1515	1465	1514	1447
1399086055847263963	1516	1472	1514	1447
1399086055852007157	1515	1469	1514	1447
1399086055867229078	1515	1470	1514	1447
1399086055882271982	1515	1469	1514	1447
1399086055887261505	1513	1474	1514	1447
1399086055897272804	1513	1471	1514	1447
1399086055902247771	1513	1473	1514	1447
1399086055912306423	1512	1472	1514	1447
1399086055922039435	1513	1472	1514	1447
1399086055932232129	1512	1473	1514	1447
1399086055937200129	1513	1472	1514	1447
1399086055947291063	1516	1474	1514	1447
1399086055952299188	1515	1471	1514	1446
1399086055967254405	1516	1473	1514	1447
1399086055982422071	1516	1472	1514	1447
1399086055987112532	1516	1475	1514	1446
1399086055997245244	1515	1474	1514	1446
1399086056002286608	1516	1475	1514	1447
1399086056012235024	1515	1477	1514	1447
1399086056022244594	1515	1475	1514	1447
1399086056027290226	1515	1476	1514	1447
1399086056037172198	1517	1475	1514	1447
1399086056042209812	1517	1476	1514	1447
1399086056052289473	1515	1476	1514	1447
1399086056062239943	1517	1475	1514	1447
1399086056072262265	1517	1476	1514	1447
1399086056077200693	1518	1474	1514	1447
1399086056087241428	1514	1472	1514	1447
1399086056092206576	1514	1471	1514	1447
1399086056102225624	1514	1473	1514	1447
1399086056117269195	1513	1473	1514	1447
1399086056122260619	1514	1472	1514	1447
1399086056137330985	1513	1472	1514	1447
1399086056147343568	1509	1470	1514	1447
1399086056157195021	1508	1468	1514	1447
1399086056167123175	1509	1469	1514	1447
1399086056172316062	1509	1470	1514	1447
1399086056182056482	1509	1468	1514	1447
1399086056187241615	1505	1460	1514	1447
1399086056197256896	1505	1459	1514	1447
1399086056202144211	1504	1461	1514	1448
1399086056217237987	1504	1461	1514	1448
1399086056232199577	1503	1459	1514	1447
1399086056247233852	1504	1459	1514	1448
1399086056252191996	1504	1459	1514	1448
1399086056267279476	1504	1460	1514	1448
1399086056272276418	1503	1459	1514	1448
1399086056282267643	1504	1459	1514	1448
1399086056287213720	1502	1462	1514	1448
1399086056297076581	1503	1461	1514	1448
1399086056302266057	1501	1461	1514	1448
1399086056312244571	1502	1462	1514	1448
1399086056317230102	1502	1462	1514	1448
1399086056327281114	1502	1462	1514	1448
1399086056337260097	1502	1461	1514	1448
1399086056347333310	1510	1469	1514	1448
1399086056352267384	1511	1469	1514	1448
1399086056367129962	1510	1469	1514	1448
1399086056377080811	1510	1470	1514	1448
1399086056387153026	1513	1473	1514	1448
1399086056397110319	1513	1473	1514	1448
1399086056402254292	1511	1473	1514	1448
1399086056417287932	1513	1474	1514	1448
1399086056432273804	1512	1474	1514	1448
1399086056437271325	1515	1475	1514	1448
1399086056447226123	1514	1476	1514	1448
1399086056452250516	1515	1477	1514	1448
1399086056467300349	1516	1476	1514	1448
1399086056482240955	1515	1475	1514	1448
1399086056487225213	1517	1477	1514	1448
1399086056497171160	1517	1478	1514	1448
1399086056502209420	1518	1478	1514	1449
1399086056517229162	1517	1479	1514	1448
1399086056522208041	1518	1478	1514	1449
1399086056532059741	1518	1479	1514	1448
1399086056537069412	1509	1474	1514	1448
1399086056547069667	1510	1475	1514	1449
1399086056552016399	1509	1474	1514	1448
1399086056562098989	1511	1474	1514	1449
1399086056577052866	1510	1475	1514	1448
1399086056582018950	1511	1475	1514	1449
1399086056587028266	1509	1478	1514	1449
1399086056597018157	1510	1477	1514	1449
1399086056601929997	1511	1479	1514	1449
1399086056612003959	1510	1478	1514	1449
1399086056621998105	1511	1478	1514	1449
1399086056631984769	1510	1478	1514	1449
1399086056636987130	1509	1470	1514	1449
1399086056647027870	1509	1469	1514	1449
1399086056652002266	1510	1470	1514	1449
1399086056667062962	1510	1470	1514	1449
1399086056682286509	1510	1471	1514	1449
1399086056687276210	1508	1468	1514	1449
1399086056702258115	1509	1470	1514	1449
1399086056717263552	1508	1470	1514	1449
1399086056732250241	1509	1470	1514	1449
1399086056737179050	1508	1471	1514	1449
1399086056747242341	1507	1470	1514	1449
1399086056752119299	1506	1472	1514	1449
1399086056767310884	1506	1471	1514	1449
1399086056772230341	1507	1471	1514	1450
1399086056782341607	1506	1471	1514	1449
1399086056787556054	1506	1468	1514	1449
1399086056797280997	1504	1468	1514	1449
1399086056802308814	1506	1469	1514	1450
1399086056812242506	1505	1468	1514	1449
1399086056817276120	1506	1468	1514	1450
1399086056832302880	1505	1469	1514	1449
1399086056837237122	1511	1471	1514	1450
1399086056842235438	1511	1472	1514	1450
1399086056852256970	1511	1471	1514	1450
1399086056867347148	1511	1472	1514	1450
1399086056872231185	1512	1472	1514	1449
1399086056882311034	1512	1472	1514	1450
1399086056887177484	1517	1473	1514	1450
1399086056902297023	1517	1473	1514	1450
1399086056917239322	1518	1474	1514	1450
1399086056922176523	1518	1473	1514	1450
1399086056932314440	1518	1474	1514	1450
1399086056937321343	1518	1474	1514	1450
1399086056952137519	1524	1478	1514	1450
1399086056967285271	1524	1478	1514	1450
1399086056972248608	1524	1478	1514	1450
1399086056982261029	1525	1478	1514	1450
1399086056987266933	1527	1481	1514	1450
1399086056997320805	1528	1481	1514	1450
1399086057002220982	1528	1481	1514	1450
1399086057012204249	1528	1481	1514	1450
1399086057017189645	1530	1481	1514	1450
1399086057027232209	1530	1481	1514	1450
1399086057042213748	1531	1485	1514	1450
1399086057052287301	1532	1485	1514	1450
1399086057062264534	1532	1485	1514	1450
1399086057067233453	1532	1485	1514	1450
1399086057077250315	1533	1484	1514	1450
1399086057092066424	1528	1484	1514	1450
1399086057097274557	1529	1485	1514	1450
1399086057102228844	1528	1484	1514	1450
1399086057117275610	1529	1486	1514	1450
1399086057122273092	1529	1485	1514	1450
1399086057132247646	1530	1486	1514	1450
1399086057137270275	1530	1486	1514	1450
1399086057147272432	1522	1471	1514	1451
1399086057152265394	1522	1471	1514	1450
1399086057167324612	1523	1471	1514	1450
1399086057182311188	1523	1470	1514	1450
1399086057187268665	1524	1471	1514	1450
1399086057197256271	1524	1470	1514	1450
1399086057202238742	1524	1470	1514	1450
1399086057217251892	1524	1471	1514	1450
1399086057222234572	1525	1470	1514	1450
1399086057232361652	1526	1470	1514	1450
1399086057237246200	1524	1469	1514	1451
1399086057247270084	1524	1469	1514	1450
1399086057252270669	1525	1467	1514	1450
1399086057262168699	1525	1467	1514	1450
1399086057282302094	1527	1468	1514	1450
1399086057287076066	1526	1473	1514	1450
1399086057297268525	1527	1472	1514	1450
1399086057302254951	1526	1472	1514	1450
1399086057312300651	1528	1473	1514	1450
1399086057317239099	1528	1472	1514	1450
1399086057332363671	1530	1472	1514	1450
1399086057337102063	1527	1469	1514	1450
1399086057347319836	1527	1470	1514	1450
1399086057352285599	1528	1470	1514	1450
1399086057367244262	1528	1470	1514	1451
1399086057372197853	1529	1471	1514	1450
1399086057382334738	1530	1468	1514	1450
1399086057387229085	1536	1472	1514	1450
1399086057397332934	1536	1473	1514	1450
1399086057402197790	1536	1473	1514	1451
1399086057417267409	1538	1473	1514	1450
1399086057432302101	1537	1473	1514	1450
1399086057437254995	1541	1474	1514	1450
1399086057447068525	1541	1475	1514	1450
1399086057452276119	1542	1475	1514	1450
1399086057467311630	1542	1474	1514	1450
1399086057477257702	1543	1476	1514	1450
1399086057487271657	1542	1475	1514	1450
1399086057492309661	1545	1484	1514	1450
1399086057517293206	1545	1485	1514	1450
1399086057522335045	1545	1485	1514	1450
1399086057527243120	1545	1485	1514	1450
1399086057537314813	1546	1485	1514	1450
1399086057542263376	1542	1490	1514	1450
1399086057557300641	1543	1491	1514	1450
1399086057567297171	1542	1490	1514	1450
1399086057582273591	1543	1492	1514	1450
1399086057587204334	1544	1490	1514	1450
1399086057597281873	1539	1484	1514	1449
1399086057602242835	1539	1483	1514	1450
1399086057617340417	1539	1484	1514	1450
1399086057622251035	1539	1483	1514	1449
1399086057627239688	1541	1483	1514	1450
1399086057637321695	1535	1485	1514	1449
1399086057647266603	1536	1484	1514	1450
1399086057652185342	1536	1485	1514	1450
1399086057667322677	1535	1484	1514	1450
1399086057682284944	1536	1485	1514	1449
1399086057687262549	1531	1482	1514	1450
1399086057697107929	1531	1483	1514	1449
1399086057702210297	1529	1483	1514	1450
1399086057712013615	1531	1483	1514	1449
1399086057732339441	1530	1483	1514	1449
1399086057737202060	1530	1477	1514	1449
1399086057747033334	1530	1478	1514	1450
1399086057752359186	1530	1477	1514	1449
1399086057762287059	1530	1478	1514	1449
1399086057767223315	1531	1479	1514	1450
1399086057777259915	1529	1479	1514	1450
1399086057787297737	1525	1475	1514	1450
1399086057797045674	1524	1476	1514	1449
1399086057802305369	1523	1476	1514	1450
1399086057827271202	1523	1476	1514	1450
1399086057832301645	1523	1476	1514	1450
1399086057837219007	1540	1482	1514	1450
1399086057847260539	1541	1481	1514	1450
1399086057852262631	1540	1482	1514	1450
1399086057862286033	1539	1482	1514	1450
1399086057872301164	1539	1482	1514	1450
1399086057882303918	1538	1482	1514	1450
1399086057887312481	1539	1479	1514	1450
1399086057897094015	1538	1479	1514	1450
1399086057902237952	1537	1477	1514	1450
1399086057917272305	1537	1478	1514	1450
1399086057932266256	1537	1478	1514	1450
1399086057937309335	1536	1479	1514	1450
1399086057947300345	1537	1473	1514	1450
1399086057952279537	1539	1474	1514	1450
1399086057967086675	1537	1474	1514	1450
1399086057972142646	1537	1474	1514	1450
1399086057982057576	1537	1474	1514	1450
1399086057986948068	1537	1474	1514	1450
1399086057991993480	1539	1477	1514	1450
1399086058002325583	1538	1477	1514	1450
1399086058012239060	1538	1477	1514	1450
1399086058027271247	1537	1477	1514	1450
1399086058037302753	1542	1480	1514	1450
1399086058042215150	1541	1480	1514	1450
1399086058052271670	1541	1481	1514	1450
1399086058062325488	1540	1481	1514	1450
1399086058067305366	1540	1481	1514	1451
1399086058082063595	1540	1480	1514	1450
1399086058087248023	1536	1483	1514	1451
1399086058102213849	1535	1483	1514	1451
1399086058117229708	1535	1483	1514	1451
1399086058122132533	1534	1483	1514	1451
1399086058132280392	1535	1483	1514	1451
1399086058137263349	1526	1488	1514	1451
1399086058152272675	1526	1489	1514	1451
1399086058167298901	1525	1489	1514	1451
1399086058172130987	1525	1489	1514	1451
1399086058182271329	1524	1489	1514	1451
1399086058187317747	1524	1488	1514	1451
1399086058202254959	1523	1489	1514	1451
1399086058212258657	1522	1489	1514	1451
1399086058222266980	1521	1490	1514	1451
1399086058227213649	1521	1489	1514	1451
1399086058237284734	1520	1488	1514	1452
1399086058242009658	1519	1488	1514	1451
1399086058262324237	1518	1489	1514	1452
1399086058272374164	1518	1488	1514	1452
1399086058277128585	1517	1489	1514	1452
1399086058287267970	1513	1491	1514	1452
1399086058297291952	1513	1492	1514	1452
1399086058302249545	1513	1491	1514	1452
1399086058317219481	1512	1491	1514	1452
1399086058327263842	1510	1491	1514	1452
1399086058337275419	1511	1491	1514	1452
1399086058346992559	1510	1496	1514	1453
1399086058352277213	1510	1493	1514	1452
1399086058367037567	1508	1494	1514	1453
1399086058382277277	1509	1494	1514	1453
1399086058387255428	1507	1495	1514	1453
1399086058397256818	1512	1490	1514	1453
1399086058402001533	1512	1491	1514	1453
1399086058417318936	1510	1491	1514	1453
1399086058432393482	1509	1492	1514	1454
1399086058437178989	1516	1489	1514	1454
1399086058447278058	1515	1490	1514	1453
1399086058452261332	1514	1490	1514	1454
1399086058467301288	1513	1490	1514	1454
1399086058482081321	1513	1490	1514	1454
1399086058487221854	1523	1492	1514	1454
1399086058497326813	1523	1489	1514	1454
1399086058502211766	1523	1491	1514	1454
1399086058512298084	1522	1490	1514	1454
1399086058522229927	1522	1491	1514	1454
1399086058527230788	1521	1490	1514	1454
1399086058537351941	1521	1492	1514	1455
1399086058547296241	1523	1493	1514	1455
1399086058552300567	1523	1491	1514	1454
1399086058562055776	1522	1492	1514	1455
1399086058572075188	1521	1493	1514	1455
1399086058582111765	1522	1490	1514	1455
1399086058587271753	1511	1496	1514	1455
1399086058597240781	1512	1495	1514	1455
1399086058602285210	1512	1496	1514	1455
1399086058617012379	1511	1495	1514	1455
1399086058636994179	1515	1492	1514	1455
1399086058647052507	1515	1493	1514	1455
1399086058652000031	1514	1493	1514	1455
1399086058667005751	1515	1493	1514	1455
1399086058671966115	1513	1492	1514	1455
1399086058682065498	1513	1492	1514	1456
1399086058687057501	1507	1486	1514	1455
1399086058692009541	1506	1487	1514	1456
1399086058717043349	1506	1485	1514	1456
1399086058721983683	1506	1485	1514	1456
1399086058731997955	1505	1486	1514	1456
1399086058736940006	1506	1486	1514	1456
1399086058747136633	1505	1481	1514	1456
1399086058752029653	1504	1481	1514	1456
1399086058761995661	1505	1481	1514	1457
1399086058767138282	1504	1480	1514	1456
1399086058777108766	1506	1481	1514	1456
1399086058787184123	1499	1488	1514	1456
1399086058797186633	1499	1487	1514	1456
1399086058802131629	1501	1486	1514	1456
1399086058812130055	1500	1487	1514	1457
1399086058822164574	1501	1486	1514	1457
1399086058832150769	1500	1486	1514	1456
1399086058837151576	1505	1484	1514	1457
1399086058847164420	1504	1484	1514	1457
1399086058852209259	1505	1484	1514	1457
1399086058867213579	1505	1483	1514	1457
1399086058882361521	1506	1483	1514	1457
1399086058887294402	1511	1485	1514	1457
1399086058897204440	1511	1484	1514	1457
1399086058902348382	1511	1485	1514	1457
1399086058917047745	1512	1485	1514	1457
1399086058932260822	1511	1484	1514	1457
1399086058937247938	1514	1482	1514	1457
1399086058947235418	1512	1482	1514	1457
1399086058952290405	1514	1482	1514	1457
1399086058967298618	1514	1482	1514	1457
1399086058977328526	1514	1482	1514	1458
1399086058992256282	1515	1485	1514	1457
1399086059002243140	1516	1485	1514	1457
1399086059017281440	1516	1484	1514	1457
1399086059027312666	1518	1483	1514	1457
1399086059037194430	1520	1485	1514	1458
1399086059042205606	1522	1484	1514	1457
1399086059052362511	1522	1484	1514	1458
1399086059067248858	1522	1483	1514	1457
1399086059072265088	1524	1483	1514	1458
1399086059087309605	1517	1483	1514	1458
1399086059102332421	1518	1483	1514	1458
1399086059117197801	1520	1483	1514	1458
1399086059122300744	1520	1483	1514	1458
1399086059137320186	1521	1481	1514	1458
1399086059152308759	1526	1478	1514	1458
1399086059162084139	1528	1477	1514	1458
1399086059182262475	1528	1477	1514	1458
1399086059187279831	1524	1468	1514	1458
1399086059197261747	1524	1469	1514	1458
1399086059202260120	1526	1468	1514	1458
1399086059212266882	1525	1467	1514	1458
1399086059227246460	1527	1467	1514	1458
1399086059237054049	1528	1463	1514	1458
1399086059247100450	1527	1462	1514	1458
1399086059252060620	1528	1461	1514	1458
1399086059262005443	1529	1461	1514	1458
1399086059267018368	1528	1461	1514	1458
1399086059277068767	1532	1460	1514	1458
1399086059286950921	1519	1462	1514	1458
1399086059297042550	1521	1463	1514	1459
1399086059301970202	1522	1461	1514	1458
1399086059317048633	1523	1462	1514	1458
1399086059326985459	1523	1461	1514	1458
1399086059337011500	1523	1460	1514	1458
1399086059346993829	1520	1462	1514	1458
1399086059352050505	1520	1463	1514	1459
1399086059366972241	1520	1461	1514	1458
1399086059371994140	1520	1461	1514	1458
1399086059381990569	1521	1460	1514	1458
1399086059386942045	1518	1463	1514	1458
1399086059396983730	1519	1464	1514	1458
1399086059401963763	1520	1462	1514	1458
1399086059417113882	1520	1462	1514	1459
1399086059432214757	1521	1461	1514	1458
1399086059437185758	1521	1461	1514	1458
1399086059462246526	1525	1472	1514	1458
1399086059467306726	1526	1472	1514	1458
1399086059482209907	1526	1471	1514	1458
1399086059487278824	1523	1475	1514	1458
1399086059497244957	1523	1475	1514	1458
1399086059502202270	1524	1475	1514	1458
1399086059512207637	1524	1474	1514	1458
1399086059527269614	1525	1474	1514	1458
1399086059532358094	1524	1474	1514	1458
1399086059537258051	1525	1474	1514	1458
1399086059547289045	1525	1474	1514	1457
1399086059551991293	1537	1466	1514	1458
1399086059562252870	1535	1466	1514	1457
1399086059572257039	1537	1465	1514	1457
1399086059582230450	1537	1466	1514	1457
1399086059587009455	1539	1466	1514	1457
1399086059597183815	1540	1465	1514	1457
1399086059602242492	1539	1464	1514	1457
1399086059617197129	1540	1465	1514	1457
1399086059632210813	1540	1464	1514	1456
1399086059637213293	1547	1455	1514	1457
1399086059647234163	1549	1454	1514	1456
1399086059652205782	1550	1454	1514	1456
1399086059667301266	1548	1454	1514	1456
1399086059672229186	1549	1455	1514	1456
1399086059682245062	1549	1453	1514	1456
1399086059687256491	1550	1452	1514	1456
1399086059697249571	1551	1452	1514	1455
1399086059702240216	1550	1452	1514	1456
1399086059717320769	1552	1452	1514	1455
1399086059727305146	1552	1452	1514	1455
1399086059737351967	1553	1451	1514	1455
1399086059742253216	1552	1450	1514	1455
1399086059757256293	1550	1453	1514	1455
1399086059767257132	1551	1451	1514	1455
1399086059772248125	1551	1451	1514	1454
1399086059782120217	1550	1453	1514	1455
1399086059787255749	1549	1451	1514	1454
1399086059797301950	1551	1451	1514	1454
1399086059802271428	1550	1452	1514	1455
1399086059817261794	1551	1452	1514	1454
1399086059822219314	1551	1451	1514	1454
1399086059837290940	1551	1451	1514	1454
1399086059847222587	1547	1454	1514	1454
1399086059852210886	1548	1452	1514	1453
1399086059867280300	1549	1454	1514	1454
1399086059872252366	1549	1453	1514	1454
1399086059882226436	1549	1452	1514	1453
1399086059897203835	1546	1454	1514	1454
1399086059902092737	1547	1453	1514	1453
1399086059917247829	1548	1455	1514	1453
1399086059922225656	1547	1452	1514	1453
1399086059932306257	1546	1455	1514	1453
1399086059937235174	1549	1454	1514	1452
1399086059947198506	1541	1458	1514	1453
1399086059952239978	1542	1458	1514	1452
1399086059962282037	1541	1457	1514	1453
1399086059972345284	1542	1458	1514	1452
1399086059976963252	1542	1458	1514	1453
1399086059987183594	1550	1458	1514	1453
1399086060002035770	1550	1458	1514	1452
1399086060012172106	1550	1461	1514	1452
1399086060022162470	1552	1458	1514	1452
1399086060032210146	1549	1459	1514	1452
1399086060037196436	1553	1466	1514	1452
1399086060052170834	1552	1467	1514	1452
1399086060067385572	1550	1467	1514	1453
1399086060072183210	1553	1468	1514	1452
1399086060087209807	1555	1474	1514	1452
1399086060097209740	1553	1474	1514	1452
1399086060102055892	1554	1475	1514	1452
1399086060117232455	1554	1476	1514	1452
1399086060122233789	1552	1475	1514	1452
1399086060132303720	1552	1475	1514	1452
1399086060137020169	1553	1479	1514	1452
1399086060146937107	1551	1481	1514	1452
1399086060152241644	1550	1482	1514	1452
1399086060162242734	1549	1484	1514	1452
1399086060172308398	1550	1485	1514	1452
1399086060177151945	1548	1484	1514	1452
1399086060187261654	1553	1479	1514	1452
1399086060192165144	1551	1482	1514	1452
1399086060202135495	1552	1482	1514	1452
1399086060212251093	1551	1483	1514	1452
1399086060227227554	1551	1483	1514	1452
1399086060232168907	1551	1484	1514	1452
1399086060236967212	1547	1483	1514	1452
1399086060247204431	1547	1484	1514	1452
1399086060252103076	1548	1484	1514	1452
1399086060262217108	1546	1483	1514	1452
1399086060272145713	1546	1485	1514	1452
1399086060282082439	1544	1487	1514	1452
1399086060286920262	1540	1473	1514	1452
1399086060292247187	1540	1474	1514	1452
1399086060302188395	1538	1473	1514	1452
1399086060317280082	1538	1475	1514	1452
1399086060322202042	1537	1474	1514	1452
1399086060332252630	1537	1475	1514	1452
1399086060337208099	1536	1476	1514	1452
1399086060347239748	1528	1473	1514	1452
1399086060352199886	1528	1473	1514	1452
1399086060367231043	1526	1474	1514	1452
1399086060382138610	1525	1475	1514	1452
1399086060387205255	1534	1474	1514	1452
1399086060397226606	1533	1474	1514	1452
1399086060402200578	1531	1474	1514	1452
1399086060417267760	1531	1475	1514	1452
1399086060432329179	1531	1475	1514	1452
1399086060437045846	1530	1474	1514	1452
1399086060442129698	1530	1474	1514	1452
1399086060452205456	1529	1475	1514	1452
1399086060462245040	1529	1475	1514	1451
1399086060467225108	1527	1475	1514	1452
1399086060482196174	1526	1476	1514	1451
1399086060487232442	1537	1480	1514	1452
1399086060492255938	1536	1481	1514	1452
1399086060507309550	1535	1481	1514	1451
1399086060517229688	1534	1482	1514	1451
1399086060522234004	1534	1480	1514	1451
1399086060532495446	1533	1483	1514	1451
1399086060537217086	1533	1482	1514	1451
1399086060542123720	1533	1480	1514	1452
1399086060552327790	1535	1480	1514	1451
1399086060567261075	1532	1479	1514	1451
1399086060572210534	1532	1480	1514	1452
1399086060587246222	1530	1488	1514	1451
1399086060597323181	1530	1487	1514	1451
1399086060602257842	1528	1490	1514	1451
1399086060617320017	1527	1489	1514	1451
1399086060632245110	1528	1490	1514	1451
1399086060637063353	1531	1487	1514	1451
1399086060642217014	1531	1487	1514	1451
1399086060652267836	1532	1487	1514	1451
1399086060662244664	1528	1487	1514	1451
1399086060672209511	1530	1488	1514	1451
1399086060682188090	1529	1487	1514	1451
1399086060687204608	1532	1488	1514	1451
1399086060697228846	1532	1487	1514	1451
1399086060702181406	1531	1488	1514	1451
1399086060712213685	1530	1488	1514	1451
1399086060717198080	1530	1486	1514	1450
1399086060727216175	1530	1487	1514	1451
1399086060742214081	1522	1493	1514	1451
1399086060747224174	1523	1493	1514	1451
1399086060752319566	1522	1494	1514	1451
1399086060767378403	1520	1494	1514	1451
1399086060782292305	1521	1493	1514	1451
1399086060787159955	1520	1494	1514	1451
1399086060797240005	1517	1493	1514	1451
1399086060802273647	1516	1492	1514	1451
1399086060817319322	1514	1492	1514	1451
1399086060832390202	1514	1493	1514	1451
1399086060837053179	1503	1492	1514	1451
1399086060847237660	1501	1491	1514	1451
1399086060852254693	1501	1490	1514	1450
1399086060867247586	1501	1492	1514	1451
1399086060877227283	1501	1492	1514	1451
1399086060887280288	1498	1492	1514	1451
1399086060892228657	1500	1490	1514	1451
1399086060902236438	1500	1492	1514	1451
1399086060912255897	1501	1490	1514	1450
1399086060917277074	1499	1490	1514	1450
1399086060927224125	1500	1490	1514	1450
1399086060937123555	1500	1489	1514	1450
1399086060942286824	1507	1495	1514	1450
1399086060952354654	1506	1493	1514	1450
1399086060962274313	1507	1494	1514	1450
1399086060967310813	1506	1494	1514	1450
1399086060982331600	1506	1494	1514	1450
1399086060987165690	1509	1489	1514	1450
1399086060992318997	1510	1491	1514	1450
1399086061002302494	1510	1491	1514	1450
1399086061017319533	1509	1490	1514	1450
1399086061032334316	1509	1490	1514	1450
1399086061037244894	1514	1488	1514	1450
1399086061047312552	1513	1486	1514	1449
1399086061052270777	1514	1486	1514	1449
1399086061067248376	1514	1486	1514	1449
1399086061072172431	1514	1487	1514	1449
1399086061082216362	1513	1487	1514	1449
1399086061087234703	1516	1490	1514	1449
1399086061102211517	1515	1489	1514	1449
1399086061117213837	1516	1490	1514	1449
1399086061122205311	1517	1489	1514	1449
1399086061132252077	1515	1488	1514	1449
1399086061137193294	1507	1494	1514	1449
1399086061162308683	1506	1493	1514	1449
1399086061172204230	1506	1492	1514	1448
1399086061177262889	1506	1494	1514	1449
1399086061187296513	1508	1490	1514	1449
1399086061192229565	1509	1490	1514	1448
1399086061212162760	1507	1490	1514	1449
1399086061217157331	1508	1489	1514	1448
1399086061232272703	1508	1489	1514	1449
1399086061237258494	1498	1489	1514	1448
1399086061242185826	1498	1485	1514	1448
1399086061257209183	1499	1488	1514	1449
1399086061267323318	1497	1487	1514	1448
1399086061272197717	1499	1487	1514	1449
1399086061282215940	1498	1486	1514	1448
1399086061287226125	1497	1486	1514	1449
1399086061302236280	1492	1483	1514	1448
1399086061317282547	1492	1484	1514	1449
