#Time	 Roll 	 Pitch 	 Yaw 	 Thrust
1399086276459276972	1520	1516	1926	1105
1399086276559617384	1520	1516	1926	1105
1399086276659881597	1520	1516	1926	1105
1399086276760147186	1520	1516	1926	1105
1399086276860402372	1520	1516	1926	1105
1399086276960668775	1520	1516	1926	1105
1399086277060919867	1520	1516	1926	1105
1399086277161170097	1520	1516	1513	1105
1399086284817950687	1505	1523	1514	1417
1399086284833042443	1506	1523	1514	1417
1399086284837797655	1505	1524	1514	1418
1399086284852997668	1506	1523	1514	1418
1399086284867834725	1506	1524	1514	1418
1399086284893026919	1506	1524	1514	1418
1399086284903005329	1506	1524	1514	1418
1399086284917900833	1506	1524	1514	1418
1399086284927821107	1506	1523	1514	1418
1399086284943083933	1506	1524	1514	1419
1399086284947950514	1506	1523	1514	1418
1399086284952890891	1506	1523	1514	1418
1399086284967867993	1505	1524	1514	1419
1399086284982866552	1506	1524	1514	1419
1399086284987904687	1505	1524	1514	1419
1399086284992753389	1506	1524	1514	1419
1399086285002670081	1505	1524	1514	1419
1399086285017811684	1506	1524	1514	1419
1399086285032831397	1506	1524	1514	1419
1399086285037691399	1506	1523	1514	1419
1399086285047770866	1506	1524	1514	1420
1399086285052868497	1506	1524	1514	1419
1399086285067717057	1506	1523	1514	1420
1399086285082716419	1506	1523	1514	1420
1399086285087691770	1506	1524	1514	1420
1399086285097740667	1506	1523	1514	1420
1399086285102690277	1506	1523	1514	1420
1399086285112641065	1506	1523	1514	1420
1399086285117708713	1506	1523	1514	1420
1399086285127764292	1507	1524	1514	1420
1399086285137722410	1506	1524	1514	1420
1399086285142691932	1506	1524	1514	1420
1399086285152749719	1506	1524	1514	1420
1399086285162750591	1507	1523	1514	1420
1399086285172734920	1506	1523	1514	1420
1399086285182724665	1507	1523	1514	1420
1399086285187695354	1507	1523	1514	1420
1399086285197686911	1507	1524	1514	1421
1399086285202664544	1507	1523	1514	1421
1399086285217750250	1506	1523	1514	1421
1399086285227756620	1507	1524	1514	1421
1399086285237771127	1506	1523	1514	1421
1399086285247656817	1506	1523	1514	1421
1399086285252725179	1506	1524	1514	1421
1399086285262746129	1505	1524	1514	1421
1399086285267717213	1505	1524	1514	1421
1399086285282975740	1505	1523	1514	1421
1399086285287950777	1506	1524	1514	1422
1399086285297984644	1506	1523	1514	1421
1399086285302937310	1505	1523	1514	1422
1399086285317943090	1506	1522	1514	1422
1399086285332959317	1505	1522	1514	1422
1399086285337885373	1506	1523	1514	1423
1399086285343018181	1505	1522	1514	1422
1399086285352922241	1507	1523	1514	1422
1399086285362877439	1507	1522	1514	1422
1399086285367740124	1508	1521	1514	1422
1399086285377913683	1508	1523	1514	1423
1399086285387882955	1507	1522	1514	1422
1399086285392690321	1508	1523	1514	1423
1399086285402828556	1507	1522	1514	1423
1399086285412966994	1509	1521	1514	1423
1399086285417911774	1508	1521	1514	1423
1399086285438076509	1509	1521	1514	1423
1399086285452779537	1509	1521	1514	1423
1399086285462776360	1509	1519	1514	1423
1399086285472771102	1508	1520	1514	1423
1399086285482736837	1509	1520	1514	1423
1399086285487720955	1509	1520	1514	1423
1399086285497747865	1510	1521	1514	1423
1399086285502761191	1509	1520	1514	1424
1399086285517690407	1511	1519	1514	1423
1399086285532779159	1512	1520	1514	1423
1399086285537738050	1512	1520	1514	1423
1399086285547749955	1512	1520	1514	1424
1399086285552700239	1513	1521	1514	1423
1399086285562717227	1516	1521	1514	1424
1399086285567641633	1517	1521	1514	1424
1399086285577743709	1516	1521	1514	1424
1399086285597727187	1517	1521	1514	1424
1399086285602640102	1517	1520	1514	1424
1399086285612731156	1517	1522	1514	1424
1399086285617716312	1517	1520	1514	1423
1399086285627729564	1523	1522	1514	1424
1399086285642737764	1521	1520	1514	1423
1399086285647725754	1521	1522	1514	1423
1399086285652712536	1522	1520	1514	1423
1399086285667714895	1523	1518	1514	1423
1399086285682747694	1523	1517	1514	1424
1399086285687697641	1525	1518	1514	1424
1399086285692689267	1522	1517	1514	1424
1399086285702682843	1524	1519	1514	1424
1399086285717732249	1525	1516	1514	1424
1399086285732680149	1524	1516	1514	1423
1399086285737601659	1526	1515	1514	1424
1399086285747719622	1525	1516	1514	1424
1399086285752710501	1525	1514	1514	1424
1399086285767955550	1527	1510	1514	1425
1399086285782943754	1527	1510	1514	1426
1399086285787976234	1526	1508	1514	1424
1399086285793001750	1527	1508	1514	1425
1399086285803000781	1526	1508	1514	1425
1399086285813051378	1526	1507	1514	1426
1399086285817938730	1526	1508	1514	1426
1399086285828000754	1524	1498	1514	1425
1399086285838047788	1524	1499	1514	1426
1399086285847801841	1525	1498	1514	1426
1399086285853014289	1524	1499	1514	1427
1399086285878037863	1525	1494	1514	1426
1399086285888044121	1525	1495	1514	1426
1399086285902955096	1525	1495	1514	1426
1399086285918037264	1528	1493	1514	1427
1399086285927967805	1528	1492	1514	1427
1399086285937958712	1527	1493	1514	1426
1399086285948026074	1527	1493	1514	1427
1399086285952981347	1527	1494	1514	1427
1399086285968024134	1527	1491	1514	1427
1399086285987830805	1526	1491	1514	1427
1399086285997920368	1527	1493	1514	1427
1399086286002891909	1526	1493	1514	1427
1399086286017961049	1526	1492	1514	1427
1399086286027629665	1527	1493	1514	1427
1399086286038002975	1527	1493	1514	1427
1399086286042854726	1527	1493	1514	1427
1399086286053000088	1526	1492	1514	1427
1399086286062941322	1525	1494	1514	1427
1399086286067945672	1524	1493	1514	1427
1399086286077910673	1525	1495	1514	1427
1399086286087971498	1524	1494	1514	1427
1399086286092967569	1524	1493	1514	1427
1399086286112892307	1523	1493	1514	1426
1399086286117856469	1518	1494	1514	1427
1399086286132988334	1517	1493	1514	1426
1399086286137992290	1519	1493	1514	1426
1399086286148031352	1518	1493	1514	1426
1399086286152957301	1519	1491	1514	1426
1399086286162997663	1513	1491	1514	1426
1399086286167897568	1513	1490	1514	1426
1399086286182983922	1515	1490	1514	1426
1399086286187875209	1514	1489	1514	1426
1399086286197968969	1515	1490	1514	1427
1399086286202927969	1515	1489	1514	1426
1399086286212997140	1516	1489	1514	1427
1399086286217672450	1514	1489	1514	1426
1399086286233001454	1513	1484	1514	1426
1399086286237909355	1512	1485	1514	1426
1399086286248005793	1511	1482	1514	1425
1399086286252897765	1512	1484	1514	1426
1399086286267980807	1516	1484	1514	1426
1399086286283011126	1516	1484	1514	1426
1399086286287915122	1517	1483	1514	1426
1399086286297983758	1516	1484	1514	1426
1399086286302954612	1516	1483	1514	1426
1399086286312965788	1521	1486	1514	1426
1399086286317895555	1521	1485	1514	1426
1399086286327856975	1521	1484	1514	1426
1399086286338004202	1520	1483	1514	1425
1399086286342998486	1521	1484	1514	1427
1399086286353055214	1520	1483	1514	1426
1399086286367943396	1517	1483	1514	1426
1399086286377807584	1517	1482	1514	1427
1399086286387939286	1516	1480	1514	1427
1399086286392875609	1517	1481	1514	1427
1399086286403024811	1517	1481	1514	1428
1399086286417699950	1517	1485	1514	1428
1399086286433000973	1518	1483	1514	1427
1399086286437963286	1518	1483	1514	1428
1399086286453032082	1519	1482	1514	1427
1399086286468056198	1516	1479	1514	1427
1399086286483002720	1517	1479	1514	1428
1399086286487962812	1516	1479	1514	1428
1399086286503040194	1515	1477	1514	1428
1399086286518025933	1518	1473	1514	1427
1399086286527988936	1518	1473	1514	1427
1399086286537997399	1518	1473	1514	1428
1399086286542934782	1518	1473	1514	1427
1399086286553022257	1519	1472	1514	1427
1399086286562991320	1516	1469	1514	1429
1399086286578013235	1515	1467	1514	1428
1399086286587845443	1514	1465	1514	1426
1399086286592918302	1515	1467	1514	1428
1399086286602713257	1515	1467	1514	1428
1399086286612843299	1516	1467	1514	1429
1399086286617966187	1514	1470	1514	1429
1399086286627776641	1515	1470	1514	1429
1399086286642996997	1515	1469	1514	1428
1399086286647873578	1514	1468	1514	1427
1399086286652930770	1514	1468	1514	1428
1399086286667975280	1517	1473	1514	1428
1399086286677900904	1517	1473	1514	1429
1399086286687950165	1518	1473	1514	1429
1399086286697894788	1517	1471	1514	1428
1399086286703212609	1516	1471	1514	1428
1399086286718060778	1523	1471	1514	1429
1399086286733012402	1525	1471	1514	1430
1399086286737940816	1521	1470	1514	1429
1399086286747973009	1524	1470	1514	1430
1399086286753119812	1522	1469	1514	1429
1399086286768077223	1523	1474	1514	1430
1399086286782917313	1523	1473	1514	1430
1399086286787879277	1523	1473	1514	1430
1399086286797909564	1522	1473	1514	1430
1399086286802926558	1522	1472	1514	1429
1399086286817919647	1525	1474	1514	1430
1399086286827926704	1524	1474	1514	1430
1399086286837922547	1525	1473	1514	1431
1399086286842854660	1525	1472	1514	1430
1399086286852920727	1525	1473	1514	1431
1399086286862862254	1521	1473	1514	1430
1399086286872967417	1521	1475	1514	1431
1399086286882934736	1521	1474	1514	1430
1399086286887859870	1521	1475	1514	1432
1399086286897940446	1522	1474	1514	1431
1399086286903042193	1523	1472	1514	1431
1399086286912813425	1521	1472	1514	1432
1399086286922957312	1523	1471	1514	1432
1399086286932968394	1521	1471	1514	1431
1399086286937962216	1522	1472	1514	1432
1399086286948034443	1521	1471	1514	1431
1399086286952980124	1522	1469	1514	1431
1399086286963037234	1521	1475	1514	1432
1399086286967926286	1520	1474	1514	1432
1399086286982948086	1521	1474	1514	1432
1399086286987979877	1521	1474	1514	1432
1399086286998003021	1521	1473	1514	1432
1399086287002963048	1520	1473	1514	1432
1399086287017860597	1526	1474	1514	1432
1399086287032918303	1527	1474	1514	1433
1399086287038004028	1527	1474	1514	1433
1399086287047968403	1526	1474	1514	1432
1399086287052749365	1527	1473	1514	1432
1399086287062991191	1527	1470	1514	1433
1399086287068009564	1529	1470	1514	1433
1399086287077974184	1528	1469	1514	1433
1399086287087826788	1528	1471	1514	1433
1399086287092962348	1528	1469	1514	1433
1399086287102894620	1527	1469	1514	1433
1399086287112784084	1526	1472	1514	1433
1399086287117908113	1525	1473	1514	1433
1399086287133012529	1526	1472	1514	1433
1399086287137924225	1525	1473	1514	1434
1399086287142920818	1526	1472	1514	1433
1399086287152979028	1526	1472	1514	1433
1399086287168076582	1527	1473	1514	1434
1399086287183039752	1523	1474	1514	1433
1399086287187937497	1523	1476	1514	1433
1399086287193007158	1523	1474	1514	1434
1399086287203030478	1522	1475	1514	1433
1399086287217979606	1525	1479	1514	1434
1399086287233006054	1524	1479	1514	1433
1399086287237941217	1525	1480	1514	1434
1399086287247709440	1526	1479	1514	1433
1399086287253027486	1526	1480	1514	1434
1399086287267998163	1523	1477	1514	1433
1399086287282947359	1522	1479	1514	1433
1399086287287942981	1525	1478	1514	1433
1399086287297665281	1523	1478	1514	1433
1399086287302932860	1523	1477	1514	1432
1399086287313079676	1526	1478	1514	1434
1399086287318000060	1525	1476	1514	1433
1399086287328050636	1526	1478	1514	1434
1399086287337906766	1525	1477	1514	1434
1399086287342922999	1526	1477	1514	1434
1399086287352936413	1524	1477	1514	1433
1399086287362971608	1528	1479	1514	1433
1399086287367936479	1526	1480	1514	1433
1399086287377942407	1528	1481	1514	1433
1399086287387948481	1528	1482	1514	1434
1399086287398031064	1528	1481	1514	1434
1399086287402964009	1528	1481	1514	1434
1399086287418038796	1526	1482	1514	1433
1399086287433114883	1527	1482	1514	1434
1399086287437842428	1527	1483	1514	1434
1399086287447942494	1527	1482	1514	1434
1399086287452969784	1527	1483	1514	1434
1399086287468015054	1530	1476	1514	1434
1399086287483090726	1530	1477	1514	1434
1399086287487981075	1531	1478	1514	1434
1399086287497972962	1532	1478	1514	1435
1399086287502922572	1532	1478	1514	1435
1399086287518005240	1532	1477	1514	1434
1399086287532786621	1532	1478	1514	1435
1399086287537672970	1532	1478	1514	1435
1399086287542683284	1532	1478	1514	1435
1399086287552721372	1533	1478	1514	1435
1399086287562742785	1530	1478	1514	1435
1399086287577689735	1531	1477	1514	1436
1399086287587760833	1532	1478	1514	1436
1399086287592737779	1531	1476	1514	1436
1399086287602729370	1531	1477	1514	1436
1399086287612747946	1532	1473	1514	1436
1399086287622696163	1532	1474	1514	1437
1399086287632744330	1532	1475	1514	1437
1399086287637731176	1532	1474	1514	1437
1399086287647725525	1532	1475	1514	1437
1399086287652703555	1532	1474	1514	1437
1399086287667750958	1529	1473	1514	1437
1399086287682751811	1530	1473	1514	1437
1399086287687916997	1528	1472	1514	1437
1399086287697714394	1530	1474	1514	1438
1399086287702976395	1529	1473	1514	1437
1399086287717982236	1528	1475	1514	1438
1399086287733046766	1530	1474	1514	1438
1399086287737964342	1528	1475	1514	1438
1399086287747964857	1529	1474	1514	1437
1399086287752993666	1529	1475	1514	1438
1399086287768032355	1528	1479	1514	1438
1399086287778006753	1527	1479	1514	1438
1399086287787965684	1527	1478	1514	1437
1399086287793014321	1526	1478	1514	1437
1399086287803024735	1527	1479	1514	1437
1399086287813013790	1528	1481	1514	1437
1399086287817994033	1528	1483	1514	1438
1399086287827747428	1528	1482	1514	1438
1399086287837994848	1528	1483	1514	1438
1399086287843019246	1529	1483	1514	1438
1399086287858037098	1528	1483	1514	1437
1399086287867893268	1526	1483	1514	1437
1399086287883008810	1526	1485	1514	1438
1399086287887968281	1526	1484	1514	1438
1399086287897820913	1525	1485	1514	1438
1399086287902880364	1526	1485	1514	1438
1399086287917916055	1525	1488	1514	1437
1399086287937938002	1525	1489	1514	1438
1399086287947886465	1525	1490	1514	1438
1399086287952954036	1524	1489	1514	1438
1399086287968013450	1525	1491	1514	1438
1399086287982956792	1525	1492	1514	1439
1399086287987935320	1525	1492	1514	1438
1399086287997916810	1525	1492	1514	1438
1399086288003001647	1525	1491	1514	1438
1399086288012748089	1529	1491	1514	1439
1399086288017681034	1528	1490	1514	1438
1399086288032744463	1529	1491	1514	1438
1399086288037678696	1529	1492	1514	1439
1399086288047676665	1529	1492	1514	1439
1399086288052831877	1528	1492	1514	1440
1399086288062669355	1534	1492	1514	1440
1399086288067668825	1533	1493	1514	1440
1399086288077691704	1534	1492	1514	1439
1399086288087714818	1532	1493	1514	1439
1399086288092694746	1533	1491	1514	1440
1399086288102671990	1533	1493	1514	1439
1399086288117653048	1531	1490	1514	1440
1399086288127693568	1530	1490	1514	1440
1399086288137711003	1531	1491	1514	1440
1399086288147688389	1529	1491	1514	1440
1399086288152704241	1531	1492	1514	1441
1399086288162705663	1526	1490	1514	1441
1399086288167984917	1526	1490	1514	1441
1399086288182912663	1527	1490	1514	1441
1399086288187994332	1527	1491	1514	1441
1399086288197953143	1527	1492	1514	1442
1399086288203182813	1528	1491	1514	1442
1399086288217941049	1529	1493	1514	1442
1399086288233019198	1528	1493	1514	1442
1399086288237915486	1528	1493	1514	1442
1399086288242923500	1528	1494	1514	1442
1399086288252887072	1528	1493	1514	1442
1399086288262971553	1528	1496	1514	1443
1399086288267900743	1529	1496	1514	1443
1399086288277962803	1529	1497	1514	1443
1399086288287900647	1528	1497	1514	1443
1399086288292924503	1529	1497	1514	1444
1399086288302900897	1528	1498	1514	1443
1399086288312964188	1529	1499	1514	1444
1399086288327884859	1527	1500	1514	1444
1399086288332785843	1528	1500	1514	1444
1399086288337944911	1528	1502	1514	1444
1399086288347900665	1528	1501	1514	1444
1399086288352799314	1529	1502	1514	1444
1399086288368008452	1531	1501	1514	1444
1399086288382934660	1531	1503	1514	1444
1399086288387963134	1530	1503	1514	1444
1399086288392787981	1531	1504	1514	1445
1399086288402955975	1531	1503	1514	1444
1399086288417822880	1529	1504	1514	1444
1399086288432863105	1529	1506	1514	1445
1399086288437918712	1529	1505	1514	1444
1399086288447918928	1529	1506	1514	1444
1399086288453003995	1529	1505	1514	1444
1399086288467964733	1529	1509	1514	1445
1399086288482932125	1529	1509	1514	1444
1399086288487933105	1528	1508	1514	1444
1399086288497933066	1529	1509	1514	1444
1399086288502652781	1529	1510	1514	1445
1399086288513003082	1525	1511	1514	1444
1399086288517900502	1525	1511	1514	1445
1399086288527948829	1525	1511	1514	1445
1399086288538041148	1525	1512	1514	1444
1399086288543008367	1526	1513	1514	1445
1399086288558074905	1526	1514	1514	1444
1399086288563038663	1525	1509	1514	1445
1399086288567998770	1527	1511	1514	1445
1399086288578043027	1525	1511	1514	1444
1399086288587995199	1527	1513	1514	1445
1399086288598016801	1527	1513	1514	1445
1399086288602963605	1527	1513	1514	1445
1399086288618052386	1527	1513	1514	1445
1399086288628002439	1526	1512	1514	1444
1399086288638007074	1527	1513	1514	1445
1399086288647994901	1527	1515	1514	1445
1399086288652975953	1526	1513	1514	1445
1399086288667954354	1524	1514	1514	1445
1399086288682884207	1523	1514	1514	1445
1399086288687849511	1524	1514	1514	1444
1399086288697753947	1524	1515	1514	1444
1399086288702910727	1523	1516	1514	1445
1399086288713004580	1523	1517	1514	1445
1399086288717794889	1522	1521	1514	1446
1399086288727959638	1523	1518	1514	1444
1399086288737969191	1522	1518	1514	1444
1399086288747977319	1522	1520	1514	1445
1399086288752876985	1521	1520	1514	1445
1399086288762951998	1520	1519	1514	1444
1399086288768001474	1523	1523	1514	1446
1399086288778002651	1521	1519	1514	1445
1399086288787962112	1521	1521	1514	1445
1399086288792896184	1519	1522	1514	1446
1399086288802911638	1521	1522	1514	1444
1399086288812972170	1519	1524	1514	1445
1399086288817924360	1518	1524	1514	1445
1399086288832940128	1517	1524	1514	1445
1399086288837826954	1517	1527	1514	1445
1399086288852986419	1518	1526	1514	1445
1399086288867994207	1514	1529	1514	1445
1399086288882997522	1513	1530	1514	1446
1399086288887970421	1513	1530	1514	1445
1399086288903047433	1514	1531	1514	1445
1399086288917959226	1515	1529	1514	1445
1399086288927751391	1515	1530	1514	1444
1399086288937856133	1515	1531	1514	1445
1399086288942972367	1516	1531	1514	1445
1399086288968020793	1517	1530	1514	1445
1399086288983145924	1516	1531	1514	1445
1399086288988000197	1515	1531	1514	1444
1399086288992772421	1515	1533	1514	1446
1399086289003008139	1517	1532	1514	1445
1399086289017949561	1517	1535	1514	1444
1399086289022871386	1519	1536	1514	1445
1399086289032917600	1518	1536	1514	1445
1399086289038044005	1518	1536	1514	1444
1399086289042935625	1518	1537	1514	1444
1399086289052901580	1518	1538	1514	1445
1399086289062926171	1520	1536	1514	1445
1399086289067961532	1519	1536	1514	1444
1399086289082970926	1519	1536	1514	1444
1399086289087999909	1518	1538	1514	1445
1399086289097999392	1519	1537	1514	1444
1399086289102956818	1520	1537	1514	1444
1399086289112980784	1515	1539	1514	1445
1399086289117708833	1516	1540	1514	1445
1399086289132955080	1516	1539	1514	1444
1399086289137902025	1514	1540	1514	1444
1399086289148026996	1515	1541	1514	1445
1399086289152998427	1514	1541	1514	1445
1399086289167980191	1515	1545	1514	1444
1399086289183000039	1514	1545	1514	1445
1399086289187952675	1512	1547	1514	1445
1399086289197930161	1514	1544	1514	1444
1399086289202886545	1513	1549	1514	1446
1399086289217757538	1515	1543	1514	1444
1399086289247925234	1516	1546	1514	1445
1399086289252978081	1514	1546	1514	1444
1399086289262756536	1513	1543	1514	1446
1399086289267964506	1513	1542	1514	1444
1399086289277759798	1513	1542	1514	1444
1399086289292771992	1514	1545	1514	1445
1399086289297969523	1513	1543	1514	1445
1399086289302886250	1513	1544	1514	1445
1399086289317786463	1514	1543	1514	1445
1399086289327902010	1515	1543	1514	1444
1399086289337921442	1512	1542	1514	1445
1399086289347944390	1514	1545	1514	1445
1399086289352710924	1514	1544	1514	1444
1399086289367972374	1513	1546	1514	1445
1399086289383013217	1512	1545	1514	1445
1399086289387942110	1512	1546	1514	1444
1399086289402974651	1512	1548	1514	1445
1399086289417951052	1510	1555	1514	1445
1399086289433048906	1510	1555	1514	1445
1399086289437959073	1511	1556	1514	1445
1399086289447978668	1511	1557	1514	1446
1399086289452929893	1510	1556	1514	1446
1399086289467937673	1511	1560	1514	1445
1399086289482954357	1510	1561	1514	1446
1399086289487904801	1511	1561	1514	1445
1399086289497923751	1510	1563	1514	1446
1399086289502861040	1511	1561	1514	1445
1399086289527859495	1510	1567	1514	1446
1399086289538049230	1510	1566	1514	1445
1399086289547866816	1512	1569	1514	1446
1399086289552974885	1508	1569	1514	1446
1399086289563000781	1506	1566	1514	1445
1399086289572858395	1507	1571	1514	1447
1399086289583003488	1506	1568	1514	1445
1399086289587740097	1506	1571	1514	1446
1399086289597816966	1506	1571	1514	1447
1399086289602967556	1506	1571	1514	1446
1399086289617874687	1507	1573	1514	1446
1399086289627931098	1505	1572	1514	1445
1399086289637848896	1507	1573	1514	1447
1399086289647901361	1507	1576	1514	1446
1399086289652814117	1505	1572	1514	1445
1399086289667972145	1500	1571	1514	1446
1399086289682959871	1501	1571	1514	1447
1399086289687943785	1500	1572	1514	1446
1399086289697950346	1500	1571	1514	1446
1399086289702913834	1499	1572	1514	1446
1399086289713000039	1501	1565	1514	1446
1399086289717932754	1501	1565	1514	1446
1399086289727925335	1502	1567	1514	1446
1399086289737892099	1502	1565	1514	1446
1399086289742902380	1500	1567	1514	1446
1399086289762930403	1500	1562	1514	1446
1399086289767918683	1500	1562	1514	1446
1399086289777962192	1501	1562	1514	1447
1399086289787994646	1497	1561	1514	1444
1399086289792962439	1500	1562	1514	1447
1399086289803030559	1499	1563	1514	1446
1399086289817988935	1508	1556	1514	1447
1399086289833012428	1506	1557	1514	1446
1399086289837970621	1508	1553	1514	1447
1399086289847897661	1506	1556	1514	1446
1399086289852726832	1507	1555	1514	1446
1399086289862945369	1510	1552	1514	1447
1399086289867974980	1511	1552	1514	1446
1399086289882952727	1509	1552	1514	1446
1399086289887917383	1510	1551	1514	1446
1399086289897925903	1510	1551	1514	1447
1399086289902737100	1509	1553	1514	1446
1399086289917874100	1511	1550	1514	1447
1399086289932938223	1511	1552	1514	1446
1399086289937835669	1510	1550	1514	1447
1399086289948029323	1510	1551	1514	1447
1399086289952725201	1510	1550	1514	1446
1399086289962949372	1511	1549	1514	1447
1399086289967965519	1511	1548	1514	1445
1399086289977973600	1512	1550	1514	1447
1399086289987917941	1511	1548	1514	1446
1399086289992717193	1511	1548	1514	1446
1399086290002753813	1510	1550	1514	1447
1399086290013017804	1510	1550	1514	1446
1399086290017976370	1510	1551	1514	1448
1399086290028012567	1510	1550	1514	1445
1399086290042975857	1511	1550	1514	1448
1399086290047988612	1512	1550	1514	1446
1399086290052849811	1511	1550	1514	1447
1399086290067937210	1512	1552	1514	1447
1399086290082941754	1510	1550	1514	1446
1399086290087921651	1513	1552	1514	1447
1399086290098025137	1513	1551	1514	1447
1399086290102705045	1514	1550	1514	1447
1399086290118016999	1514	1554	1514	1447
1399086290133019076	1513	1554	1514	1448
1399086290137919513	1513	1554	1514	1447
1399086290153028460	1513	1555	1514	1447
1399086290167887026	1511	1560	1514	1447
1399086290182914127	1512	1560	1514	1447
1399086290187719933	1512	1560	1514	1448
1399086290192958238	1512	1560	1514	1448
1399086290203071013	1512	1559	1514	1446
1399086290213030225	1509	1559	1514	1447
1399086290228039740	1510	1559	1514	1447
1399086290238037902	1511	1559	1514	1447
1399086290243002028	1510	1559	1514	1447
1399086290253053493	1511	1558	1514	1446
1399086290263006506	1512	1558	1514	1446
1399086290267819163	1512	1560	1514	1447
1399086290277989250	1513	1559	1514	1447
1399086290288026780	1513	1561	1514	1447
1399086290297984968	1513	1559	1514	1446
1399086290302973820	1513	1559	1514	1447
1399086290313028684	1512	1558	1514	1447
1399086290318039766	1513	1555	1514	1447
1399086290332858035	1513	1557	1514	1448
1399086290337993906	1513	1556	1514	1448
1399086290347949649	1513	1557	1514	1448
1399086290352840144	1514	1557	1514	1447
1399086290368010665	1514	1552	1514	1448
1399086290388069254	1514	1550	1514	1448
1399086290398011829	1515	1551	1514	1447
1399086290402853018	1514	1552	1514	1448
1399086290417821285	1514	1548	1514	1448
1399086290433042841	1515	1547	1514	1447
1399086290437889278	1515	1547	1514	1448
1399086290447995585	1514	1547	1514	1448
1399086290452757786	1515	1546	1514	1447
1399086290463047336	1514	1546	1514	1447
1399086290467964539	1515	1546	1514	1446
1399086290478072124	1512	1544	1514	1448
1399086290487925879	1514	1542	1514	1448
1399086290492972762	1512	1542	1514	1448
1399086290507897659	1513	1542	1514	1448
1399086290517913061	1514	1543	1514	1448
1399086290533080270	1515	1543	1514	1447
1399086290537828309	1514	1543	1514	1447
1399086290548037817	1515	1542	1514	1448
1399086290552994383	1514	1543	1514	1448
1399086290568073730	1514	1542	1514	1448
1399086290582963387	1512	1545	1514	1448
1399086290587986029	1512	1544	1514	1448
1399086290597785718	1512	1545	1514	1448
1399086290602969578	1513	1544	1514	1448
1399086290618013194	1508	1546	1514	1448
1399086290633018566	1508	1545	1514	1448
1399086290637736783	1508	1545	1514	1448
1399086290647931361	1508	1544	1514	1448
1399086290652916990	1508	1545	1514	1448
1399086290668026324	1506	1547	1514	1448
1399086290682973495	1506	1547	1514	1448
1399086290687992929	1506	1546	1514	1448
1399086290698005125	1506	1547	1514	1448
1399086290702960367	1506	1545	1514	1448
1399086290713017604	1509	1546	1514	1448
1399086290717910380	1508	1545	1514	1448
1399086290728027890	1508	1545	1514	1448
1399086290743011242	1508	1545	1514	1448
1399086290753057852	1508	1546	1514	1448
1399086290768102300	1509	1545	1514	1448
1399086290783033875	1513	1545	1514	1448
1399086290787968016	1513	1545	1514	1448
1399086290793054556	1512	1545	1514	1448
1399086290807869250	1513	1545	1514	1449
1399086290817963386	1514	1546	1514	1448
1399086290832979466	1514	1546	1514	1448
1399086290837780094	1515	1545	1514	1448
1399086290842705838	1514	1546	1514	1449
1399086290852991350	1515	1545	1514	1448
1399086290867968913	1515	1543	1514	1449
1399086290882958470	1515	1543	1514	1449
1399086290897974817	1515	1543	1514	1449
1399086290902919653	1515	1542	1514	1449
1399086290918012557	1516	1544	1514	1449
1399086290933015197	1516	1544	1514	1449
1399086290937879862	1516	1543	1514	1449
1399086290948003012	1516	1543	1514	1449
1399086290952979961	1516	1543	1514	1449
1399086290963013618	1515	1542	1514	1450
1399086290967789185	1516	1543	1514	1449
1399086290977886623	1512	1541	1514	1449
1399086290987958910	1513	1542	1514	1450
1399086290992856479	1512	1541	1514	1449
1399086291002960514	1512	1541	1514	1450
1399086291012936134	1510	1542	1514	1449
1399086291017901779	1510	1542	1514	1450
1399086291027915907	1511	1542	1514	1450
1399086291037879162	1510	1542	1514	1450
1399086291047890891	1510	1542	1514	1450
1399086291052982052	1510	1541	1514	1450
1399086291067928411	1508	1539	1514	1450
1399086291082915384	1508	1539	1514	1450
1399086291087845510	1508	1539	1514	1450
1399086291097629366	1508	1538	1514	1450
1399086291102780907	1508	1538	1514	1450
1399086291118044849	1508	1539	1514	1450
1399086291133031198	1508	1538	1514	1450
1399086291137914209	1509	1539	1514	1450
1399086291147983775	1509	1538	1514	1450
1399086291152893657	1509	1539	1514	1450
1399086291167989254	1509	1538	1514	1450
1399086291182934344	1512	1537	1514	1450
1399086291187921865	1514	1536	1514	1451
1399086291192885633	1513	1536	1514	1450
1399086291202892646	1514	1535	1514	1450
1399086291212921886	1512	1533	1514	1450
1399086291217943666	1513	1533	1514	1450
1399086291227920506	1513	1533	1514	1451
1399086291237898087	1513	1533	1514	1450
1399086291242864924	1513	1532	1514	1451
1399086291252956934	1513	1532	1514	1450
1399086291262980377	1519	1533	1514	1450
1399086291267853819	1518	1532	1514	1451
1399086291282979701	1518	1532	1514	1450
1399086291287792604	1517	1531	1514	1451
1399086291292935530	1519	1532	1514	1451
1399086291302919513	1518	1531	1514	1451
1399086291312923500	1515	1533	1514	1450
1399086291317919069	1515	1533	1514	1451
1399086291333001193	1515	1533	1514	1451
1399086291337905600	1516	1534	1514	1451
1399086291352949306	1515	1533	1514	1451
1399086291368036945	1514	1533	1514	1451
1399086291383046055	1515	1532	1514	1450
1399086291387940189	1515	1531	1514	1451
1399086291398000235	1516	1532	1514	1451
1399086291402956887	1515	1532	1514	1451
1399086291418004665	1515	1529	1514	1451
1399086291433000322	1516	1529	1514	1452
1399086291437976676	1515	1528	1514	1451
1399086291442913838	1515	1528	1514	1452
1399086291452948843	1515	1527	1514	1451
1399086291463184816	1515	1526	1514	1451
1399086291467702072	1516	1526	1514	1452
1399086291477923654	1516	1526	1514	1452
1399086291487943432	1515	1526	1514	1452
1399086291492947916	1516	1525	1514	1451
1399086291507942409	1515	1525	1514	1452
1399086291518024036	1514	1524	1514	1452
1399086291532974625	1514	1524	1514	1452
1399086291542844292	1512	1522	1514	1451
1399086291552963480	1514	1522	1514	1452
1399086291568048198	1513	1522	1514	1452
1399086291582982546	1513	1523	1514	1452
1399086291587889061	1513	1522	1514	1452
1399086291597987071	1514	1521	1514	1452
1399086291602976704	1514	1520	1514	1451
1399086291617954497	1509	1518	1514	1452
1399086291633024687	1509	1518	1514	1452
1399086291637945932	1509	1518	1514	1452
1399086291652846275	1509	1518	1514	1452
1399086291667953400	1511	1517	1514	1451
1399086291697818558	1510	1517	1514	1452
1399086291702710084	1510	1515	1514	1451
1399086291712735448	1515	1516	1514	1451
1399086291717711312	1515	1518	1514	1451
1399086291727695323	1516	1515	1514	1451
1399086291737723952	1515	1516	1514	1451
1399086291752706347	1515	1515	1514	1452
1399086291762710884	1515	1517	1514	1451
1399086291767666931	1517	1516	1514	1452
1399086291782719993	1516	1516	1514	1451
1399086291787643282	1517	1515	1514	1452
1399086291802763945	1516	1514	1514	1452
1399086291812739522	1515	1510	1514	1452
1399086291817745552	1516	1510	1514	1452
1399086291832706537	1516	1508	1514	1452
1399086291837665495	1516	1509	1514	1452
1399086291847748561	1516	1507	1514	1452
1399086291852711901	1517	1509	1514	1453
1399086291867701824	1515	1505	1514	1453
1399086291877743763	1515	1506	1514	1452
1399086291887718120	1515	1503	1514	1452
1399086291892728626	1515	1504	1514	1452
1399086291902690089	1514	1503	1514	1452
1399086291912705759	1515	1502	1514	1454
1399086291917735734	1515	1503	1514	1453
1399086291927694627	1515	1502	1514	1454
1399086291937701776	1514	1501	1514	1452
1399086291942705443	1515	1500	1514	1453
1399086291952721750	1514	1499	1514	1453
1399086291962761352	1517	1502	1514	1454
1399086291967709135	1515	1501	1514	1453
1399086291977703150	1516	1499	1514	1452
1399086291987709053	1516	1501	1514	1453
1399086292002702988	1516	1499	1514	1453
1399086292012727482	1513	1501	1514	1453
1399086292022878513	1513	1500	1514	1453
1399086292033016676	1513	1498	1514	1452
1399086292042935166	1513	1498	1514	1453
1399086292052901716	1515	1498	1514	1453
1399086292067961822	1511	1496	1514	1453
1399086292082989449	1512	1494	1514	1452
1399086292087959347	1512	1495	1514	1453
1399086292097879544	1512	1494	1514	1453
1399086292102975842	1512	1493	1514	1452
1399086292117949895	1515	1489	1514	1452
1399086292132945181	1515	1489	1514	1453
1399086292137676366	1516	1488	1514	1453
1399086292163060769	1516	1485	1514	1452
1399086292167963526	1517	1486	1514	1452
1399086292177983651	1517	1483	1514	1451
1399086292187784201	1516	1485	1514	1452
1399086292192757592	1517	1484	1514	1453
1399086292212705230	1518	1479	1514	1452
1399086292217690424	1519	1480	1514	1453
1399086292227702296	1517	1479	1514	1452
1399086292237684574	1517	1476	1514	1451
1399086292242719374	1519	1478	1514	1452
1399086292257766703	1518	1477	1514	1452
1399086292267696370	1518	1477	1514	1452
1399086292277730962	1517	1477	1514	1452
1399086292287704087	1517	1475	1514	1451
1399086292292737201	1518	1476	1514	1451
1399086292302669495	1518	1473	1514	1452
1399086292317744570	1516	1474	1514	1452
1399086292332736448	1516	1473	1514	1452
1399086292337689065	1515	1474	1514	1452
1399086292347880578	1516	1471	1514	1450
1399086292352918769	1515	1472	1514	1451
1399086292368020002	1513	1472	1514	1451
1399086292383048702	1512	1472	1514	1451
1399086292387928311	1513	1471	1514	1451
1399086292397968948	1512	1469	1514	1451
1399086292402939898	1512	1471	1514	1451
1399086292418007502	1510	1470	1514	1451
1399086292427950282	1511	1471	1514	1453
1399086292437734588	1509	1470	1514	1451
1399086292442952260	1510	1470	1514	1451
1399086292452999005	1510	1470	1514	1452
1399086292463047023	1508	1471	1514	1450
1399086292467985103	1509	1472	1514	1452
1399086292477986676	1509	1471	1514	1451
1399086292487979117	1508	1470	1514	1451
1399086292497986760	1508	1472	1514	1452
1399086292502924440	1508	1469	1514	1451
1399086292512765110	1507	1474	1514	1452
1399086292522722751	1506	1475	1514	1451
1399086292532773894	1506	1472	1514	1451
1399086292537695762	1505	1474	1514	1452
1399086292547726568	1507	1474	1514	1453
1399086292552741708	1504	1472	1514	1451
1399086292567767563	1504	1479	1514	1452
1399086292582741573	1502	1479	1514	1451
1399086292587725145	1504	1479	1514	1452
1399086292597744316	1503	1479	1514	1451
1399086292602719373	1503	1478	1514	1451
1399086292617768420	1504	1483	1514	1451
1399086292632761454	1503	1483	1514	1451
1399086292637716163	1503	1483	1514	1451
1399086292647779606	1504	1484	1514	1452
1399086292652724941	1502	1483	1514	1451
1399086292662910071	1503	1488	1514	1451
1399086292667960014	1503	1490	1514	1452
1399086292677981107	1504	1489	1514	1451
1399086292687992478	1503	1488	1514	1452
1399086292692991598	1503	1490	1514	1451
1399086292702867652	1504	1489	1514	1451
1399086292712869071	1501	1488	1514	1450
1399086292717989984	1504	1488	1514	1452
1399086292732995932	1503	1489	1514	1452
1399086292737713424	1503	1489	1514	1452
1399086292742808386	1503	1488	1514	1451
1399086292758049503	1503	1488	1514	1451
1399086292767965169	1506	1488	1514	1452
1399086292783063144	1507	1487	1514	1452
1399086292787888249	1507	1488	1514	1451
1399086292793022758	1506	1489	1514	1451
1399086292802979693	1507	1488	1514	1452
1399086292818072998	1509	1485	1514	1452
1399086292832755215	1510	1486	1514	1452
1399086292837700571	1510	1487	1514	1452
1399086292847755352	1510	1487	1514	1452
1399086292852691541	1509	1486	1514	1451
1399086292867755190	1514	1485	1514	1452
1399086292877753243	1514	1484	1514	1452
1399086292887725453	1514	1486	1514	1452
1399086292892718519	1514	1484	1514	1451
1399086292902675308	1515	1486	1514	1452
1399086292912741190	1516	1486	1514	1452
1399086292917707875	1516	1485	1514	1452
1399086292927721822	1516	1486	1514	1452
1399086292947777468	1518	1485	1514	1452
1399086292952724105	1517	1485	1514	1452
1399086292962721401	1517	1486	1514	1453
1399086292967715810	1516	1486	1514	1451
1399086292977786149	1517	1486	1514	1453
1399086292993065353	1518	1487	1514	1452
1399086292997959068	1518	1485	1514	1452
1399086293002742530	1518	1486	1514	1452
1399086293017848827	1516	1487	1514	1452
1399086293037982772	1517	1487	1514	1452
1399086293048006564	1517	1487	1514	1452
1399086293052718047	1518	1487	1514	1452
1399086293067938233	1516	1486	1514	1451
1399086293083019761	1517	1487	1514	1452
1399086293087930429	1518	1487	1514	1452
1399086293098020142	1517	1486	1514	1452
1399086293102967476	1518	1486	1514	1451
1399086293107862943	1517	1487	1514	1451
1399086293117993896	1517	1487	1514	1452
1399086293127997847	1518	1488	1514	1451
1399086293137976287	1517	1488	1514	1451
1399086293142838380	1519	1488	1514	1452
1399086293152959757	1517	1488	1514	1450
1399086293163027214	1518	1487	1514	1451
1399086293177914098	1518	1489	1514	1451
1399086293187965400	1517	1489	1514	1451
1399086293197983111	1518	1488	1514	1450
1399086293202942940	1518	1489	1514	1451
1399086293212797309	1515	1493	1514	1450
1399086293222975160	1516	1493	1514	1451
1399086293232976257	1515	1494	1514	1450
1399086293237955678	1516	1493	1514	1450
1399086293247969314	1515	1494	1514	1450
1399086293253022015	1515	1494	1514	1449
1399086293267984385	1515	1494	1514	1450
1399086293282989123	1514	1494	1514	1450
1399086293287951138	1514	1495	1514	1450
1399086293297977871	1514	1494	1514	1450
1399086293302938195	1514	1495	1514	1450
1399086293317997026	1514	1499	1514	1450
1399086293332987943	1513	1498	1514	1449
1399086293337959938	1513	1500	1514	1450
1399086293342921097	1514	1500	1514	1450
1399086293352981997	1513	1500	1514	1449
1399086293363024579	1513	1498	1514	1449
1399086293367969478	1511	1497	1514	1449
1399086293382902069	1513	1499	1514	1450
1399086293387847760	1512	1499	1514	1449
1399086293413051535	1512	1497	1514	1448
1399086293417948616	1511	1497	1514	1448
1399086293432988570	1511	1498	1514	1449
1399086293437927405	1512	1499	1514	1449
1399086293442943836	1511	1498	1514	1448
1399086293457968228	1512	1499	1514	1448
1399086293467868567	1512	1498	1514	1448
1399086293482975224	1512	1500	1514	1448
1399086293487938604	1511	1500	1514	1448
1399086293492922064	1512	1501	1514	1448
1399086293508017510	1511	1499	1514	1448
1399086293518036735	1512	1499	1514	1448
1399086293532907108	1513	1500	1514	1448
1399086293537985001	1512	1501	1514	1448
1399086293548005851	1512	1500	1514	1448
1399086293553028671	1512	1501	1514	1448
1399086293567928060	1514	1500	1514	1448
1399086293582971538	1514	1502	1514	1448
1399086293587926009	1514	1502	1514	1449
1399086293597978412	1514	1502	1514	1448
1399086293602975952	1514	1501	1514	1448
1399086293617913431	1515	1499	1514	1448
1399086293648030450	1515	1500	1514	1449
1399086293652937861	1514	1500	1514	1448
1399086293667957001	1517	1500	1514	1449
1399086293677762624	1518	1499	1514	1449
1399086293693046047	1517	1499	1514	1449
1399086293697947761	1518	1500	1514	1449
1399086293702938143	1517	1501	1514	1449
1399086293713013814	1517	1500	1514	1448
1399086293717948086	1516	1500	1514	1448
1399086293733027753	1517	1500	1514	1449
1399086293737936684	1517	1501	1514	1449
1399086293747989753	1516	1500	1514	1448
1399086293752930073	1517	1501	1514	1449
1399086293767990058	1517	1502	1514	1449
1399086293782886410	1517	1501	1514	1449
1399086293802892993	1517	1502	1514	1449
1399086293818051369	1518	1504	1514	1449
1399086293832919091	1519	1505	1514	1449
1399086293838017239	1519	1505	1514	1449
1399086293847981846	1520	1506	1514	1449
1399086293852870641	1518	1505	1514	1449
1399086293862970507	1520	1506	1514	1449
1399086293867729925	1519	1506	1514	1450
1399086293877840588	1520	1506	1514	1450
1399086293887985735	1520	1507	1514	1449
1399086293897775215	1520	1507	1514	1450
1399086293902661125	1521	1507	1514	1450
1399086293912943665	1525	1506	1514	1449
1399086293922989061	1526	1506	1514	1450
1399086293927931009	1524	1507	1514	1450
1399086293937984955	1526	1506	1514	1450
1399086293953014573	1526	1507	1514	1450
1399086293962969775	1528	1505	1514	1451
1399086293973013644	1529	1504	1514	1450
1399086293982974409	1529	1505	1514	1451
1399086293987908035	1530	1504	1514	1450
1399086293997953342	1531	1506	1514	1451
1399086294002981590	1530	1505	1514	1450
1399086294017974664	1529	1504	1514	1451
1399086294027985452	1530	1504	1514	1451
1399086294038053210	1528	1505	1514	1451
1399086294047948818	1530	1505	1514	1451
1399086294052978397	1529	1506	1514	1451
1399086294068050206	1528	1508	1514	1451
1399086294077980582	1528	1508	1514	1451
1399086294088002415	1529	1508	1514	1451
1399086294092989029	1529	1508	1514	1451
1399086294102980927	1529	1509	1514	1452
1399086294112978669	1526	1511	1514	1452
1399086294117909733	1527	1510	1514	1451
1399086294128053548	1527	1511	1514	1452
1399086294137844052	1527	1510	1514	1451
1399086294142873685	1527	1511	1514	1452
1399086294153027939	1527	1511	1514	1452
1399086294163003767	1528	1512	1514	1452
1399086294167983999	1527	1511	1514	1452
1399086294177987657	1524	1514	1514	1452
1399086294187960333	1523	1515	1514	1452
1399086294192813199	1523	1513	1514	1452
1399086294207967462	1524	1516	1514	1453
1399086294217992282	1522	1516	1514	1452
1399086294233009194	1522	1516	1514	1452
1399086294237955436	1523	1516	1514	1453
1399086294248022690	1523	1517	1514	1452
1399086294252998571	1521	1517	1514	1453
1399086294262778349	1522	1515	1514	1452
1399086294267967347	1521	1515	1514	1452
1399086294283017365	1523	1515	1514	1453
1399086294287938783	1521	1515	1514	1452
1399086294302955217	1522	1515	1514	1453
1399086294318023048	1523	1514	1514	1453
1399086294332995129	1523	1514	1514	1452
1399086294342965291	1523	1514	1514	1453
1399086294368010975	1524	1515	1514	1453
1399086294393021404	1524	1516	1514	1453
1399086294403028913	1523	1516	1514	1453
1399086294417970384	1528	1516	1514	1453
1399086294427738381	1528	1516	1514	1453
1399086294442782179	1528	1517	1514	1452
1399086294447739998	1528	1516	1514	1452
1399086294452732622	1528	1516	1514	1453
1399086294467798916	1531	1518	1514	1453
1399086294482705543	1532	1517	1514	1452
1399086294487695848	1532	1519	1514	1453
1399086294492720493	1531	1518	1514	1452
1399086294502765012	1531	1518	1514	1452
1399086294517751309	1533	1516	1514	1453
1399086294522678328	1533	1516	1514	1452
1399086294532773553	1532	1517	1514	1452
1399086294537702708	1532	1515	1514	1452
1399086294552741119	1533	1517	1514	1452
1399086294562748810	1529	1517	1514	1452
1399086294567720318	1530	1517	1514	1452
1399086294582759380	1530	1518	1514	1453
1399086294587941982	1530	1517	1514	1452
1399086294597994010	1530	1518	1514	1452
1399086294602928040	1530	1519	1514	1452
1399086294613012904	1528	1519	1514	1452
1399086294617947970	1528	1518	1514	1452
1399086294627977997	1528	1518	1514	1452
1399086294637960104	1529	1520	1514	1452
1399086294642928632	1528	1518	1514	1451
1399086294653030524	1529	1519	1514	1452
1399086294662957519	1527	1520	1514	1452
1399086294677993621	1527	1520	1514	1452
1399086294683003884	1528	1520	1514	1452
1399086294687992609	1528	1520	1514	1452
1399086294693018031	1528	1520	1514	1452
1399086294702975664	1526	1519	1514	1451
1399086294717994851	1528	1520	1514	1452
1399086294733020767	1528	1521	1514	1453
1399086294747981853	1528	1520	1514	1451
1399086294753008946	1528	1521	1514	1452
1399086294768016676	1526	1525	1514	1452
1399086294782941663	1526	1525	1514	1452
1399086294798258264	1526	1526	1514	1452
1399086294802952635	1526	1525	1514	1452
1399086294818006962	1525	1528	1514	1452
1399086294827994300	1524	1528	1514	1452
1399086294837939211	1524	1528	1514	1452
1399086294842989347	1524	1529	1514	1452
1399086294853005309	1525	1528	1514	1452
1399086294862929340	1524	1531	1514	1452
1399086294867904139	1523	1530	1514	1452
1399086294878082678	1522	1531	1514	1453
1399086294887977861	1523	1531	1514	1452
1399086294892931833	1523	1531	1514	1451
1399086294902942541	1523	1531	1514	1452
1399086294913051636	1520	1533	1514	1452
1399086294917942022	1521	1535	1514	1453
1399086294933045951	1521	1535	1514	1452
1399086294937968886	1521	1535	1514	1453
1399086294947920141	1521	1536	1514	1452
1399086294952888981	1519	1535	1514	1452
1399086294962963189	1520	1536	1514	1452
1399086294973030573	1520	1536	1514	1452
1399086294983070042	1520	1537	1514	1453
1399086294987911607	1519	1536	1514	1452
1399086294997835482	1521	1537	1514	1453
1399086295002969271	1520	1537	1514	1453
1399086295017753507	1519	1539	1514	1452
1399086295032884174	1520	1538	1514	1453
1399086295037902499	1520	1540	1514	1452
1399086295047855911	1519	1541	1514	1453
1399086295052974006	1519	1540	1514	1452
1399086295063165906	1521	1542	1514	1453
1399086295067797955	1522	1544	1514	1453
1399086295077698027	1521	1543	1514	1452
1399086295097746210	1522	1545	1514	1453
1399086295102688563	1521	1543	1514	1453
1399086295112738992	1526	1548	1514	1453
1399086295117692258	1524	1548	1514	1453
1399086295127748222	1524	1547	1514	1453
1399086295142748970	1525	1550	1514	1454
1399086295147701336	1524	1548	1514	1453
1399086295152739765	1523	1551	1514	1453
1399086295167731606	1527	1550	1514	1453
1399086295182737371	1527	1551	1514	1454
1399086295187691642	1527	1550	1514	1453
1399086295192741399	1527	1551	1514	1453
1399086295207728506	1527	1551	1514	1454
1399086295217807332	1526	1550	1514	1454
1399086295233040369	1526	1551	1514	1454
1399086295237913822	1527	1550	1514	1453
1399086295247957310	1527	1551	1514	1455
1399086295252947025	1526	1551	1514	1453
1399086295268016455	1527	1550	1514	1454
1399086295282906072	1528	1551	1514	1454
1399086295287902391	1528	1552	1514	1455
1399086295298015754	1529	1550	1514	1454
1399086295302993504	1528	1552	1514	1454
1399086295317959387	1530	1551	1514	1455
1399086295333034805	1530	1551	1514	1454
1399086295337984638	1530	1551	1514	1455
1399086295347978729	1531	1554	1514	1455
1399086295352810662	1531	1553	1514	1455
1399086295362745677	1532	1551	1514	1455
1399086295367930243	1531	1552	1514	1455
1399086295378038041	1532	1553	1514	1456
1399086295387974817	1531	1552	1514	1454
1399086295392991168	1532	1552	1514	1454
1399086295403006781	1533	1553	1514	1455
1399086295418007627	1533	1552	1514	1455
1399086295428075857	1534	1552	1514	1455
1399086295438091433	1532	1552	1514	1455
1399086295448001586	1534	1553	1514	1456
1399086295453008499	1534	1553	1514	1455
1399086295467997791	1533	1553	1514	1456
1399086295477997165	1532	1551	1514	1456
1399086295487910344	1534	1554	1514	1455
1399086295497923669	1533	1552	1514	1455
1399086295502926002	1535	1553	1514	1456
1399086295518113630	1535	1554	1514	1456
1399086295532899805	1535	1554	1514	1456
1399086295538010084	1536	1554	1514	1456
1399086295548006213	1536	1553	1514	1455
1399086295552969841	1536	1555	1514	1456
1399086295567957577	1536	1553	1514	1456
1399086295583029256	1536	1554	1514	1456
1399086295587955205	1536	1552	1514	1456
1399086295597993482	1538	1555	1514	1456
1399086295602957942	1536	1554	1514	1456
1399086295612919546	1539	1554	1514	1456
1399086295617978725	1536	1554	1514	1457
1399086295627870030	1534	1552	1514	1456
1399086295638010799	1537	1555	1514	1457
1399086295647965727	1535	1553	1514	1456
1399086295652752547	1538	1554	1514	1457
1399086295662966640	1533	1550	1514	1456
1399086295667962146	1535	1551	1514	1457
1399086295682904500	1535	1550	1514	1457
1399086295687968056	1535	1551	1514	1457
1399086295693009003	1535	1550	1514	1457
1399086295702970898	1537	1552	1514	1458
1399086295718054514	1536	1551	1514	1457
1399086295733034021	1533	1547	1514	1458
1399086295737944930	1535	1546	1514	1458
1399086295753037851	1534	1547	1514	1457
1399086295768017400	1532	1547	1514	1458
1399086295782795733	1531	1546	1514	1459
1399086295787918737	1532	1546	1514	1458
1399086295797991824	1532	1546	1514	1459
1399086295802985278	1532	1545	1514	1458
1399086295813035143	1530	1545	1514	1458
1399086295817945660	1530	1545	1514	1459
1399086295827964930	1531	1545	1514	1459
1399086295837990892	1530	1543	1514	1459
1399086295842868231	1531	1545	1514	1459
1399086295862974179	1529	1545	1514	1459
1399086295867977654	1529	1545	1514	1459
1399086295877752051	1529	1545	1514	1459
1399086295887973695	1531	1545	1514	1459
1399086295893026538	1529	1545	1514	1459
1399086295902980337	1529	1545	1514	1459
1399086295918000813	1530	1545	1514	1459
1399086295932757085	1531	1548	1514	1459
1399086295937917686	1531	1549	1514	1459
1399086295942937916	1531	1547	1514	1459
1399086295952979162	1530	1548	1514	1459
1399086295968012001	1533	1553	1514	1459
1399086295987970419	1533	1553	1514	1459
1399086295998039574	1531	1553	1514	1458
1399086296002935431	1532	1552	1514	1458
1399086296018043003	1530	1555	1514	1459
1399086296022926732	1530	1554	1514	1458
1399086296027965416	1529	1554	1514	1459
1399086296037901687	1529	1554	1514	1458
1399086296042926766	1528	1553	1514	1458
1399086296052959024	1529	1553	1514	1458
1399086296063004572	1529	1552	1514	1458
1399086296067907012	1527	1552	1514	1458
1399086296077864219	1528	1552	1514	1458
1399086296093026050	1527	1552	1514	1459
1399086296102942089	1527	1552	1514	1458
1399086296113040382	1526	1552	1514	1458
1399086296117649865	1526	1552	1514	1458
1399086296127883029	1519	1545	1514	1458
1399086296142911865	1521	1546	1514	1458
1399086296147698343	1520	1545	1514	1458
1399086296153042749	1520	1546	1514	1458
1399086296168000861	1518	1544	1514	1458
1399086296182986153	1517	1544	1514	1458
1399086296187947337	1517	1544	1514	1458
1399086296197959672	1518	1543	1514	1459
1399086296202913842	1518	1544	1514	1458
1399086296212979139	1514	1540	1514	1458
1399086296217936379	1516	1540	1514	1458
1399086296232960905	1514	1540	1514	1458
1399086296237998499	1514	1541	1514	1459
1399086296247959335	1513	1540	1514	1458
1399086296253034976	1513	1539	1514	1459
1399086296267997683	1515	1540	1514	1458
1399086296283016872	1516	1540	1514	1459
1399086296287840772	1515	1540	1514	1459
1399086296297990542	1514	1540	1514	1459
1399086296302960777	1514	1540	1514	1459
1399086296313086967	1514	1540	1514	1459
1399086296317909708	1512	1540	1514	1458
1399086296327914842	1514	1542	1514	1459
1399086296337947929	1514	1542	1514	1459
1399086296342969588	1514	1541	1514	1459
1399086296353044198	1513	1540	1514	1459
1399086296363010878	1515	1543	1514	1459
1399086296378063726	1514	1542	1514	1460
1399086296382964915	1514	1543	1514	1460
1399086296387957171	1514	1542	1514	1459
1399086296397784812	1513	1542	1514	1460
1399086296402966031	1514	1542	1514	1460
1399086296413006741	1515	1544	1514	1459
1399086296422937591	1515	1544	1514	1459
1399086296432734611	1514	1544	1514	1460
1399086296437990985	1514	1544	1514	1460
1399086296447923473	1515	1543	1514	1460
1399086296452974849	1513	1545	1514	1460
1399086296467992654	1513	1542	1514	1460
1399086296482973133	1511	1541	1514	1460
1399086296487979518	1513	1543	1514	1460
1399086296502846854	1512	1543	1514	1461
1399086296512924247	1511	1542	1514	1460
1399086296522755624	1516	1545	1514	1462
1399086296527892899	1516	1544	1514	1461
1399086296548020581	1515	1544	1514	1461
1399086296552971585	1516	1545	1514	1462
1399086296567900804	1518	1548	1514	1461
1399086296572906718	1517	1548	1514	1462
1399086296577826470	1517	1548	1514	1461
1399086296587903213	1517	1547	1514	1462
1399086296593020298	1518	1548	1514	1463
1399086296607990839	1517	1547	1514	1462
1399086296617805771	1519	1548	1514	1462
1399086296633055311	1520	1549	1514	1463
1399086296637986471	1519	1547	1514	1461
1399086296647891289	1519	1547	1514	1464
1399086296652926763	1519	1548	1514	1463
1399086296667997293	1517	1546	1514	1463
1399086296682971057	1517	1546	1514	1462
1399086296687826976	1516	1547	1514	1463
1399086296697694936	1516	1545	1514	1463
1399086296702974341	1516	1545	1514	1463
1399086296717807009	1516	1544	1514	1463
1399086296732958947	1514	1542	1514	1463
1399086296747939180	1515	1543	1514	1463
1399086296752952450	1516	1543	1514	1463
1399086296767927918	1513	1540	1514	1463
1399086296782968170	1511	1539	1514	1463
1399086296787909364	1513	1540	1514	1463
1399086296797958648	1512	1539	1514	1463
1399086296802921989	1513	1540	1514	1463
1399086296812995171	1509	1539	1514	1463
1399086296817852582	1508	1538	1514	1462
1399086296827842991	1510	1539	1514	1463
1399086296843064079	1509	1538	1514	1462
1399086296847969741	1509	1539	1514	1463
1399086296852962045	1508	1538	1514	1463
1399086296862980399	1509	1537	1514	1462
1399086296867912627	1508	1537	1514	1462
1399086296877955096	1508	1536	1514	1463
1399086296887944712	1509	1537	1514	1463
1399086296897949284	1507	1536	1514	1462
1399086296902994306	1507	1537	1514	1462
1399086296917720292	1507	1536	1514	1462
1399086296933059382	1507	1536	1514	1462
1399086296937979667	1506	1536	1514	1463
1399086296947997340	1505	1535	1514	1461
1399086296952983596	1506	1535	1514	1462
1399086296962977819	1502	1535	1514	1462
1399086296982816250	1503	1535	1514	1462
1399086296987941374	1502	1534	1514	1461
1399086296997958890	1502	1533	1514	1462
1399086297002948838	1501	1534	1514	1461
1399086297017991338	1502	1532	1514	1462
1399086297033053329	1501	1533	1514	1462
1399086297037899834	1501	1532	1514	1462
1399086297042937675	1500	1532	1514	1462
1399086297053019904	1501	1532	1514	1462
1399086297062987451	1500	1532	1514	1463
1399086297077987331	1504	1534	1514	1462
1399086297087980602	1503	1533	1514	1462
1399086297092968432	1504	1534	1514	1462
1399086297103051026	1501	1533	1514	1463
1399086297112984341	1504	1534	1514	1461
1399086297122755987	1505	1533	1514	1463
1399086297133017938	1504	1534	1514	1462
1399086297137929108	1504	1532	1514	1463
1399086297148007414	1504	1533	1514	1463
1399086297152956968	1505	1533	1514	1463
1399086297168017241	1504	1532	1514	1463
1399086297183005377	1506	1535	1514	1463
1399086297187973562	1506	1536	1514	1463
1399086297198000795	1507	1535	1514	1463
1399086297202828070	1507	1535	1514	1464
1399086297218016561	1508	1537	1514	1463
1399086297233011705	1508	1537	1514	1463
1399086297237946099	1508	1536	1514	1464
1399086297247801020	1508	1535	1514	1463
1399086297252945678	1507	1537	1514	1464
1399086297268010158	1511	1538	1514	1464
1399086297277853202	1511	1537	1514	1464
1399086297287977181	1511	1538	1514	1464
1399086297292983123	1510	1536	1514	1464
1399086297302717896	1510	1538	1514	1464
1399086297318054282	1510	1538	1514	1464
1399086297343005697	1510	1538	1514	1464
1399086297347917905	1509	1538	1514	1464
1399086297353042343	1510	1538	1514	1464
1399086297368068255	1507	1537	1514	1464
1399086297377996109	1507	1536	1514	1465
1399086297388004047	1507	1536	1514	1464
1399086297398023051	1505	1537	1514	1465
1399086297402759754	1506	1536	1514	1464
1399086297417960409	1503	1540	1514	1465
1399086297427919530	1502	1539	1514	1464
1399086297438068779	1502	1539	1514	1465
1399086297448082813	1503	1539	1514	1465
1399086297452982895	1503	1540	1514	1464
1399086297468044113	1499	1536	1514	1464
1399086297483004834	1499	1535	1514	1464
1399086297488003197	1499	1538	1514	1465
1399086297497996991	1500	1536	1514	1464
1399086297502844811	1500	1536	1514	1465
1399086297512973475	1498	1538	1514	1464
1399086297533000565	1497	1537	1514	1465
1399086297537919202	1498	1537	1514	1465
1399086297547838222	1498	1538	1514	1465
1399086297552987461	1499	1538	1514	1465
1399086297562946050	1500	1534	1514	1465
1399086297567844588	1501	1534	1514	1464
1399086297577862862	1500	1535	1514	1465
1399086297592935326	1501	1535	1514	1465
1399086297597954630	1502	1535	1514	1465
1399086297602860563	1501	1535	1514	1465
1399086297617948932	1502	1535	1514	1465
1399086297627979153	1503	1535	1514	1464
1399086297637954442	1503	1535	1514	1464
1399086297647960969	1503	1536	1514	1465
1399086297653017869	1503	1534	1514	1465
1399086297668016148	1504	1536	1514	1465
1399086297682964520	1504	1536	1514	1464
1399086297687939957	1503	1537	1514	1465
1399086297697987863	1504	1535	1514	1465
1399086297702984832	1505	1537	1514	1465
1399086297717971386	1502	1535	1514	1464
1399086297733010959	1501	1535	1514	1464
1399086297737929097	1502	1535	1514	1465
1399086297747714067	1502	1535	1514	1464
1399086297753008270	1503	1534	1514	1464
1399086297768001260	1503	1532	1514	1464
1399086297782770249	1501	1532	1514	1464
1399086297787995341	1502	1532	1514	1463
1399086297798247855	1503	1532	1514	1464
1399086297802906807	1502	1532	1514	1464
1399086297812968589	1500	1533	1514	1464
1399086297827983162	1499	1532	1514	1464
1399086297832891896	1499	1532	1514	1464
1399086297837957610	1499	1532	1514	1464
1399086297842920116	1499	1532	1514	1463
1399086297852999014	1499	1532	1514	1463
1399086297862970845	1497	1532	1514	1463
1399086297867888672	1496	1531	1514	1463
1399086297882973555	1496	1531	1514	1463
1399086297888041021	1496	1531	1514	1463
1399086297892999356	1497	1530	1514	1463
1399086297902865811	1496	1531	1514	1463
1399086297917965618	1493	1530	1514	1462
1399086297932993127	1493	1529	1514	1462
1399086297937804630	1493	1529	1514	1462
1399086297947915932	1492	1529	1514	1462
1399086297952950872	1493	1529	1514	1462
1399086297967960423	1491	1530	1514	1462
1399086297982965004	1491	1530	1514	1462
1399086297987945156	1490	1529	1514	1461
1399086297997911170	1490	1529	1514	1462
1399086298002961200	1490	1529	1514	1461
1399086298012738013	1490	1528	1514	1462
1399086298017996378	1489	1527	1514	1461
1399086298027957876	1489	1528	1514	1461
1399086298037990544	1489	1527	1514	1461
1399086298042831269	1489	1528	1514	1461
1399086298063010753	1489	1528	1514	1461
1399086298067973790	1487	1528	1514	1461
1399086298077926967	1488	1528	1514	1460
1399086298087781247	1486	1528	1514	1461
1399086298093019698	1488	1528	1514	1460
1399086298103008052	1488	1528	1514	1461
1399086298117864859	1493	1529	1514	1460
1399086298127878299	1492	1529	1514	1460
1399086298137892070	1493	1530	1514	1460
1399086298147955484	1492	1529	1514	1460
1399086298152967097	1492	1530	1514	1460
1399086298167972450	1494	1532	1514	1460
1399086298182984398	1493	1532	1514	1459
1399086298187939468	1494	1532	1514	1460
1399086298197938273	1495	1533	1514	1460
1399086298202912211	1494	1531	1514	1459
1399086298217960444	1493	1530	1514	1459
1399086298233002619	1492	1530	1514	1459
1399086298237902089	1492	1530	1514	1458
1399086298242989571	1493	1530	1514	1459
1399086298252999660	1492	1530	1514	1458
1399086298262938047	1493	1527	1514	1459
1399086298267919916	1491	1527	1514	1459
1399086298282982179	1491	1526	1514	1458
1399086298287855314	1492	1527	1514	1459
1399086298298026813	1491	1526	1514	1458
1399086298302964799	1492	1527	1514	1459
1399086298327971391	1491	1524	1514	1458
1399086298332952887	1492	1523	1514	1458
1399086298337910354	1491	1523	1514	1458
1399086298347912709	1492	1523	1514	1458
1399086298352999674	1491	1524	1514	1458
1399086298362933289	1492	1519	1514	1458
1399086298373063746	1492	1520	1514	1458
1399086298382872764	1491	1519	1514	1458
1399086298387945171	1492	1519	1514	1458
1399086298397953229	1490	1517	1514	1458
1399086298402902855	1491	1519	1514	1458
1399086298418127638	1491	1517	1514	1458
1399086298433042479	1490	1516	1514	1457
1399086298447995440	1491	1517	1514	1458
1399086298452875507	1492	1517	1514	1459
1399086298467939477	1491	1516	1514	1458
1399086298482868413	1490	1515	1514	1458
1399086298487856849	1491	1515	1514	1458
1399086298492899478	1491	1515	1514	1458
1399086298502944864	1491	1515	1514	1458
1399086298507943139	1491	1515	1514	1458
1399086298517664336	1495	1515	1514	1458
1399086298527731690	1494	1515	1514	1459
1399086298537799513	1495	1514	1514	1459
1399086298542774201	1494	1514	1514	1458
1399086298558000384	1493	1514	1514	1458
1399086298568023488	1493	1514	1514	1459
1399086298582948711	1493	1514	1514	1459
1399086298587799047	1492	1512	1514	1459
1399086298592902309	1493	1514	1514	1459
1399086298607933880	1492	1512	1514	1459
1399086298617908120	1493	1515	1514	1459
1399086298632741623	1493	1515	1514	1460
1399086298637943610	1491	1515	1514	1459
1399086298647872493	1493	1514	1514	1459
1399086298652953794	1494	1515	1514	1460
1399086298667813329	1491	1515	1514	1459
1399086298682905338	1490	1514	1514	1458
1399086298687960771	1492	1515	1514	1460
1399086298697891099	1491	1514	1514	1459
1399086298702869895	1493	1515	1514	1460
1399086298717945687	1492	1515	1514	1459
1399086298728024209	1495	1516	1514	1460
1399086298738046302	1495	1516	1514	1460
1399086298742961571	1496	1515	1514	1459
1399086298752911677	1495	1515	1514	1459
1399086298762964721	1501	1518	1514	1460
1399086298767708248	1501	1518	1514	1460
1399086298777693910	1501	1517	1514	1460
1399086298787683790	1501	1516	1514	1460
1399086298792720964	1502	1516	1514	1460
1399086298802708671	1503	1515	1514	1460
1399086298812755164	1505	1517	1514	1460
1399086298817767024	1507	1519	1514	1461
1399086298827764724	1507	1518	1514	1461
1399086298837740408	1507	1518	1514	1461
1399086298842715681	1507	1517	1514	1461
1399086298852744888	1508	1517	1514	1461
1399086298867744683	1512	1519	1514	1461
1399086298882788117	1512	1519	1514	1461
1399086298887710777	1512	1518	1514	1461
1399086298902759070	1514	1518	1514	1462
1399086298917739937	1516	1516	1514	1461
1399086298933007096	1517	1516	1514	1462
1399086298937892799	1517	1516	1514	1461
1399086298952952653	1519	1516	1514	1462
1399086298962979337	1517	1515	1514	1462
1399086298982991949	1518	1515	1514	1462
1399086298987935865	1521	1515	1514	1463
1399086298992950469	1520	1515	1514	1462
1399086299002928846	1521	1515	1514	1462
1399086299012993099	1518	1516	1514	1462
1399086299027931855	1518	1517	1514	1462
1399086299037743447	1520	1516	1514	1462
1399086299047935055	1520	1516	1514	1463
1399086299052931677	1520	1516	1514	1462
1399086299062932307	1517	1519	1514	1462
1399086299072730728	1516	1520	1514	1463
1399086299082887004	1517	1519	1514	1462
1399086299087909076	1517	1519	1514	1462
1399086299097938538	1518	1519	1514	1462
1399086299102886286	1519	1518	1514	1463
1399086299117968590	1514	1519	1514	1462
1399086299127945520	1514	1520	1514	1462
1399086299137905111	1515	1519	1514	1462
1399086299147964197	1516	1519	1514	1463
1399086299153022874	1517	1519	1514	1462
1399086299168030862	1510	1518	1514	1462
1399086299183025336	1510	1518	1514	1462
1399086299187963821	1511	1518	1514	1462
1399086299197997373	1511	1517	1514	1461
1399086299202987728	1512	1518	1514	1462
1399086299218021054	1508	1516	1514	1462
1399086299227976243	1508	1516	1514	1462
