#Time	 Roll 	 Pitch 	 Yaw 	 Thrust
1399426567368053960	1517	1494	1505	1379
1399426567383072352	1518	1493	1505	1378
1399426567398047262	1517	1494	1505	1379
1399426567423069447	1517	1493	1505	1378
1399426567448028856	1517	1493	1505	1378
1399426567468073244	1517	1493	1505	1378
1399426567488079399	1518	1493	1505	1378
1399426567518145888	1517	1493	1505	1378
1399426567563082877	1517	1493	1505	1378
1399426567573068428	1518	1493	1505	1378
1399426567588103601	1517	1493	1505	1378
1399426567608066768	1518	1492	1505	1378
1399426567623076408	1518	1493	1505	1378
1399426567638077552	1519	1493	1505	1378
1399426567668004009	1518	1493	1505	1378
1399426567687991298	1518	1493	1505	1378
1399426567718099185	1518	1492	1505	1378
1399426567733173862	1518	1494	1505	1378
1399426567768033426	1518	1493	1505	1378
1399426567808034895	1519	1494	1505	1378
1399426567823103616	1518	1494	1505	1378
1399426567848039297	1518	1494	1505	1378
1399426567868067836	1518	1494	1505	1426
1399426567888006296	1518	1494	1505	1427
1399426567897957175	1518	1494	1505	1427
1399426567918056999	1518	1493	1505	1427
1399426567933059239	1517	1492	1505	1427
1399426567968026623	1517	1494	1505	1428
1399426567998011295	1518	1493	1505	1428
1399426568033032545	1517	1492	1505	1428
1399426568058029648	1517	1493	1505	1428
1399426568078071264	1516	1494	1505	1428
1399426568088008216	1517	1494	1505	1428
1399426568108060844	1517	1494	1505	1428
1399426568123059790	1517	1493	1505	1429
1399426568138095338	1517	1492	1505	1429
1399426568168158723	1516	1490	1505	1429
1399426568198036218	1516	1489	1505	1428
1399426568233057828	1516	1483	1505	1427
1399426568248118196	1515	1482	1505	1427
1399426568283032325	1511	1477	1505	1427
1399426568308065936	1507	1470	1505	1427
1399426568323052075	1507	1469	1505	1426
1399426568338130508	1506	1470	1505	1426
1399426568358049331	1505	1464	1505	1426
1399426568373104428	1506	1465	1504	1427
1399426568398080765	1505	1461	1504	1426
1399426568423028021	1506	1462	1504	1427
1399426568448052939	1506	1460	1504	1426
1399426568483080845	1508	1465	1504	1427
1399426568508222757	1505	1464	1504	1425
1399426568523346415	1505	1463	1504	1425
1399426568543323007	1504	1463	1504	1426
1399426568558428477	1507	1469	1504	1424
1399426568573395793	1507	1469	1504	1424
1399426568588352596	1507	1467	1504	1423
1399426568608253506	1508	1471	1504	1422
1399426568623290059	1507	1470	1504	1422
1399426568653361030	1518	1472	1503	1422
1399426568668437232	1518	1469	1504	1422
1399426568698318044	1516	1467	1503	1422
1399426568733314161	1517	1467	1503	1421
1399426568748375247	1514	1464	1503	1420
1399426568778362924	1507	1454	1503	1422
1399426568788229533	1508	1453	1502	1421
1399426568808357031	1498	1448	1502	1421
1399426568828407351	1500	1447	1502	1421
1399426568838292072	1498	1442	1502	1418
1399426568858374945	1496	1443	1502	1421
1399426568873355064	1495	1436	1501	1419
1399426568888490656	1494	1441	1501	1421
1399426568908389728	1493	1436	1501	1419
1399426568933334280	1492	1438	1501	1420
1399426568958275328	1492	1438	1501	1420
1399426568983375801	1492	1439	1501	1420
1399426569018375496	1498	1444	1501	1419
1399426569033466199	1499	1445	1501	1420
1399426569048327054	1498	1441	1500	1418
1399426569068368710	1500	1442	1500	1419
1399426569083442989	1501	1446	1500	1421
1399426569098403424	1502	1447	1500	1420
1399426569118133537	1509	1447	1501	1420
1399426569137957565	1511	1446	1500	1419
1399426569168041330	1513	1446	1500	1421
1399426569188061166	1512	1446	1500	1422
1399426569218091919	1513	1442	1500	1421
1399426569253054357	1508	1436	1500	1421
1399426569268096927	1510	1438	1500	1422
1399426569283089754	1510	1439	1500	1423
1399426569298394103	1511	1437	1500	1422
1399426569318183417	1502	1431	1501	1423
1399426569333508140	1502	1431	1501	1424
1399426569348382108	1504	1431	1501	1423
1399426569373274966	1498	1430	1501	1425
1399426569398353209	1501	1431	1501	1424
1399426569423298616	1498	1434	1501	1424
1399426569448378711	1498	1435	1501	1424
1399426569483087261	1496	1441	1501	1426
1399426569498100442	1498	1441	1501	1425
1399426569513123669	1502	1443	1501	1425
1399426569533123318	1502	1445	1501	1427
1399426569548163466	1503	1447	1501	1427
1399426569568054771	1505	1451	1501	1428
1399426569583067119	1505	1452	1501	1429
1399426569608092018	1508	1452	1501	1428
1399426569633361053	1508	1453	1501	1428
1399426569668254073	1514	1450	1501	1429
1399426569698325236	1515	1454	1501	1430
1399426569723295860	1520	1451	1500	1429
1399426569738154121	1520	1452	1500	1429
1399426569763371765	1519	1450	1500	1430
1399426569773029095	1519	1451	1500	1430
1399426569788096165	1519	1451	1500	1430
1399426569808038618	1510	1452	1500	1430
1399426569823048394	1510	1454	1500	1431
1399426569838111389	1512	1456	1500	1431
1399426569858177287	1507	1455	1499	1432
1399426569873113887	1508	1454	1499	1431
1399426569888208537	1508	1456	1499	1433
1399426569918057235	1509	1456	1499	1432
1399426569948101523	1509	1457	1498	1432
1399426569973062078	1511	1460	1498	1432
1399426569998048563	1512	1460	1498	1432
1399426570028025582	1510	1462	1497	1433
1399426570038033415	1509	1465	1497	1433
1399426570058129753	1520	1467	1497	1434
1399426570083050190	1523	1467	1497	1433
1399426570108370835	1524	1465	1497	1433
1399426570133423280	1522	1466	1496	1433
1399426570168372745	1521	1473	1496	1434
1399426570183430397	1523	1474	1495	1434
1399426570218284907	1522	1470	1495	1434
1399426570233256352	1522	1468	1495	1433
1399426570248310499	1522	1471	1495	1434
1399426570268395343	1515	1471	1495	1434
1399426570283355230	1516	1471	1494	1434
1399426570298388325	1517	1472	1495	1434
1399426570318269902	1516	1464	1494	1434
1399426570333538591	1517	1463	1494	1433
1399426570348336432	1516	1464	1494	1435
1399426570368232929	1515	1463	1494	1436
1399426570398329549	1518	1462	1494	1436
1399426570418299673	1523	1460	1494	1435
1399426570448236034	1521	1460	1494	1436
1399426570468251213	1523	1460	1494	1436
1399426570483320638	1523	1459	1494	1436
1399426570498284273	1523	1458	1494	1436
1399426570518305392	1526	1466	1494	1436
1399426570533308738	1526	1465	1494	1436
1399426570548289589	1526	1465	1493	1437
1399426570568296182	1526	1472	1493	1437
1399426570583268089	1526	1473	1493	1438
1399426570603273874	1528	1472	1493	1437
1399426570633311738	1529	1470	1493	1438
1399426570668291852	1527	1474	1492	1438
1399426570698333654	1528	1472	1492	1438
1399426570713449652	1529	1473	1492	1438
1399426570733457782	1529	1473	1492	1439
1399426570748314073	1528	1472	1492	1440
1399426570763428790	1534	1464	1492	1439
1399426570783343089	1535	1464	1492	1439
1399426570798458569	1533	1465	1492	1439
1399426570818376881	1529	1459	1492	1439
1399426570833424180	1528	1458	1492	1440
1399426570848430367	1529	1457	1492	1440
1399426570868374727	1527	1459	1492	1441
1399426570883464454	1527	1457	1492	1441
1399426570908340432	1523	1454	1492	1441
1399426570933427463	1523	1452	1492	1440
1399426570963310397	1519	1448	1492	1440
1399426570983081500	1518	1449	1492	1441
1399426571008402984	1521	1449	1492	1441
1399426571018204716	1522	1447	1492	1441
1399426571033249756	1523	1445	1492	1440
1399426571048378433	1521	1446	1492	1441
1399426571073098555	1519	1447	1492	1442
1399426571088306578	1519	1448	1491	1442
1399426571108203778	1525	1455	1491	1442
1399426571133305132	1526	1452	1491	1441
1399426571158343473	1526	1459	1491	1442
1399426571183298981	1526	1459	1490	1442
1399426571218378217	1536	1461	1490	1442
1399426571243283866	1537	1461	1490	1442
1399426571258373270	1534	1467	1490	1442
1399426571273432405	1534	1466	1490	1442
1399426571288437712	1535	1466	1490	1443
1399426571308281515	1530	1462	1489	1443
1399426571333390830	1530	1461	1489	1442
1399426571353344544	1529	1455	1489	1441
1399426571383272356	1528	1456	1489	1443
1399426571398299487	1528	1457	1489	1442
1399426571433338007	1525	1448	1489	1442
1399426571458073995	1520	1442	1489	1441
1399426571473381105	1518	1443	1489	1441
1399426571493317948	1518	1444	1489	1441
1399426571508199419	1511	1443	1489	1441
1399426571523403543	1510	1441	1489	1441
1399426571538417202	1509	1443	1489	1441
1399426571558135575	1509	1443	1489	1440
1399426571573393474	1507	1444	1489	1440
1399426571598292671	1508	1444	1488	1440
1399426571623318674	1507	1447	1489	1440
1399426571648354498	1506	1448	1489	1439
1399426571673228202	1507	1460	1489	1440
1399426571688326926	1507	1460	1489	1440
1399426571718063874	1513	1466	1489	1439
1399426571743015637	1513	1468	1489	1438
1399426571758093069	1519	1470	1489	1438
1399426571773059088	1518	1470	1489	1438
1399426571788040407	1516	1470	1489	1439
1399426571808061919	1516	1472	1489	1439
1399426571833000400	1517	1472	1489	1438
1399426571848221518	1517	1474	1489	1438
1399426571883501467	1523	1468	1489	1437
1399426571918095385	1525	1462	1489	1438
1399426571933213805	1526	1463	1489	1437
1399426571948305311	1525	1463	1489	1437
1399426571968358690	1517	1449	1489	1438
1399426571983355039	1517	1450	1489	1438
1399426571998370782	1516	1449	1489	1437
1399426572018305278	1513	1444	1488	1438
1399426572033493807	1514	1441	1488	1437
1399426572053271866	1509	1432	1488	1436
1399426572073392224	1507	1434	1488	1437
1399426572098368824	1506	1433	1488	1436
1399426572123019564	1498	1434	1487	1436
1399426572148188436	1496	1433	1487	1436
1399426572183094316	1490	1439	1487	1437
1399426572208455302	1489	1447	1487	1434
1399426572223526989	1489	1448	1486	1436
1399426572243125297	1486	1449	1486	1436
1399426572258279158	1492	1467	1486	1436
1399426572273387917	1492	1467	1486	1435
1399426572288392309	1491	1469	1486	1437
1399426572308329029	1490	1468	1486	1435
1399426572323335044	1500	1481	1486	1436
1399426572348311497	1498	1483	1486	1437
1399426572383256319	1506	1486	1486	1436
1399426572428380818	1511	1484	1486	1437
1399426572438260579	1512	1485	1486	1436
1399426572458288457	1521	1474	1486	1437
1399426572478331172	1521	1473	1486	1437
1399426572488280798	1522	1472	1486	1437
1399426572508373296	1523	1471	1486	1437
1399426572523424663	1527	1459	1486	1437
1399426572538455727	1525	1458	1486	1437
1399426572568311420	1520	1448	1486	1437
1399426572588399257	1521	1447	1486	1437
1399426572618365278	1510	1428	1486	1437
1399426572648417069	1511	1427	1486	1438
1399426572668284027	1511	1425	1485	1437
1399426572683356858	1511	1424	1485	1438
1399426572698204574	1511	1425	1485	1437
1399426572718312955	1501	1422	1485	1437
1399426572733497300	1501	1421	1485	1438
1399426572758269695	1496	1425	1485	1438
1399426572773219195	1495	1424	1485	1438
1399426572798257208	1495	1423	1485	1438
1399426572823126758	1487	1445	1485	1440
1399426572848307260	1486	1445	1485	1439
1399426572883312040	1488	1467	1485	1440
1399426572908274736	1488	1468	1485	1440
1399426572923397557	1490	1487	1485	1439
1399426572938435595	1490	1488	1486	1440
1399426572958355476	1494	1492	1486	1440
1399426572973351868	1494	1495	1486	1440
1399426572993386847	1494	1495	1486	1440
1399426573008370007	1500	1506	1486	1440
1399426573023404838	1501	1506	1487	1440
1399426573048313819	1501	1506	1487	1441
1399426573068426068	1506	1497	1487	1440
1399426573098006415	1507	1497	1487	1440
1399426573133294493	1515	1477	1488	1441
1399426573148197171	1516	1478	1488	1441
1399426573173099074	1516	1471	1488	1442
1399426573188261143	1518	1471	1488	1442
1399426573208145682	1525	1462	1488	1442
1399426573223516865	1526	1461	1488	1441
1399426573238431286	1527	1459	1489	1441
1399426573258335704	1526	1447	1489	1441
1399426573283376089	1527	1446	1489	1443
1399426573303207313	1527	1430	1489	1443
1399426573333198754	1527	1429	1489	1443
1399426573363319983	1523	1410	1490	1444
1399426573383346294	1523	1410	1490	1444
1399426573398303802	1523	1410	1490	1444
1399426573418275660	1515	1412	1490	1444
1399426573433267427	1514	1412	1490	1445
1399426573448370815	1514	1412	1491	1445
1399426573468402284	1500	1425	1491	1445
1399426573483314322	1499	1426	1491	1445
1399426573498317123	1499	1425	1491	1445
1399426573518265749	1497	1442	1492	1446
1399426573538293934	1497	1443	1492	1446
1399426573568350402	1493	1481	1492	1446
1399426573598305337	1491	1484	1493	1446
1399426573633228431	1491	1496	1493	1446
1399426573658354997	1491	1503	1493	1445
1399426573673353559	1492	1505	1494	1446
1399426573693274531	1491	1506	1494	1446
1399426573708107772	1489	1504	1494	1446
1399426573723318808	1489	1505	1494	1446
1399426573738289055	1488	1508	1494	1446
1399426573758191117	1489	1509	1494	1447
1399426573783183644	1496	1507	1494	1446
1399426573808267238	1497	1497	1494	1446
1399426573833308284	1498	1499	1494	1446
1399426573868210999	1503	1495	1494	1446
1399426573883176690	1504	1498	1494	1446
1399426573898266435	1504	1497	1494	1447
1399426573913430267	1509	1490	1494	1447
1399426573933188299	1509	1489	1494	1446
1399426573953146439	1521	1481	1493	1447
1399426573968188821	1522	1480	1493	1447
1399426573983099825	1524	1480	1493	1447
1399426574003055460	1529	1456	1493	1448
1399426574033271233	1530	1457	1493	1447
1399426574058261338	1525	1446	1493	1447
1399426574083255930	1525	1445	1493	1447
1399426574113327958	1520	1434	1492	1447
1399426574133363558	1519	1434	1492	1447
1399426574163258356	1512	1432	1492	1448
1399426574173199573	1513	1431	1492	1448
1399426574188346131	1513	1431	1491	1449
1399426574208292679	1508	1428	1491	1449
1399426574223393503	1507	1427	1491	1449
1399426574238505259	1506	1427	1491	1450
1399426574268371336	1500	1440	1490	1450
1399426574288360725	1500	1439	1490	1450
1399426574318375928	1492	1465	1490	1450
1399426574348087311	1490	1467	1489	1449
1399426574363532811	1493	1473	1489	1449
1399426574383259918	1492	1475	1488	1449
1399426574398405412	1492	1476	1488	1449
1399426574418397964	1490	1494	1488	1450
1399426574433339038	1489	1495	1487	1451
1399426574448337481	1488	1496	1487	1451
1399426574468277547	1492	1500	1486	1450
1399426574483360757	1491	1501	1486	1451
1399426574498244979	1493	1502	1485	1451
1399426574523228229	1494	1502	1485	1451
1399426574548466554	1495	1503	1484	1451
1399426574583317967	1500	1493	1483	1452
1399426574628384372	1516	1484	1482	1453
1399426574638364417	1517	1482	1481	1453
1399426574658393117	1528	1467	1481	1453
1399426574673367820	1530	1467	1481	1452
1399426574688188061	1531	1468	1481	1453
1399426574708260349	1531	1461	1480	1454
1399426574723349523	1531	1458	1480	1454
1399426574753320250	1526	1446	1480	1453
1399426574768439123	1528	1445	1479	1453
1399426574788241057	1529	1443	1479	1452
1399426574808308665	1525	1443	1479	1452
1399426574833708439	1526	1442	1479	1452
1399426574858240101	1526	1441	1479	1453
1399426574873214708	1520	1453	1479	1452
1399426574893500199	1520	1451	1479	1452
1399426574918080977	1513	1459	1479	1452
1399426574947964179	1513	1458	1479	1451
1399426574968069319	1494	1491	1479	1451
1399426574988050256	1494	1490	1479	1450
1399426575018057216	1490	1494	1479	1450
1399426575038066899	1490	1495	1479	1449
1399426575068056789	1500	1491	1479	1449
1399426575098028069	1500	1492	1479	1449
1399426575113087686	1503	1492	1479	1448
1399426575148122827	1502	1492	1479	1448
1399426575168154711	1516	1472	1479	1448
1399426575183123019	1516	1472	1479	1448
1399426575198211242	1517	1472	1479	1448
1399426575218123228	1522	1463	1479	1447
1399426575233102009	1522	1463	1479	1447
1399426575268060923	1525	1453	1479	1447
1399426575283081318	1525	1453	1479	1447
1399426575318196056	1521	1458	1479	1447
1399426575333104357	1520	1459	1479	1448
1399426575348021371	1521	1459	1478	1447
1399426575368017097	1507	1473	1478	1447
1399426575383118447	1508	1472	1478	1446
1399426575403115225	1504	1476	1478	1446
1399426575413045098	1504	1476	1478	1446
1399426575433115974	1505	1475	1478	1447
1399426575448102783	1505	1476	1477	1447
1399426575468203411	1500	1486	1477	1447
1399426575488019702	1501	1485	1477	1447
1399426575518109226	1512	1479	1476	1447
1399426575548228764	1512	1477	1476	1447
1399426575572981425	1515	1472	1476	1447
1399426575588120012	1516	1472	1475	1448
1399426575608025832	1528	1453	1475	1448
1399426575623121381	1528	1452	1475	1449
1399426575638100214	1527	1451	1475	1448
1399426575658012302	1527	1448	1474	1448
1399426575673105330	1528	1446	1474	1448
1399426575688081082	1528	1446	1474	1448
1399426575718055456	1524	1454	1474	1449
1399426575738061955	1524	1453	1473	1449
1399426575768027978	1519	1452	1473	1449
1399426575797995491	1519	1451	1472	1449
1399426575823003491	1509	1456	1472	1449
1399426575838068302	1507	1458	1472	1449
1399426575858052182	1508	1460	1472	1449
1399426575873050773	1507	1460	1472	1449
1399426575888103290	1508	1458	1472	1449
1399426575907991968	1507	1461	1472	1449
1399426575923113600	1507	1461	1472	1449
1399426575938088479	1506	1459	1472	1449
1399426575958081899	1512	1459	1472	1448
1399426575982995041	1512	1461	1472	1449
1399426576018142959	1515	1458	1472	1448
1399426576048119532	1516	1457	1472	1447
1399426576068055603	1519	1451	1472	1447
1399426576082985918	1519	1450	1472	1446
1399426576098036678	1519	1452	1472	1447
1399426576128132519	1523	1442	1472	1446
1399426576138130556	1523	1444	1472	1446
1399426576158084173	1522	1448	1472	1446
1399426576183017660	1523	1447	1472	1446
1399426576198027172	1522	1448	1472	1446
1399426576233093393	1514	1449	1472	1446
1399426576253096030	1504	1459	1472	1447
1399426576283052564	1505	1458	1472	1446
1399426576308032771	1498	1468	1472	1446
1399426576323098425	1499	1469	1472	1447
1399426576338074518	1499	1468	1472	1446
1399426576363101554	1499	1468	1472	1447
1399426576372995137	1497	1469	1472	1446
1399426576388102655	1496	1470	1472	1445
1399426576418026039	1498	1470	1472	1447
1399426576433124765	1497	1470	1472	1446
1399426576448140877	1496	1472	1472	1445
1399426576483084906	1508	1463	1472	1446
1399426576518089266	1510	1460	1472	1446
1399426576538012398	1509	1462	1472	1446
1399426576558114061	1514	1449	1472	1446
1399426576573080654	1514	1450	1472	1447
1399426576593096531	1514	1451	1472	1447
1399426576608157050	1518	1446	1472	1446
1399426576623021008	1517	1448	1472	1447
1399426576643066910	1517	1448	1473	1446
1399426576658112816	1510	1457	1472	1448
1399426576683055487	1510	1456	1472	1447
1399426576708203259	1510	1460	1473	1449
1399426576733227554	1510	1460	1473	1448
1399426576768076282	1505	1477	1473	1449
1399426576788013840	1504	1478	1473	1450
1399426576818070343	1505	1480	1473	1451
1399426576833027528	1504	1479	1473	1450
1399426576848116670	1505	1480	1473	1451
1399426576868006144	1504	1483	1473	1452
1399426576883185574	1503	1483	1473	1452
1399426576908138379	1503	1479	1473	1452
1399426576933107523	1503	1478	1473	1452
1399426576952996135	1502	1470	1473	1453
1399426576983050797	1500	1470	1473	1453
1399426577018354442	1502	1459	1472	1453
1399426577063272079	1499	1457	1472	1454
1399426577073211803	1499	1455	1472	1453
1399426577098195383	1499	1456	1472	1454
1399426577143249073	1501	1449	1472	1454
1399426577168331732	1503	1461	1472	1455
1399426577188321144	1503	1462	1472	1455
1399426577218358140	1505	1474	1472	1455
1399426577248381062	1505	1474	1472	1455
1399426577283029048	1504	1476	1472	1455
1399426577308320207	1505	1476	1472	1456
1399426577323101611	1505	1476	1472	1456
1399426577348049360	1505	1476	1472	1456
1399426577383008773	1501	1469	1472	1457
1399426577398050329	1501	1468	1472	1457
1399426577418100286	1497	1460	1472	1457
1399426577433174693	1496	1460	1472	1458
1399426577458062874	1497	1456	1472	1457
1399426577483056607	1496	1457	1472	1457
1399426577518104991	1496	1458	1472	1457
1399426577548005991	1496	1456	1472	1457
1399426577568013984	1500	1459	1472	1456
1399426577583095324	1500	1459	1472	1455
1399426577598039060	1500	1459	1472	1456
1399426577618076456	1503	1458	1472	1456
1399426577633092954	1504	1458	1472	1456
1399426577648129913	1503	1458	1472	1456
1399426577683046119	1507	1462	1472	1455
1399426577698206055	1506	1462	1472	1455
1399426577718122612	1505	1463	1472	1454
1399426577748097534	1507	1462	1472	1454
1399426577782989662	1510	1461	1472	1454
1399426577817987928	1506	1457	1472	1453
1399426577833116648	1507	1457	1472	1452
1399426577848070823	1507	1457	1472	1452
1399426577868054155	1504	1453	1472	1452
1399426577883032805	1505	1452	1472	1452
1399426577898087634	1504	1450	1472	1452
1399426577923007868	1504	1449	1472	1452
1399426577948034897	1504	1448	1472	1451
1399426577983024741	1509	1447	1473	1452
1399426578008025584	1513	1443	1473	1451
1399426578022994344	1514	1442	1473	1450
1399426578043060120	1514	1443	1473	1451
1399426578058073585	1512	1444	1473	1451
1399426578083109967	1512	1444	1473	1451
1399426578098059136	1513	1444	1473	1451
1399426578118043652	1508	1451	1473	1451
1399426578133091208	1508	1451	1473	1451
1399426578148073815	1508	1451	1473	1451
1399426578173008217	1508	1458	1472	1452
1399426578198079520	1509	1459	1472	1452
1399426578218083841	1512	1467	1472	1451
1399426578233164918	1511	1467	1472	1451
1399426578248100681	1510	1468	1472	1452
1399426578263137528	1514	1471	1472	1451
1399426578283026945	1513	1471	1472	1452
1399426578298059061	1513	1471	1472	1451
1399426578318014274	1511	1472	1472	1450
1399426578333050992	1511	1475	1472	1451
1399426578348066773	1512	1475	1472	1450
1399426578368052407	1513	1456	1472	1450
1399426578383067679	1513	1457	1472	1451
1399426578398077393	1513	1456	1472	1451
1399426578418104654	1513	1451	1472	1450
1399426578448019483	1513	1452	1472	1449
1399426578468033078	1514	1440	1472	1449
1399426578503061881	1514	1441	1472	1449
1399426578543087208	1514	1442	1472	1449
1399426578558064909	1514	1448	1472	1449
1399426578573088643	1515	1449	1472	1450
1399426578598057014	1515	1448	1472	1449
1399426578623067922	1520	1461	1472	1449
1399426578648143302	1519	1462	1472	1450
1399426578683015046	1524	1470	1472	1449
1399426578718064377	1528	1471	1472	1449
1399426578733152829	1528	1471	1472	1449
1399426578758046595	1531	1471	1473	1449
1399426578782970390	1532	1472	1474	1450
1399426578798089609	1532	1470	1474	1449
1399426578818088766	1526	1458	1474	1449
1399426578833088600	1529	1460	1475	1448
1399426578848050745	1530	1459	1475	1448
1399426578873213243	1526	1453	1475	1448
1399426578898059309	1527	1452	1476	1448
1399426578923052310	1524	1447	1476	1448
1399426578948112293	1524	1446	1476	1448
1399426578983088579	1522	1441	1476	1447
1399426578998022589	1522	1442	1477	1448
1399426579018022296	1526	1456	1477	1448
1399426579033083995	1526	1455	1477	1448
1399426579048132186	1526	1453	1477	1447
1399426579068133661	1527	1459	1477	1447
1399426579083029225	1528	1459	1477	1448
1399426579108020062	1533	1463	1477	1448
1399426579133173927	1534	1462	1477	1448
1399426579158056924	1537	1456	1477	1449
1399426579183102370	1537	1455	1476	1449
1399426579218032921	1538	1456	1476	1449
1399426579248077100	1538	1455	1476	1449
1399426579263153512	1541	1450	1476	1449
1399426579283158237	1542	1450	1476	1449
1399426579298177745	1541	1451	1476	1450
1399426579318133803	1540	1451	1476	1450
1399426579333152454	1541	1450	1476	1449
1399426579353082667	1537	1453	1476	1451
1399426579368189439	1536	1452	1475	1450
1399426579383108454	1536	1452	1475	1450
1399426579403043871	1532	1453	1475	1450
1399426579433080622	1533	1451	1474	1450
1399426579448130098	1533	1451	1474	1451
1399426579483128157	1528	1449	1474	1450
1399426579508007291	1523	1449	1473	1451
1399426579523113156	1522	1447	1473	1450
1399426579538071268	1521	1448	1473	1450
1399426579558132726	1522	1448	1473	1450
1399426579573127682	1521	1448	1472	1451
1399426579588049104	1520	1449	1472	1451
1399426579618131787	1521	1452	1472	1451
1399426579638030731	1520	1452	1472	1451
1399426579658117697	1517	1455	1472	1451
1399426579683164880	1517	1456	1472	1451
1399426579718222187	1515	1462	1472	1452
1399426579738065210	1513	1463	1472	1451
1399426579763114695	1524	1463	1472	1451
1399426579773034751	1524	1464	1472	1452
1399426579788097608	1523	1464	1472	1453
1399426579808076704	1529	1457	1472	1453
1399426579823084560	1526	1458	1472	1452
1399426579838072674	1525	1458	1472	1452
1399426579858118895	1527	1456	1472	1452
1399426579883114261	1525	1456	1472	1452
1399426579908042154	1518	1448	1472	1453
1399426579933047241	1517	1449	1472	1453
1399426579958022181	1504	1448	1472	1452
1399426579973075674	1504	1448	1472	1453
1399426579998122361	1502	1448	1472	1453
1399426580018128637	1500	1449	1472	1453
1399426580033145046	1499	1449	1472	1454
1399426580048135740	1496	1449	1472	1454
1399426580068060731	1494	1454	1472	1454
1399426580083062724	1491	1454	1472	1453
1399426580103148500	1496	1466	1472	1453
1399426580133066212	1494	1466	1472	1454
1399426580148098505	1493	1467	1472	1454
1399426580173052653	1498	1475	1472	1454
1399426580188102340	1495	1475	1472	1454
1399426580208132379	1504	1475	1472	1454
1399426580228168022	1501	1477	1472	1455
1399426580237929850	1501	1478	1472	1455
1399426580258126341	1502	1477	1472	1454
1399426580273138066	1499	1467	1472	1455
1399426580293044941	1499	1467	1472	1455
1399426580308140827	1491	1461	1472	1455
1399426580323094526	1492	1463	1472	1455
1399426580338071762	1490	1463	1472	1454
1399426580358068498	1492	1456	1472	1455
1399426580373124946	1493	1457	1472	1454
1399426580398022544	1493	1457	1472	1455
1399426580418071648	1496	1458	1472	1453
1399426580433108619	1497	1458	1472	1454
1399426580448080086	1496	1458	1472	1455
1399426580483075600	1506	1452	1472	1454
1399426580498110104	1506	1452	1472	1455
1399426580518046473	1508	1454	1472	1453
1399426580533080175	1508	1456	1472	1455
1399426580553091107	1508	1458	1472	1454
1399426580572982641	1507	1456	1472	1454
1399426580587977285	1511	1458	1472	1454
1399426580608051233	1495	1478	1472	1454
1399426580633102758	1496	1478	1472	1454
1399426580653117705	1499	1477	1472	1454
1399426580683076533	1501	1480	1472	1453
1399426580708028628	1503	1472	1472	1454
1399426580723079609	1504	1471	1472	1453
1399426580738090630	1505	1471	1472	1453
1399426580758137673	1507	1462	1472	1454
1399426580773146552	1507	1462	1472	1454
1399426580788055871	1509	1462	1472	1454
1399426580808168954	1513	1447	1472	1453
1399426580823061411	1514	1448	1472	1453
1399426580838093969	1514	1448	1472	1453
1399426580868060763	1514	1446	1472	1453
1399426580883105755	1515	1448	1472	1453
1399426580918027812	1509	1450	1472	1453
1399426580938043268	1510	1451	1472	1453
1399426580958147037	1506	1457	1472	1454
1399426580973079303	1506	1457	1472	1455
1399426580993037013	1507	1455	1472	1455
1399426581008012066	1504	1461	1472	1454
1399426581023039705	1504	1462	1472	1455
1399426581038011254	1504	1461	1472	1455
1399426581058035041	1509	1470	1472	1455
1399426581073045165	1512	1471	1472	1456
1399426581097996338	1511	1471	1472	1456
1399426581118027540	1513	1473	1472	1457
1399426581148044340	1512	1474	1472	1457
1399426581183031538	1523	1464	1472	1456
1399426581208052320	1520	1459	1472	1456
1399426581228089367	1521	1461	1472	1458
1399426581238007543	1523	1459	1472	1457
1399426581258038048	1522	1454	1472	1458
1399426581273078592	1523	1453	1472	1457
1399426581288070800	1523	1452	1472	1457
1399426581318008520	1529	1452	1472	1457
1399426581337984941	1528	1451	1472	1456
1399426581358078322	1532	1442	1472	1456
1399426581383218596	1533	1443	1472	1456
1399426581418164204	1531	1442	1472	1456
1399426581453143320	1528	1447	1472	1457
1399426581473007907	1530	1447	1472	1457
1399426581488336894	1529	1447	1472	1457
1399426581508011648	1523	1456	1472	1457
1399426581523109077	1522	1457	1472	1456
1399426581538074760	1521	1457	1472	1457
1399426581568012502	1513	1468	1472	1457
1399426581588034731	1512	1468	1472	1457
1399426581618122374	1506	1476	1472	1457
1399426581648028142	1503	1476	1472	1457
1399426581698144568	1502	1478	1472	1457
1399426581718036291	1505	1471	1472	1456
1399426581733084085	1505	1471	1472	1456
1399426581748072233	1504	1472	1472	1457
1399426581768045108	1511	1464	1472	1456
1399426581783096433	1511	1464	1472	1457
1399426581798084511	1510	1464	1472	1457
1399426581823072928	1524	1446	1472	1457
1399426581848034816	1523	1445	1472	1457
1399426581868023057	1530	1438	1472	1456
1399426581898051638	1530	1440	1472	1457
1399426581928032295	1533	1438	1472	1457
1399426581938013727	1532	1438	1472	1457
1399426581958021520	1532	1438	1472	1457
1399426581978045368	1532	1438	1472	1458
1399426581987997389	1533	1437	1472	1458
1399426582018088263	1522	1451	1472	1458
1399426582033088558	1521	1451	1472	1458
1399426582053100918	1519	1456	1472	1457
1399426582083106533	1519	1456	1472	1458
1399426582103043487	1509	1466	1472	1459
1399426582133108697	1509	1465	1472	1459
1399426582158086838	1511	1470	1472	1460
1399426582173092625	1512	1470	1472	1459
1399426582188124223	1510	1470	1472	1459
1399426582218141042	1513	1474	1472	1459
1399426582248049768	1514	1476	1472	1460
1399426582273083867	1521	1476	1472	1460
1399426582298016996	1520	1477	1472	1459
1399426582318047688	1527	1468	1472	1460
1399426582333209626	1528	1467	1472	1460
1399426582348123669	1528	1466	1472	1460
1399426582382974829	1526	1465	1472	1459
1399426582408041931	1524	1451	1472	1459
1399426582423081245	1524	1452	1472	1459
1399426582448098756	1524	1452	1472	1459
1399426582483070470	1516	1445	1472	1459
1399426582498060147	1515	1445	1472	1459
1399426582523085826	1510	1444	1472	1458
1399426582548114317	1510	1444	1472	1459
1399426582568046605	1506	1448	1472	1459
1399426582598053965	1505	1449	1472	1459
1399426582633109647	1505	1455	1472	1458
1399426582648059154	1505	1454	1472	1459
1399426582673096189	1514	1473	1472	1458
1399426582688105237	1514	1474	1472	1459
1399426582708020236	1517	1475	1472	1459
1399426582728001587	1517	1475	1472	1458
1399426582738011615	1516	1476	1472	1457
1399426582768082976	1524	1473	1472	1458
1399426582783090883	1523	1474	1472	1458
1399426582818047588	1529	1474	1472	1458
1399426582848041799	1530	1475	1472	1458
1399426582883103793	1532	1457	1472	1457
1399426582923003957	1532	1453	1472	1457
1399426582938025860	1534	1452	1472	1456
1399426582958055363	1523	1443	1472	1457
1399426582973148685	1522	1443	1472	1457
1399426582988163493	1523	1441	1472	1457
1399426583008063966	1521	1438	1472	1457
1399426583023150946	1523	1436	1472	1456
1399426583053029678	1519	1437	1472	1456
1399426583083060295	1519	1436	1472	1457
1399426583103115978	1515	1439	1472	1456
1399426583123029041	1515	1440	1472	1457
1399426583148094246	1516	1439	1472	1457
1399426583183059862	1519	1461	1472	1456
1399426583198110324	1519	1461	1472	1456
1399426583218120057	1525	1474	1472	1456
1399426583233144685	1525	1474	1472	1455
1399426583248029224	1525	1474	1472	1455
1399426583273028671	1529	1480	1472	1454
1399426583298001895	1530	1480	1472	1454
1399426583323058494	1538	1483	1472	1454
1399426583348081470	1538	1483	1472	1454
1399426583383022836	1542	1477	1472	1453
1399426583398098389	1542	1477	1472	1453
1399426583413194043	1540	1460	1472	1453
1399426583433121437	1543	1460	1472	1451
1399426583448105422	1542	1459	1472	1452
1399426583468116749	1544	1451	1472	1450
1399426583483104280	1545	1450	1472	1451
1399426583503070050	1537	1438	1472	1451
1399426583533071172	1537	1438	1472	1451
1399426583558077245	1533	1433	1472	1449
1399426583583082008	1535	1433	1472	1449
1399426583613089972	1528	1432	1472	1448
1399426583633103819	1530	1433	1472	1448
1399426583668081396	1528	1441	1472	1447
1399426583688017324	1528	1440	1472	1447
1399426583708058261	1533	1464	1472	1447
1399426583723074276	1533	1463	1472	1447
1399426583738135358	1534	1462	1472	1446
1399426583768098615	1533	1470	1472	1446
1399426583787998541	1533	1471	1472	1446
1399426583818037759	1540	1478	1472	1446
1399426583848111892	1539	1477	1472	1446
1399426583863123253	1544	1475	1472	1447
1399426583882991330	1543	1475	1472	1446
1399426583898051044	1542	1474	1472	1446
1399426583913057647	1539	1468	1472	1446
1399426583933035002	1538	1469	1472	1447
1399426583948203601	1539	1469	1472	1447
1399426583968089506	1537	1453	1472	1447
1399426583983085404	1536	1453	1472	1447
1399426583998128925	1535	1453	1472	1448
1399426584018038281	1534	1444	1472	1447
1399426584038068433	1534	1443	1472	1447
1399426584068076242	1527	1439	1472	1448
1399426584083095306	1526	1439	1472	1449
1399426584113056993	1525	1439	1472	1449
1399426584123049657	1524	1440	1472	1450
1399426584138030775	1523	1440	1472	1450
1399426584163105662	1522	1449	1472	1450
1399426584172989832	1520	1450	1472	1450
1399426584188128837	1519	1451	1472	1450
1399426584208003479	1521	1467	1472	1450
1399426584223182953	1520	1467	1472	1451
1399426584248114731	1520	1468	1472	1450
1399426584268055707	1529	1487	1472	1451
1399426584298042311	1528	1486	1472	1450
1399426584333052031	1532	1495	1472	1450
1399426584358004338	1537	1492	1472	1450
1399426584373093313	1535	1493	1472	1450
1399426584393082254	1534	1494	1472	1450
1399426584418031872	1535	1482	1472	1450
1399426584433090667	1534	1483	1472	1450
1399426584448092811	1533	1485	1472	1451
1399426584468114802	1521	1453	1472	1451
1399426584483143341	1522	1455	1472	1450
1399426584503074602	1520	1451	1472	1451
1399426584533059108	1520	1451	1472	1451
1399426584553091780	1518	1451	1472	1451
1399426584583085998	1515	1451	1472	1451
1399426584618126716	1518	1448	1472	1451
1399426584648035584	1517	1449	1472	1451
1399426584668001990	1517	1454	1472	1450
1399426584683064695	1518	1456	1472	1451
1399426584698046076	1519	1457	1472	1450
1399426584718370585	1527	1470	1472	1451
1399426584733535137	1528	1470	1472	1451
1399426584758263616	1533	1478	1472	1451
1399426584783381001	1534	1479	1472	1451
1399426584818379768	1536	1482	1472	1451
1399426584833451277	1536	1481	1472	1452
1399426584848440961	1537	1482	1472	1452
1399426584868187268	1538	1487	1472	1452
1399426584883232214	1538	1487	1472	1451
1399426584898399678	1538	1488	1472	1452
1399426584913341953	1527	1479	1472	1452
1399426584933289477	1527	1478	1472	1452
1399426584948284191	1527	1477	1472	1452
1399426584968198173	1519	1468	1472	1452
1399426584983504815	1519	1468	1472	1451
1399426585008328532	1510	1453	1472	1452
1399426585033163274	1510	1453	1472	1452
1399426585068053583	1510	1446	1472	1452
1399426585098007173	1511	1445	1472	1452
1399426585118085240	1521	1449	1473	1452
1399426585133082590	1522	1449	1473	1453
1399426585148096130	1521	1449	1473	1454
1399426585168054123	1525	1459	1474	1454
1399426585183006848	1523	1458	1474	1454
1399426585198035896	1522	1457	1474	1454
1399426585218099466	1520	1475	1474	1454
1399426585238096064	1521	1474	1475	1454
1399426585268044305	1521	1481	1475	1455
1399426585283123065	1520	1480	1475	1455
1399426585298114498	1519	1480	1475	1456
1399426585333182290	1517	1496	1475	1457
1399426585348056678	1517	1496	1475	1457
1399426585368082851	1514	1503	1475	1457
1399426585383087890	1514	1504	1475	1458
1399426585398102868	1512	1505	1475	1458
1399426585418120896	1515	1501	1474	1458
1399426585438074946	1515	1501	1474	1458
1399426585458113603	1517	1489	1474	1458
1399426585473130132	1517	1489	1474	1458
1399426585498072111	1518	1490	1473	1458
1399426585533076360	1519	1472	1473	1459
1399426585563080461	1520	1450	1473	1459
1399426585583105125	1519	1450	1473	1459
1399426585598037218	1519	1450	1472	1460
1399426585613098953	1516	1444	1472	1460
1399426585633195070	1515	1443	1472	1460
1399426585653108941	1518	1443	1472	1460
1399426585673102377	1517	1442	1472	1461
1399426585688114296	1517	1441	1472	1461
1399426585708102145	1515	1449	1472	1461
1399426585733008207	1515	1449	1472	1462
1399426585753103846	1511	1470	1472	1462
1399426585783117907	1512	1469	1472	1461
1399426585808123973	1518	1484	1472	1462
1399426585833049119	1518	1484	1472	1461
1399426585868000426	1523	1489	1472	1460
1399426585883059737	1521	1487	1472	1461
1399426585898109551	1522	1487	1472	1460
1399426585918035791	1522	1490	1472	1461
1399426585933080731	1523	1489	1472	1460
1399426585947990657	1524	1488	1472	1460
1399426585983050572	1523	1476	1472	1460
1399426586018143095	1526	1462	1472	1459
1399426586033126395	1526	1462	1472	1458
1399426586053096957	1522	1443	1472	1459
1399426586083022643	1523	1440	1472	1460
1399426586098110706	1522	1440	1472	1460
1399426586118101450	1522	1432	1472	1460
1399426586133077787	1521	1428	1472	1459
1399426586148100540	1522	1428	1472	1459
1399426586168056101	1520	1429	1472	1459
1399426586188102368	1519	1429	1472	1460
1399426586218171603	1514	1438	1472	1460
1399426586248062853	1514	1438	1472	1460
1399426586268164881	1513	1457	1472	1460
1399426586283061709	1513	1458	1472	1459
1399426586308031827	1505	1488	1472	1460
1399426586323108986	1504	1488	1472	1459
1399426586338099247	1503	1490	1472	1459
1399426586358037741	1500	1497	1472	1459
1399426586373092252	1499	1498	1472	1460
1399426586388065824	1498	1499	1472	1460
1399426586418037977	1489	1509	1472	1459
1399426586438081063	1489	1511	1472	1459
1399426586468039595	1486	1507	1472	1458
1399426586503075005	1496	1498	1472	1458
1399426586533026909	1495	1498	1472	1457
1399426586573024129	1507	1469	1472	1456
1399426586588063370	1506	1469	1472	1457
1399426586608041510	1525	1441	1472	1456
1399426586623101918	1524	1440	1472	1456
1399426586638060836	1525	1441	1472	1456
1399426586668051410	1535	1434	1472	1455
1399426586683085967	1535	1434	1472	1455
1399426586698274489	1536	1433	1472	1455
1399426586723047508	1539	1426	1472	1456
1399426586748127829	1539	1423	1472	1455
1399426586783062921	1538	1420	1472	1455
1399426586808042747	1513	1446	1472	1455
1399426586823064199	1513	1447	1472	1455
1399426586838099691	1514	1447	1472	1455
1399426586858042022	1510	1460	1472	1455
1399426586873116951	1508	1461	1472	1455
1399426586893068600	1509	1460	1472	1455
1399426586908024408	1497	1488	1472	1455
1399426586923054876	1498	1488	1472	1456
1399426586948077932	1497	1488	1472	1456
1399426586968046012	1488	1503	1472	1456
1399426586998011179	1489	1504	1472	1456
1399426587033070625	1484	1507	1472	1456
1399426587057974655	1488	1504	1472	1457
1399426587078031920	1487	1505	1472	1458
1399426587087987944	1487	1504	1472	1458
1399426587107990481	1507	1454	1472	1457
1399426587123054517	1508	1455	1472	1457
1399426587138067003	1507	1456	1472	1457
1399426587168109761	1516	1444	1472	1458
1399426587188066386	1516	1444	1472	1458
1399426587208075126	1525	1433	1472	1459
1399426587233080821	1526	1433	1472	1459
1399426587268040303	1530	1440	1472	1460
1399426587313202198	1526	1454	1472	1460
1399426587323027668	1527	1454	1472	1461
1399426587348074825	1527	1455	1472	1460
1399426587368038165	1510	1487	1472	1460
1399426587388050232	1510	1488	1472	1460
1399426587418108413	1509	1498	1472	1460
1399426587438012225	1511	1499	1472	1461
1399426587468057477	1506	1504	1472	1460
1399426587498063632	1507	1505	1472	1460
1399426587513075070	1510	1504	1472	1460
1399426587533077096	1511	1505	1472	1460
1399426587558045256	1514	1486	1472	1460
1399426587573180590	1517	1485	1472	1459
1399426587588090924	1517	1485	1472	1459
1399426587608071629	1521	1469	1472	1460
1399426587623117240	1523	1469	1472	1460
1399426587638088300	1524	1467	1472	1460
1399426587668008164	1525	1446	1472	1459
1399426587683073281	1525	1446	1472	1459
1399426587703073261	1531	1440	1472	1459
1399426587723013961	1531	1440	1472	1458
1399426587738099378	1531	1439	1472	1459
1399426587758084050	1531	1447	1472	1459
1399426587778120361	1532	1447	1472	1459
1399426587788143639	1533	1445	1472	1459
1399426587808067735	1533	1460	1472	1459
1399426587823130867	1535	1457	1472	1457
1399426587838051496	1534	1456	1472	1459
1399426587858132164	1538	1460	1472	1458
1399426587883031170	1538	1459	1472	1458
1399426587898132381	1540	1460	1472	1459
1399426587933068692	1531	1478	1472	1459
1399426587958004112	1532	1477	1472	1459
1399426587983097930	1537	1483	1472	1458
1399426588003091413	1536	1481	1472	1458
1399426588023168646	1539	1480	1472	1458
1399426588048012940	1538	1482	1472	1458
1399426588068035570	1534	1481	1472	1458
1399426588093049482	1535	1480	1472	1458
1399426588118078184	1532	1470	1472	1458
1399426588133104027	1531	1468	1472	1457
1399426588168111046	1527	1458	1472	1457
1399426588188054013	1528	1457	1472	1457
1399426588218069483	1535	1439	1472	1457
1399426588248077447	1536	1437	1472	1457
1399426588282993047	1538	1431	1472	1458
1399426588298069803	1539	1431	1472	1457
1399426588328105020	1543	1434	1472	1458
1399426588338005849	1543	1431	1472	1457
1399426588358111942	1544	1439	1472	1458
1399426588373059554	1544	1438	1472	1459
1399426588398275324	1543	1437	1472	1458
1399426588423308890	1551	1457	1472	1458
1399426588448385090	1549	1457	1472	1459
1399426588483247701	1541	1467	1472	1458
1399426588498420479	1540	1468	1472	1459
1399426588518331680	1533	1483	1472	1458
1399426588533507335	1531	1485	1472	1458
1399426588548382303	1530	1486	1472	1458
1399426588578230885	1529	1488	1472	1458
1399426588588190582	1527	1489	1472	1458
1399426588608435452	1525	1491	1472	1458
1399426588633278589	1520	1486	1472	1458
1399426588658343360	1516	1480	1472	1458
1399426588683375507	1515	1478	1472	1458
1399426588698393201	1513	1479	1472	1458
1399426588718298726	1515	1463	1472	1458
1399426588733364592	1515	1462	1472	1458
1399426588753346300	1526	1440	1472	1458
1399426588763235928	1525	1439	1472	1458
1399426588783341389	1524	1439	1472	1458
1399426588798493110	1522	1439	1472	1457
1399426588818055997	1521	1438	1472	1458
1399426588833301462	1536	1428	1472	1458
1399426588848465003	1534	1428	1472	1458
1399426588873087804	1537	1422	1472	1457
1399426588888158554	1535	1421	1472	1457
1399426588918048699	1537	1421	1472	1457
1399426588938087288	1537	1420	1472	1456
1399426588968065323	1538	1434	1472	1457
1399426588998080115	1537	1434	1472	1457
1399426589028367688	1535	1446	1472	1457
1399426589038167490	1533	1446	1472	1457
1399426589058370476	1516	1480	1472	1457
1399426589073457789	1516	1481	1472	1457
1399426589098279758	1516	1481	1472	1457
1399426589118318561	1513	1494	1472	1457
1399426589138261362	1513	1495	1472	1457
1399426589168298658	1507	1503	1472	1457
1399426589183358655	1506	1503	1472	1457
1399426589218108608	1508	1497	1472	1456
1399426589233118517	1507	1497	1472	1455
1399426589248138202	1507	1498	1472	1457
1399426589268076818	1513	1481	1472	1456
1399426589283086268	1512	1481	1472	1455
1399426589298090890	1510	1480	1472	1456
1399426589318078905	1517	1455	1472	1456
1399426589333119216	1517	1455	1472	1455
1399426589348157740	1517	1455	1472	1457
1399426589368085389	1523	1434	1472	1457
1399426589398065565	1523	1433	1472	1456
1399426589418094671	1527	1412	1472	1456
1399426589448070247	1528	1409	1472	1456
1399426589463091606	1525	1408	1472	1456
1399426589483061738	1525	1408	1472	1456
1399426589507981337	1528	1410	1472	1456
1399426589523364258	1528	1409	1472	1456
1399426589538391293	1527	1409	1472	1457
1399426589558271918	1528	1428	1472	1456
1399426589573306247	1529	1428	1472	1456
1399426589588347806	1529	1429	1472	1456
1399426589608242073	1529	1430	1472	1456
1399426589633481937	1524	1471	1472	1456
1399426589653254107	1525	1488	1472	1455
1399426589673297921	1526	1489	1472	1455
1399426589698375684	1527	1490	1472	1455
1399426589728295480	1523	1506	1472	1455
1399426589738270550	1522	1508	1472	1455
1399426589758207467	1519	1511	1472	1455
1399426589773049209	1520	1513	1472	1455
1399426589788451727	1521	1513	1472	1455
1399426589808351825	1513	1492	1472	1456
1399426589823417124	1512	1492	1472	1455
1399426589838394004	1513	1492	1472	1455
1399426589858390675	1512	1481	1472	1454
1399426589873418725	1515	1482	1472	1454
1399426589898294680	1514	1482	1472	1455
1399426589933081433	1513	1469	1472	1454
1399426589963387596	1516	1446	1472	1455
1399426589983368254	1516	1447	1472	1455
1399426589998326176	1516	1446	1472	1455
1399426590013290061	1519	1420	1472	1454
1399426590033109248	1519	1420	1472	1455
1399426590048452274	1520	1417	1472	1454
1399426590073322547	1523	1415	1472	1454
1399426590088333104	1524	1414	1472	1455
1399426590108183433	1530	1412	1472	1455
1399426590133142260	1531	1410	1472	1455
1399426590168401932	1538	1420	1472	1455
1399426590198070118	1538	1416	1472	1455
1399426590233204538	1539	1420	1472	1455
1399426590248429968	1539	1420	1472	1455
1399426590268182623	1531	1442	1472	1455
1399426590283364006	1532	1442	1472	1455
1399426590298401552	1533	1442	1472	1455
1399426590318281512	1527	1462	1472	1454
1399426590333364404	1527	1461	1472	1454
1399426590353360300	1519	1487	1472	1454
1399426590373328123	1517	1488	1472	1454
1399426590398393474	1517	1487	1472	1454
1399426590433243046	1511	1503	1472	1453
1399426590448251584	1510	1505	1472	1453
1399426590463325160	1502	1516	1472	1453
1399426590483095098	1502	1516	1472	1453
1399426590498113233	1502	1516	1472	1453
1399426590518011687	1503	1503	1472	1453
1399426590543043111	1503	1506	1472	1453
1399426590558049870	1512	1483	1472	1453
1399426590583063614	1512	1486	1472	1452
1399426590608082115	1524	1459	1472	1452
1399426590633278384	1524	1460	1472	1453
1399426590658314715	1538	1421	1472	1453
1399426590673505601	1538	1420	1472	1453
1399426590688431727	1539	1419	1472	1453
1399426590718117827	1540	1416	1472	1453
1399426590733440159	1541	1414	1472	1453
1399426590748326134	1541	1414	1472	1454
1399426590763308499	1548	1405	1472	1453
1399426590783136557	1549	1407	1472	1453
1399426590798050871	1549	1408	1472	1454
1399426590818105320	1548	1413	1472	1455
1399426590833087055	1548	1414	1472	1455
1399426590848033931	1549	1414	1472	1455
1399426590868088216	1547	1441	1472	1455
1399426590898041035	1546	1443	1473	1457
1399426590933090000	1532	1487	1473	1457
1399426590958023683	1518	1505	1474	1458
1399426590973080313	1517	1506	1474	1458
1399426590988110842	1517	1506	1474	1458
1399426591008064341	1506	1507	1474	1458
1399426591023132056	1505	1508	1475	1458
1399426591038108585	1504	1508	1475	1458
1399426591068072438	1498	1502	1475	1458
1399426591098208941	1497	1503	1476	1459
1399426591133097315	1494	1490	1476	1459
1399426591168086435	1503	1471	1476	1459
1399426591198023383	1502	1472	1476	1460
1399426591228129569	1523	1427	1476	1460
1399426591237986153	1523	1425	1476	1460
1399426591258147689	1535	1424	1476	1460
1399426591283031759	1536	1424	1476	1461
1399426591298131642	1536	1422	1476	1460
1399426591318131749	1558	1407	1476	1460
1399426591333089515	1559	1407	1476	1460
1399426591368010650	1561	1408	1476	1460
1399426591398016384	1563	1408	1475	1460
1399426591413068290	1563	1452	1475	1460
1399426591433058053	1564	1452	1475	1460
1399426591448049451	1564	1452	1475	1460
1399426591467986656	1562	1466	1475	1461
1399426591483067265	1563	1467	1474	1461
1399426591497988939	1564	1468	1474	1461
1399426591518009579	1548	1498	1474	1461
1399426591533090854	1548	1497	1474	1461
1399426591553136986	1529	1510	1474	1461
1399426591583145319	1528	1510	1473	1460
1399426591607979014	1499	1507	1472	1460
1399426591633163097	1499	1508	1472	1461
1399426591658081868	1491	1493	1472	1460
1399426591673019146	1491	1493	1472	1461
1399426591693167721	1490	1493	1472	1461
1399426591708086902	1491	1473	1472	1461
1399426591723038338	1489	1472	1472	1461
1399426591738081267	1487	1472	1472	1460
1399426591758046015	1491	1456	1472	1460
1399426591773071345	1488	1456	1472	1460
1399426591797975291	1485	1455	1472	1460
1399426591823026679	1481	1439	1472	1461
1399426591848147749	1479	1438	1472	1460
1399426591883371756	1493	1424	1472	1460
1399426591908238104	1498	1424	1472	1459
1399426591928008941	1499	1423	1472	1460
1399426591938016431	1496	1424	1472	1460
1399426591958085236	1525	1443	1472	1460
1399426591973152075	1526	1441	1472	1459
1399426591988181300	1523	1443	1472	1460
1399426592008035728	1535	1453	1472	1460
1399426592023037998	1535	1454	1472	1460
1399426592048051053	1533	1454	1472	1460
1399426592073073555	1538	1493	1472	1460
1399426592098078053	1537	1494	1472	1460
1399426592133089455	1533	1506	1472	1460
1399426592148043995	1532	1506	1472	1460
1399426592183083813	1533	1516	1472	1460
1399426592208044857	1526	1515	1472	1460
1399426592223047926	1525	1517	1472	1460
1399426592238108670	1525	1518	1472	1460
1399426592258049947	1505	1510	1472	1460
1399426592273121926	1504	1511	1472	1459
1399426592298041054	1504	1511	1472	1459
1399426592318074350	1498	1499	1472	1459
1399426592347997587	1498	1502	1472	1459
1399426592368063774	1475	1474	1472	1458
1399426592383180673	1476	1474	1472	1459
1399426592408039465	1483	1467	1472	1458
1399426592423069569	1483	1466	1472	1459
1399426592443031504	1484	1465	1472	1458
1399426592458003131	1490	1449	1472	1459
1399426592473050314	1491	1447	1472	1458
1399426592488065797	1491	1446	1472	1456
1399426592508064298	1511	1429	1472	1457
1399426592523135408	1511	1429	1472	1457
1399426592538060235	1512	1429	1472	1457
1399426592568085669	1523	1426	1472	1457
1399426592598031599	1526	1426	1472	1457
1399426592633046129	1540	1436	1472	1458
1399426592648061813	1542	1436	1472	1459
1399426592663333430	1542	1447	1472	1459
1399426592682969015	1542	1447	1472	1459
1399426592698119334	1543	1448	1472	1459
1399426592723091383	1548	1488	1472	1460
1399426592748076729	1549	1488	1473	1460
1399426592768020758	1539	1502	1473	1460
1399426592788015235	1540	1502	1473	1460
1399426592808050585	1521	1522	1473	1460
1399426592833107402	1522	1525	1474	1461
1399426592863036548	1501	1528	1474	1461
1399426592883053991	1501	1529	1474	1461
1399426592898026125	1501	1531	1474	1461
1399426592917992782	1473	1523	1473	1462
1399426592943040328	1472	1523	1473	1461
1399426592958092479	1468	1516	1473	1462
1399426592973018191	1467	1516	1473	1462
1399426592988009949	1466	1518	1473	1463
1399426593008092403	1462	1496	1473	1462
1399426593033105090	1460	1496	1472	1463
1399426593058047294	1462	1494	1472	1462
1399426593083048643	1460	1495	1472	1463
1399426593118046087	1478	1471	1472	1463
1399426593148063886	1480	1470	1472	1463
1399426593173076513	1506	1463	1472	1463
1399426593188046523	1506	1461	1472	1464
1399426593208127200	1546	1464	1472	1463
1399426593223111478	1545	1463	1472	1462
1399426593238069747	1548	1464	1472	1463
1399426593258056181	1566	1481	1472	1462
1399426593283097318	1567	1481	1472	1463
1399426593303020661	1570	1485	1472	1463
1399426593322978283	1573	1484	1472	1462
1399426593348051145	1573	1484	1472	1463
1399426593383027193	1561	1488	1472	1463
1399426593398066122	1563	1488	1472	1464
1399426593413139692	1546	1489	1472	1462
1399426593433092563	1546	1489	1472	1463
1399426593448067906	1547	1490	1472	1463
1399426593468054990	1490	1500	1472	1463
1399426593483065955	1491	1500	1472	1464
1399426593498064122	1491	1499	1472	1465
1399426593517981890	1472	1491	1472	1464
1399426593533103537	1472	1491	1472	1465
1399426593558022960	1472	1491	1472	1465
1399426593583162091	1462	1476	1472	1465
1399426593608033088	1457	1471	1472	1465
1399426593623002483	1456	1471	1472	1466
1399426593638143001	1455	1470	1472	1466
1399426593663124748	1518	1474	1472	1466
1399426593673005115	1517	1473	1472	1466
1399426593688107849	1518	1472	1472	1466
1399426593708164463	1534	1477	1472	1467
1399426593723146035	1534	1476	1472	1468
1399426593738113134	1533	1473	1472	1468
1399426593758069230	1555	1480	1472	1468
1399426593783129280	1555	1480	1472	1468
1399426593798138953	1557	1478	1472	1469
1399426593818084563	1571	1484	1472	1469
1399426593848038912	1573	1483	1472	1468
1399426593863115240	1546	1478	1472	1468
1399426593903040801	1519	1474	1472	1469
1399426593928106095	1519	1472	1472	1467
1399426593938036674	1517	1471	1472	1468
1399426593968101321	1484	1458	1472	1468
1399426593983108139	1483	1458	1472	1468
1399426593998466085	1483	1458	1472	1467
1399426594023293703	1465	1453	1472	1468
1399426594048302843	1465	1452	1472	1468
1399426594083390056	1504	1452	1472	1468
1399426594103409228	1525	1458	1472	1467
1399426594113288723	1523	1460	1472	1469
1399426594148419354	1522	1457	1472	1468
1399426594168044421	1530	1466	1472	1468
1399426594183106553	1531	1465	1472	1468
1399426594198094290	1531	1464	1472	1467
1399426594218077247	1538	1468	1472	1466
1399426594233049885	1540	1469	1472	1466
1399426594257997494	1533	1462	1472	1466
1399426594283057410	1534	1461	1472	1466
1399426594318013845	1523	1450	1472	1465
1399426594333073480	1525	1449	1472	1465
1399426594353033112	1524	1449	1472	1463
1399426594368265167	1502	1444	1472	1463
1399426594383105980	1503	1443	1472	1463
1399426594398049169	1504	1444	1472	1464
1399426594413114122	1495	1442	1472	1463
1399426594433119203	1495	1443	1472	1463
1399426594448077108	1494	1444	1472	1463
1399426594468095590	1491	1443	1472	1462
1399426594488046376	1490	1444	1472	1462
1399426594518065544	1490	1445	1472	1461
1399426594548052764	1490	1445	1472	1461
1399426594568020099	1504	1454	1472	1461
1399426594583110635	1504	1454	1472	1461
1399426594602984780	1535	1464	1472	1460
1399426594613035228	1536	1466	1472	1461
1399426594633093339	1536	1466	1472	1460
1399426594648066386	1536	1467	1472	1460
1399426594668145135	1545	1470	1472	1460
1399426594683004089	1545	1472	1472	1460
1399426594698069142	1546	1473	1472	1460
1399426594718138710	1542	1465	1472	1458
1399426594738106753	1541	1466	1472	1459
1399426594768119214	1536	1466	1472	1458
1399426594798032712	1537	1467	1472	1458
1399426594828087207	1515	1451	1472	1457
1399426594838024555	1516	1451	1472	1457
1399426594858498842	1514	1451	1472	1458
1399426594873121701	1516	1452	1472	1457
1399426594898084731	1515	1451	1472	1457
1399426594917984076	1523	1457	1472	1456
1399426594933136863	1523	1457	1472	1456
1399426594948129462	1523	1458	1472	1456
1399426594973384425	1523	1459	1472	1456
1399426594998357874	1520	1459	1472	1455
1399426595033287608	1522	1466	1472	1455
1399426595068419051	1524	1464	1472	1455
1399426595088287278	1523	1464	1472	1455
1399426595118239398	1526	1464	1472	1455
1399426595133485847	1525	1466	1472	1455
1399426595148469946	1525	1466	1472	1456
1399426595163367709	1535	1466	1472	1455
1399426595183436068	1534	1466	1472	1455
1399426595203208714	1534	1466	1472	1455
1399426595233277635	1538	1465	1472	1456
1399426595268231273	1537	1461	1473	1457
1399426595298109841	1537	1462	1473	1457
1399426595333045217	1534	1458	1474	1458
1399426595348108290	1534	1458	1474	1458
1399426595367997902	1522	1460	1474	1459
1399426595383047051	1523	1459	1475	1459
1399426595398086265	1523	1458	1475	1460
1399426595418068502	1525	1455	1475	1459
1399426595433137166	1525	1455	1475	1459
1399426595448125716	1524	1455	1476	1460
1399426595468097214	1527	1457	1476	1461
1399426595498052208	1528	1456	1477	1461
1399426595533074799	1528	1454	1477	1462
1399426595548062213	1529	1454	1477	1463
1399426595583032968	1528	1456	1478	1463
1399426595598099195	1529	1456	1478	1463
1399426595618087725	1529	1464	1479	1463
1399426595633112822	1529	1464	1479	1464
1399426595648053360	1530	1463	1479	1464
1399426595673073969	1533	1470	1480	1464
1399426595698059522	1534	1468	1480	1464
1399426595718073116	1534	1471	1480	1464
1399426595747992078	1535	1473	1480	1465
1399426595783046473	1535	1469	1481	1465
1399426595828097129	1532	1455	1481	1465
1399426595838008231	1531	1456	1480	1466
1399426595858229598	1533	1448	1480	1466
1399426595873130270	1533	1449	1480	1466
1399426595888079834	1533	1447	1480	1466
1399426595918018162	1535	1448	1480	1467
1399426595938102012	1535	1449	1480	1467
1399426595967964669	1535	1445	1480	1467
1399426595998062869	1535	1445	1479	1467
1399426596018082156	1532	1453	1479	1467
1399426596033088762	1531	1453	1479	1467
1399426596063060982	1529	1459	1479	1467
1399426596073063171	1529	1459	1478	1467
1399426596098040313	1528	1459	1478	1467
1399426596143115092	1528	1461	1478	1467
1399426596168004536	1523	1469	1477	1466
1399426596188011014	1522	1469	1477	1466
1399426596208026220	1526	1459	1477	1466
1399426596233189366	1525	1459	1476	1466
1399426596268068318	1528	1457	1476	1466
1399426596297981845	1526	1457	1475	1466
1399426596318097758	1526	1453	1475	1466
1399426596333160928	1526	1452	1475	1466
1399426596373109842	1530	1446	1474	1466
1399426596388059748	1530	1446	1474	1466
1399426596408042518	1531	1441	1474	1466
1399426596423049838	1530	1442	1474	1465
1399426596448082781	1530	1444	1473	1465
1399426596473011282	1522	1460	1473	1466
1399426596498053265	1522	1460	1473	1465
1399426596533116200	1512	1472	1472	1466
1399426596563064026	1507	1477	1472	1466
1399426596573092046	1506	1478	1472	1465
1399426596588105542	1505	1479	1472	1465
1399426596618045327	1503	1475	1472	1465
1399426596633123021	1504	1476	1472	1465
1399426596658093184	1509	1465	1472	1466
1399426596683027695	1509	1465	1472	1466
1399426596698079451	1506	1468	1472	1467
1399426596718093882	1510	1463	1472	1465
1399426596748082248	1509	1465	1472	1466
1399426596783050792	1509	1461	1472	1465
1399426596818013209	1506	1461	1472	1465
1399426596833059016	1506	1462	1472	1465
1399426596863043565	1504	1465	1472	1464
1399426596872994586	1503	1466	1472	1464
1399426596888032823	1504	1467	1472	1465
1399426596908059088	1502	1477	1472	1465
1399426596933082065	1501	1477	1472	1465
1399426596968076831	1494	1480	1472	1465
1399426596988044313	1495	1479	1472	1465
1399426597008147903	1498	1481	1472	1464
1399426597028064452	1497	1480	1472	1464
1399426597052270577	1499	1475	1472	1465
1399426597063153818	1500	1476	1472	1465
1399426597098246598	1499	1474	1472	1465
1399426597118319829	1503	1463	1472	1466
1399426597133517912	1503	1462	1472	1465
1399426597148293223	1501	1463	1472	1466
1399426597173189513	1507	1455	1472	1466
1399426597198289065	1505	1456	1472	1467
1399426597233056617	1504	1455	1472	1467
1399426597258107816	1498	1460	1472	1467
1399426597278148511	1497	1462	1472	1468
1399426597288140037	1498	1461	1472	1468
1399426597313116755	1487	1476	1472	1469
1399426597323036048	1487	1474	1472	1468
1399426597338119833	1487	1474	1472	1467
1399426597368040591	1490	1476	1472	1468
1399426597387995468	1488	1474	1472	1467
1399426597408093058	1492	1474	1472	1467
1399426597433078056	1492	1474	1472	1467
1399426597458044761	1493	1474	1472	1466
1399426597483036195	1493	1474	1472	1466
1399426597518149042	1500	1463	1472	1466
1399426597548007970	1500	1461	1472	1465
1399426597568012215	1504	1456	1472	1465
1399426597593025976	1505	1454	1472	1464
1399426597608078178	1505	1449	1472	1464
1399426597623206718	1506	1447	1472	1464
1399426597638117500	1508	1448	1472	1464
1399426597668076507	1509	1445	1472	1464
1399426597688005783	1510	1445	1472	1464
1399426597718090748	1499	1455	1472	1464
1399426597733085020	1499	1455	1472	1464
1399426597758034229	1497	1464	1472	1464
1399426597783066473	1498	1463	1472	1465
1399426597798167719	1499	1462	1472	1464
1399426597813164255	1501	1466	1472	1465
1399426597833219450	1502	1466	1472	1465
1399426597848157116	1502	1464	1472	1465
1399426597868049066	1507	1463	1472	1465
1399426597888046090	1508	1462	1472	1465
1399426597918066157	1510	1460	1472	1466
1399426597933134301	1511	1460	1472	1466
1399426597968105792	1511	1447	1472	1466
1399426597998079764	1512	1446	1472	1466
1399426598018009195	1506	1441	1472	1467
1399426598033093625	1506	1440	1472	1467
1399426598048178526	1507	1439	1472	1466
1399426598068087993	1505	1439	1472	1467
1399426598083216902	1505	1439	1472	1467
1399426598098290258	1506	1438	1472	1468
1399426598123068320	1503	1436	1472	1468
1399426598148085643	1503	1435	1473	1468
1399426598168082355	1507	1441	1473	1468
1399426598188069337	1508	1443	1474	1468
1399426598218041222	1506	1452	1475	1468
1399426598248059053	1506	1452	1476	1468
1399426598268069009	1513	1462	1476	1468
1399426598283109790	1511	1463	1477	1469
1399426598298159029	1513	1463	1477	1468
1399426598318080155	1519	1474	1478	1467
1399426598332962225	1519	1475	1479	1467
1399426598348136014	1519	1476	1479	1467
1399426598373013718	1528	1465	1480	1467
1399426598388115331	1528	1465	1481	1467
1399426598418058229	1528	1464	1482	1467
1399426598438007978	1528	1465	1482	1467
1399426598468032666	1519	1444	1483	1467
1399426598498037841	1520	1444	1484	1467
1399426598513079110	1514	1436	1484	1467
1399426598533104040	1513	1436	1484	1467
1399426598548029042	1513	1438	1485	1467
1399426598568066935	1513	1445	1485	1467
1399426598588105586	1513	1445	1485	1467
1399426598608111598	1512	1453	1485	1466
1399426598623022823	1512	1454	1485	1467
1399426598648306182	1512	1456	1485	1468
1399426598673259172	1518	1463	1485	1467
1399426598708787626	1520	1469	1485	1467
1399426598723257448	1525	1477	1485	1468
1399426598738385679	1523	1477	1485	1468
1399426598763530555	1522	1481	1485	1468
1399426598773223555	1523	1482	1485	1467
1399426598788400115	1523	1483	1484	1468
1399426598808081131	1521	1477	1484	1467
1399426598823135064	1520	1478	1484	1467
1399426598838084531	1521	1480	1483	1467
1399426598858053452	1520	1469	1483	1468
1399426598873112843	1519	1469	1483	1468
1399426598903100937	1519	1470	1482	1468
1399426598933055030	1521	1456	1481	1469
1399426598948070790	1521	1456	1481	1468
1399426598983016870	1518	1448	1480	1469
1399426598998148133	1517	1449	1480	1469
1399426599018057016	1518	1450	1479	1469
1399426599033145704	1518	1451	1479	1469
1399426599048042718	1518	1450	1479	1469
1399426599068044511	1516	1465	1479	1468
1399426599083063595	1515	1467	1478	1468
1399426599103094602	1516	1466	1478	1468
1399426599133079477	1517	1489	1478	1469
1399426599148108353	1517	1490	1478	1469
1399426599173044676	1520	1499	1477	1470
1399426599188097058	1521	1498	1477	1469
1399426599208044097	1526	1494	1477	1469
1399426599223043852	1526	1495	1477	1468
